district,formal_name,lat,long,time,summary,icon,sunriseTime,sunsetTime,moonPhase,precipIntensity,precipIntensityMax,precipIntensityMaxTime,precipProbability,precipType,temperatureHigh,temperatureHighTime,temperatureLow,temperatureLowTime,apparentTemperatureHigh,apparentTemperatureHighTime,apparentTemperatureLow,apparentTemperatureLowTime,dewPoint,humidity,pressure,windSpeed,windGust,windGustTime,windBearing,cloudCover,uvIndex,uvIndexTime,visibility,ozone,temperatureMin,temperatureMinTime,temperatureMax,temperatureMaxTime,apparentTemperatureMin,apparentTemperatureMinTime,apparentTemperatureMax,apparentTemperatureMaxTime
Achham,Asara Ghat,28.95029444,81.44431944,2020-09-14 00:00:00,Humid and partly cloudy throughout the day.,rain,2020-09-14 06:05:00,2020-09-14 18:27:00,0.89,0.2324,0.5999,2020-09-14 06:00:00,0.5,rain,30.98,2020-09-14 12:45:00,20.31,2020-09-15 05:43:00,33.3,2020-09-14 16:40:00,20.66,2020-09-15 05:45:00,21.53,0.79,1007.7,1.03,2.34,1600073700,200,0.65,10,1600063680,16.093,263.1,21.45,2020-09-14 05:07:00,30.98,2020-09-14 12:45:00,22.05,2020-09-14 05:13:00,33.3,2020-09-14 16:40:00
Achham,Basti,29.03098333,81.17113333,2020-09-14 00:00:00,Humid and partly cloudy throughout the day.,rain,2020-09-14 06:06:00,2020-09-14 18:28:00,0.89,0.222,0.6508,2020-09-14 05:59:00,0.51,rain,32.37,2020-09-14 12:48:00,22.15,2020-09-15 05:44:00,37.42,2020-09-14 16:45:00,23.0,2020-09-15 05:45:00,22.92,0.81,1007.6,0.91,2.27,1600073820,192,0.52,10,1600063980,15.453,263.2,22.25,2020-09-14 05:37:00,32.37,2020-09-14 12:48:00,23.12,2020-09-14 05:45:00,37.42,2020-09-14 16:45:00
Achham,Mangalsen,29.13611389,81.25009167,2020-09-14 00:00:00,Humid and partly cloudy throughout the day.,rain,2020-09-14 06:06:00,2020-09-14 18:28:00,0.89,0.1468,0.4292,2020-09-14 05:58:00,0.45,rain,29.38,2020-09-14 13:24:00,18.81,2020-09-15 05:36:00,30.08,2020-09-14 13:44:00,19.09,2020-09-15 05:36:00,18.88,0.78,1008.0,0.98,2.17,1600073700,173,0.54,10,1600064700,15.99,262.8,18.62,2020-09-14 05:21:00,29.38,2020-09-14 13:24:00,18.95,2020-09-14 05:25:00,30.08,2020-09-14 13:44:00
Achham,Sugali,29.17980694,81.37293889,2020-09-14 00:00:00,Humid and partly cloudy throughout the day.,rain,2020-09-14 06:05:00,2020-09-14 18:27:00,0.89,0.0955,0.2685,2020-09-14 17:44:00,0.42,rain,27.45,2020-09-14 13:07:00,16.78,2020-09-15 05:38:00,28.05,2020-09-14 13:18:00,17.05,2020-09-15 05:38:00,17.26,0.8,1008.2,1.12,2.36,1600073460,169,0.54,11,1600063980,16.091,261.8,16.2,2020-09-14 05:15:00,27.45,2020-09-14 13:07:00,16.47,2020-09-14 05:15:00,28.05,2020-09-14 13:18:00
Arghakhanchi,Rangsing,27.80330278,82.78400833,2020-09-14 00:00:00,Rain in the morning.,rain,2020-09-14 06:00:00,2020-09-14 18:21:00,0.89,0.3683,1.2621,2020-09-14 06:03:00,0.61,rain,31.68,2020-09-14 13:18:00,23.42,2020-09-15 05:17:00,38.25,2020-09-14 13:46:00,24.34,2020-09-15 05:25:00,24.41,0.85,1006.0,1.24,2.36,1600052340,72,0.75,9,1600062660,14.672,263.8,23.5,2020-09-14 05:08:00,31.68,2020-09-14 13:18:00,24.56,2020-09-14 04:56:00,38.25,2020-09-14 13:46:00
Arghakhanchi,Sandhikharka,27.96402222,83.12056944,2020-09-14 00:00:00,Possible light rain in the morning.,rain,2020-09-14 05:59:00,2020-09-14 18:20:00,0.89,0.4038,0.7015,2020-09-14 06:06:00,0.69,rain,27.85,2020-09-14 13:45:00,19.16,2020-09-15 05:28:00,30.08,2020-09-14 13:53:00,19.46,2020-09-15 05:32:00,20.77,0.91,1007.2,0.98,1.87,1600068300,55,0.78,9,1600062360,15.386,262.1,18.09,2020-09-14 04:43:00,27.85,2020-09-14 13:45:00,18.8,2020-09-14 04:41:00,30.08,2020-09-14 13:53:00
Arghakhanchi,Sidhara,27.7945,82.82838333,2020-09-14 00:00:00,Rain in the morning.,rain,2020-09-14 06:00:00,2020-09-14 18:21:00,0.89,0.3574,1.2567,2020-09-14 06:03:00,0.62,rain,31.25,2020-09-14 13:20:00,23.17,2020-09-15 05:02:00,36.52,2020-09-14 13:38:00,24.03,2020-09-15 05:11:00,23.6,0.84,1006.0,1.27,2.31,1600052220,71,0.75,9,1600062660,14.875,263.8,23.03,2020-09-14 04:58:00,31.25,2020-09-14 13:20:00,23.98,2020-09-14 04:50:00,36.52,2020-09-14 13:38:00
Baglung,Baglung,28.26363611,83.60032222,2020-09-14 00:00:00,Mostly cloudy throughout the day.,rain,2020-09-14 05:57:00,2020-09-14 18:18:00,0.89,0.2282,0.4396,2020-09-14 17:32:00,0.61,rain,27.58,2020-09-14 14:47:00,17.18,2020-09-15 05:44:00,29.14,2020-09-14 14:51:00,17.45,2020-09-15 05:44:00,17.76,0.81,1008.6,0.96,1.9,1600064880,344,0.79,9,1600062300,15.55,260.5,16.81,2020-09-14 04:48:00,27.58,2020-09-14 14:47:00,17.16,2020-09-14 04:48:00,29.14,2020-09-14 14:51:00
Baglung,Dhorpatan,28.48333333,83.08333333,2020-09-14 00:00:00,Partly cloudy throughout the day.,rain,2020-09-14 05:59:00,2020-09-14 18:20:00,0.89,0.1891,0.4792,2020-09-14 15:07:00,0.58,rain,16.28,2020-09-14 12:36:00,9.01,2020-09-15 05:40:00,17.08,2020-09-14 12:55:00,9.27,2020-09-15 05:39:00,11.88,1.0,1008.7,1.13,2.48,1600065660,1,0.78,11,1600062420,14.161,257.2,8.07,2020-09-14 04:57:00,16.28,2020-09-14 12:36:00,8.69,2020-09-14 05:15:00,17.08,2020-09-14 12:55:00
Baglung,Galkot,28.21869167,83.41881111,2020-09-14 00:00:00,Partly cloudy throughout the day.,rain,2020-09-14 05:58:00,2020-09-14 18:19:00,0.89,0.2762,0.5162,2020-09-14 17:30:00,0.66,rain,26.02,2020-09-14 14:44:00,15.12,2020-09-15 05:44:00,26.38,2020-09-14 14:48:00,15.39,2020-09-15 05:44:00,17.9,0.9,1008.5,0.97,1.82,1600065240,358,0.78,9,1600062360,15.401,260.5,14.54,2020-09-14 05:05:00,26.02,2020-09-14 14:44:00,14.87,2020-09-14 05:05:00,26.38,2020-09-14 14:48:00
Baglung,Rangkhani,28.14408889,83.55824444,2020-09-14 00:00:00,Partly cloudy throughout the day.,rain,2020-09-14 05:57:00,2020-09-14 18:18:00,0.89,0.3258,0.5148,2020-09-14 16:44:00,0.66,rain,24.11,2020-09-14 14:38:00,15.2,2020-09-15 05:33:00,24.21,2020-09-14 14:38:00,15.47,2020-09-15 05:33:00,17.08,0.91,1008.2,0.94,1.81,1600064280,353,0.77,9,1600062180,15.671,261.1,14.56,2020-09-14 04:46:00,24.11,2020-09-14 14:38:00,14.96,2020-09-14 04:44:00,24.21,2020-09-14 14:38:00
Baitadi,Patan (West),29.467137,80.54575109999999,2020-09-14 00:00:00,Humid and partly cloudy throughout the day.,rain,2020-09-14 06:09:00,2020-09-14 18:31:00,0.89,0.1667,0.4016,2020-09-14 02:33:00,0.49,rain,28.78,2020-09-14 13:43:00,18.4,2020-09-15 05:40:00,31.81,2020-09-14 13:24:00,19.33,2020-09-15 05:40:00,21.65,0.94,1008.0,0.85,2.2,1600082880,210,0.33,10,1600066320,16.093,261.9,18.49,2020-09-14 04:48:00,28.78,2020-09-14 13:43:00,19.44,2020-09-14 04:49:00,31.81,2020-09-14 13:24:00
Baitadi,Satbanjh,29.4973,80.49741194,2020-09-14 00:00:00,Humid throughout the day.,rain,2020-09-14 06:09:00,2020-09-14 18:31:00,0.89,0.1505,0.3859,2020-09-14 02:34:00,0.48,rain,25.53,2020-09-14 13:52:00,15.93,2020-09-15 05:27:00,25.74,2020-09-14 13:48:00,16.99,2020-09-15 05:26:00,18.82,0.96,1008.0,0.87,2.44,1600083900,208,0.31,10,1600066440,16.093,262.0,15.98,2020-09-14 04:45:00,25.53,2020-09-14 13:52:00,17.11,2020-09-14 04:46:00,25.74,2020-09-14 13:48:00
Bajhang,Chainpur (West),29.55,81.21666667,2020-09-14 00:00:00,Clear throughout the day.,rain,2020-09-14 06:06:00,2020-09-14 18:28:00,0.89,0.0749,0.4351,2020-09-14 17:45:00,0.38,rain,26.24,2020-09-14 13:05:00,15.46,2020-09-15 05:31:00,25.97,2020-09-14 13:08:00,15.73,2020-09-15 05:31:00,13.57,0.69,1009.2,1.2,2.53,1600073400,11,0.2,11,1600064280,15.87,259.4,14.62,2020-09-14 05:04:00,26.24,2020-09-14 13:05:00,14.89,2020-09-14 05:04:00,25.97,2020-09-14 13:08:00
Bajhang,Chainpur Bajhang Aws Climate,29.545890000000004,81.20114000000001,2020-09-14 00:00:00,Clear throughout the day.,rain,2020-09-14 06:06:00,2020-09-14 18:28:00,0.89,0.0768,0.4488,2020-09-14 17:45:00,0.38,rain,26.46,2020-09-14 13:11:00,15.81,2020-09-15 05:33:00,26.19,2020-09-14 13:14:00,16.08,2020-09-15 05:33:00,13.7,0.68,1009.2,1.18,2.52,1600073460,11,0.21,11,1600064340,15.917,259.5,15.04,2020-09-14 05:06:00,26.46,2020-09-14 13:11:00,15.31,2020-09-14 05:06:00,26.19,2020-09-14 13:14:00
Bajhang,Kalukheti,29.447359999999996,81.16838,2020-09-14 00:00:00,Humid throughout the day.,rain,2020-09-14 06:06:00,2020-09-14 18:28:00,0.89,0.0957,0.5094,2020-09-14 17:47:00,0.42,rain,28.76,2020-09-14 13:18:00,16.17,2020-09-15 05:41:00,28.74,2020-09-14 13:40:00,16.44,2020-09-15 05:41:00,16.1,0.73,1008.6,1.04,2.4,1600073700,136,0.25,11,1600064940,16.093,260.9,15.81,2020-09-14 05:25:00,28.76,2020-09-14 13:18:00,16.08,2020-09-14 05:25:00,28.74,2020-09-14 13:40:00
Bajhang,Rayal,29.464595000000003,80.95405,2020-09-14 00:00:00,Humid throughout the day.,rain,2020-09-14 06:07:00,2020-09-14 18:29:00,0.89,0.1307,0.5995,2020-09-14 17:47:00,0.45,rain,30.97,2020-09-14 13:38:00,18.27,2020-09-15 05:36:00,32.01,2020-09-14 14:34:00,18.54,2020-09-15 05:36:00,18.14,0.74,1008.4,0.92,2.32,1600073760,211,0.3,10,1600065300,16.093,261.1,17.92,2020-09-14 04:59:00,30.97,2020-09-14 13:38:00,18.19,2020-09-14 04:59:00,32.01,2020-09-14 14:34:00
Bajura,Bajura (Martadi),29.45697889,81.48038389,2020-09-14 00:00:00,Clear throughout the day.,clear-day,2020-09-14 06:05:00,2020-09-14 18:27:00,0.89,0.0301,0.1612,2020-09-14 17:32:00,0.32,rain,25.99,2020-09-14 13:43:00,13.1,2020-09-15 05:30:00,25.9,2020-09-14 13:47:00,13.37,2020-09-15 05:30:00,13.73,0.79,1009.5,1.28,2.95,1600077300,17,0.3,11,1600063860,16.022,259.2,11.76,2020-09-14 05:00:00,25.99,2020-09-14 13:43:00,12.03,2020-09-14 05:00:00,25.9,2020-09-14 13:47:00
Bajura,Kailasmandu,29.35291694,81.33385889,2020-09-14 00:00:00,Clear throughout the day.,rain,2020-09-14 06:05:00,2020-09-14 18:28:00,0.89,0.0668,0.3122,2020-09-14 17:44:00,0.39,rain,29.56,2020-09-14 13:30:00,17.76,2020-09-15 05:33:00,29.66,2020-09-14 13:56:00,18.03,2020-09-15 05:33:00,15.81,0.69,1008.7,1.14,2.42,1600073700,92,0.38,10,1600064340,16.093,260.9,16.96,2020-09-14 05:18:00,29.56,2020-09-14 13:30:00,17.23,2020-09-14 05:18:00,29.66,2020-09-14 13:56:00
Bajura,Kolti,29.50348694,81.66617611,2020-09-14 00:00:00,Clear throughout the day.,clear-day,2020-09-14 06:04:00,2020-09-14 18:26:00,0.89,0.0184,0.0779,2020-09-14 17:20:00,0.26,rain,24.15,2020-09-14 13:38:00,9.57,2020-09-15 05:29:00,23.88,2020-09-14 13:42:00,9.84,2020-09-15 05:29:00,12.48,0.84,1010.1,1.0,3.69,1600081080,287,0.29,10,1600064160,16.093,259.5,8.76,2020-09-14 04:51:00,24.15,2020-09-14 13:38:00,9.03,2020-09-14 04:51:00,23.88,2020-09-14 13:42:00
Banke,Amlekhganj,27.94748333,81.78569444,2020-09-14 00:15:00,Humid and mostly cloudy throughout the day.,rain,2020-09-14 06:04:00,2020-09-14 18:25:00,0.89,0.1333,0.3372,2020-09-14 05:39:00,0.46,rain,33.68,2020-09-14 13:55:00,25.13,2020-09-15 04:52:00,42.45,2020-09-14 13:48:00,26.36,2020-09-15 05:09:00,25.7,0.84,1005.1,1.77,3.39,1600021800,96,0.75,9,1600062660,16.093,265.7,25.24,2020-09-14 04:22:00,33.68,2020-09-14 13:55:00,26.84,2020-09-14 04:23:00,42.45,2020-09-14 13:48:00
Banke,Dhakeri,28.10055556,81.66824722,2020-09-14 00:15:00,Humid and mostly cloudy throughout the day.,rain,2020-09-14 06:05:00,2020-09-14 18:26:00,0.89,0.152,0.5667,2020-09-14 05:59:00,0.42,rain,33.34,2020-09-14 14:36:00,25.2,2020-09-15 04:57:00,42.15,2020-09-14 15:23:00,26.38,2020-09-15 05:10:00,25.76,0.85,1005.4,1.49,2.85,1600021800,72,0.77,8,1600062600,16.093,265.7,25.25,2020-09-14 04:33:00,33.34,2020-09-14 14:36:00,26.54,2020-09-14 04:35:00,42.15,2020-09-14 15:23:00
Banke,Khajura (Nepalganj),28.11368333,81.59030556,2020-09-14 00:15:00,Humid and mostly cloudy throughout the day.,rain,2020-09-14 06:05:00,2020-09-14 18:26:00,0.89,0.1446,0.5197,2020-09-14 06:03:00,0.39,rain,33.05,2020-09-14 14:41:00,25.17,2020-09-15 04:57:00,41.71,2020-09-14 15:27:00,26.37,2020-09-15 05:10:00,25.75,0.85,1005.4,1.52,3.07,1600021800,67,0.78,7,1600062600,16.093,265.8,25.2,2020-09-14 04:35:00,33.05,2020-09-14 14:41:00,26.5,2020-09-14 04:36:00,41.71,2020-09-14 15:27:00
Banke,Naubasta,28.230225,81.65270278,2020-09-14 00:00:00,Humid and mostly cloudy throughout the day.,rain,2020-09-14 06:05:00,2020-09-14 18:26:00,0.89,0.1861,0.9077,2020-09-14 06:07:00,0.41,rain,33.09,2020-09-14 14:51:00,25.29,2020-09-15 05:11:00,42.54,2020-09-14 15:37:00,26.42,2020-09-15 05:15:00,26.1,0.87,1005.8,1.2,2.02,1600020900,43,0.81,6,1600062720,15.467,265.5,25.1,2020-09-14 04:41:00,33.09,2020-09-14 14:51:00,26.39,2020-09-14 04:40:00,42.54,2020-09-14 15:37:00
Banke,Nepalgunj Airport,28.051994399999995,81.6228389,2020-09-14 00:15:00,Humid and mostly cloudy throughout the day.,rain,2020-09-14 06:05:00,2020-09-14 18:26:00,0.89,0.1322,0.3857,2020-09-14 05:56:00,0.41,rain,33.13,2020-09-14 14:33:00,25.04,2020-09-15 04:55:00,41.43,2020-09-14 15:29:00,26.28,2020-09-15 05:08:00,25.65,0.84,1005.2,1.63,3.4,1600021800,77,0.76,8,1600062540,16.093,265.8,25.18,2020-09-14 04:32:00,33.13,2020-09-14 14:33:00,26.47,2020-09-14 04:34:00,41.43,2020-09-14 15:29:00
Bara,Gulariya,27.164166700000003,84.98,2020-09-14 00:00:00,Rain in the morning and afternoon.,rain,2020-09-14 05:52:00,2020-09-14 18:12:00,0.89,0.4673,1.6584,2020-09-14 08:45:00,0.78,rain,30.81,2020-09-14 13:18:00,24.85,2020-09-15 05:03:00,39.72,2020-09-14 13:14:00,26.21,2020-09-15 05:03:00,26.4,0.94,1005.9,1.81,2.99,1600020960,47,0.91,7,1600062420,15.583,262.4,24.7,2020-09-14 04:29:00,30.81,2020-09-14 13:18:00,25.89,2020-09-14 04:25:00,39.72,2020-09-14 13:14:00
Bara,Kalaiya,27.079,84.9329,2020-09-14 00:00:00,Rain until afternoon.,rain,2020-09-14 05:52:00,2020-09-14 18:12:00,0.89,0.4779,1.4467,2020-09-14 08:51:00,0.79,rain,30.36,2020-09-14 13:16:00,24.89,2020-09-15 04:57:00,38.88,2020-09-14 12:51:00,26.32,2020-09-15 04:56:00,26.31,0.94,1005.7,2.13,4.46,1600031820,54,0.87,7,1600062240,16.093,262.5,24.79,2020-09-14 04:22:00,30.36,2020-09-14 13:16:00,26.01,2020-09-14 04:23:00,38.88,2020-09-14 12:51:00
Bara,Nijgadh,27.16416667,84.98,2020-09-14 00:00:00,Rain in the morning and afternoon.,rain,2020-09-14 05:52:00,2020-09-14 18:12:00,0.89,0.4673,1.6584,2020-09-14 08:45:00,0.78,rain,30.81,2020-09-14 13:18:00,24.85,2020-09-15 05:03:00,39.72,2020-09-14 13:14:00,26.21,2020-09-15 05:03:00,26.4,0.94,1005.9,1.81,2.99,1600020960,47,0.91,7,1600062420,15.583,262.4,24.7,2020-09-14 04:29:00,30.81,2020-09-14 13:18:00,25.89,2020-09-14 04:25:00,39.72,2020-09-14 13:14:00
Bara,Parwanipur,27.20300556,85.170475,2020-09-14 00:00:00,Rain until afternoon.,rain,2020-09-14 05:51:00,2020-09-14 18:12:00,0.89,0.4767,1.1791,2020-09-14 08:31:00,0.81,rain,31.28,2020-09-14 14:37:00,24.59,2020-09-15 05:05:00,40.62,2020-09-14 14:42:00,25.9,2020-09-15 05:03:00,26.24,0.94,1006.2,1.41,2.45,1600020900,37,0.96,6,1600062780,15.594,262.2,24.43,2020-09-14 04:28:00,31.28,2020-09-14 14:37:00,25.6,2020-09-14 04:27:00,40.62,2020-09-14 14:42:00
Bara,Simara Airport,27.2813,84.9919,2020-09-14 00:00:00,Rain in the morning.,rain,2020-09-14 05:52:00,2020-09-14 18:12:00,0.89,0.4981,1.9348,2020-09-14 08:43:00,0.78,rain,29.87,2020-09-14 12:50:00,23.9,2020-09-15 04:59:00,37.26,2020-09-14 12:51:00,25.15,2020-09-15 04:57:00,25.58,0.96,1006.3,1.41,2.06,1600105560,39,0.94,6,1600062660,15.074,262.1,23.61,2020-09-14 04:33:00,29.87,2020-09-14 12:50:00,24.84,2020-09-14 04:32:00,37.26,2020-09-14 12:51:00
Bardiya,Chisapani(Karnali),28.21278611,81.34521111,2020-09-14 00:00:00,Humid and overcast throughout the day.,rain,2020-09-14 06:06:00,2020-09-14 18:27:00,0.89,0.1806,0.6562,2020-09-14 06:05:00,0.38,rain,31.63,2020-09-14 14:47:00,25.13,2020-09-15 05:07:00,39.31,2020-09-14 15:15:00,26.35,2020-09-15 05:12:00,25.58,0.87,1005.5,1.59,2.58,1600021200,51,0.88,6,1600063620,15.933,266.1,25.01,2020-09-14 04:36:00,31.63,2020-09-14 14:47:00,26.32,2020-09-14 04:35:00,39.31,2020-09-14 15:15:00
Bardiya,Kumalgaun,28.33735833,81.33784167,2020-09-14 00:00:00,Rain in the morning.,rain,2020-09-14 06:06:00,2020-09-14 18:27:00,0.89,0.706,2.2389,2020-09-14 06:08:00,0.52,rain,31.54,2020-09-14 14:52:00,25.0,2020-09-15 05:06:00,39.45,2020-09-14 15:13:00,26.24,2020-09-15 05:11:00,25.49,0.88,1005.8,1.35,2.25,1600020900,50,0.84,7,1600063680,15.766,266.0,24.88,2020-09-14 04:33:00,31.54,2020-09-14 14:52:00,26.06,2020-09-14 04:26:00,39.45,2020-09-14 15:13:00
Bardiya,Manpur,28.36353889,81.41428333,2020-09-14 00:00:00,Rain in the morning.,rain,2020-09-14 06:05:00,2020-09-14 18:27:00,0.89,0.847,2.3255,2020-09-14 08:05:00,0.56,rain,31.93,2020-09-14 14:57:00,25.06,2020-09-15 05:05:00,40.53,2020-09-14 15:35:00,26.27,2020-09-15 05:11:00,25.8,0.88,1006.0,1.21,2.13,1600020900,51,0.82,7,1600063500,15.85,265.8,24.93,2020-09-14 04:35:00,31.93,2020-09-14 14:57:00,26.09,2020-09-14 04:26:00,40.53,2020-09-14 15:35:00
Bardiya,Rajapur,28.64721944,81.28542778,2020-09-14 00:00:00,Rain in the morning.,rain,2020-09-14 06:06:00,2020-09-14 18:28:00,0.89,1.0172,3.6198,2020-09-14 06:04:00,0.64,rain,30.88,2020-09-14 13:50:00,23.58,2020-09-15 05:18:00,37.73,2020-09-14 14:01:00,24.8,2020-09-15 05:17:00,24.92,0.87,1006.6,0.96,1.84,1600020900,88,0.69,10,1600063320,15.803,265.4,23.98,2020-09-14 04:35:00,30.88,2020-09-14 13:50:00,25.18,2020-09-14 04:35:00,37.73,2020-09-14 14:01:00
Bardiya,Rambhapur,28.307825,81.27586389,2020-09-14 00:00:00,Rain in the morning.,rain,2020-09-14 06:06:00,2020-09-14 18:27:00,0.89,0.5459,1.927,2020-09-14 06:05:00,0.49,rain,31.07,2020-09-14 14:48:00,24.98,2020-09-15 05:09:00,38.35,2020-09-14 15:06:00,26.25,2020-09-15 05:11:00,25.4,0.88,1005.7,1.49,2.33,1600021080,50,0.87,7,1600063860,15.775,266.2,24.84,2020-09-14 04:32:00,31.07,2020-09-14 14:48:00,26.06,2020-09-14 04:26:00,38.35,2020-09-14 15:06:00
Bardiya,Rani Jaruwa Nursery,28.42588611,81.33803611,2020-09-14 00:00:00,Rain in the morning.,rain,2020-09-14 06:06:00,2020-09-14 18:27:00,0.89,1.2172,3.7417,2020-09-14 06:11:00,0.63,rain,31.46,2020-09-14 14:55:00,24.84,2020-09-15 05:10:00,39.46,2020-09-14 15:23:00,26.15,2020-09-15 05:08:00,25.56,0.88,1006.1,1.16,2.16,1600020900,54,0.79,8,1600063620,15.733,265.9,24.78,2020-09-14 04:29:00,31.46,2020-09-14 14:55:00,25.94,2020-09-14 04:25:00,39.46,2020-09-14 15:23:00
Bhaktapur,Bhaktapur,27.63333333,85.43333333,2020-09-14 00:00:00,Rain in the morning and afternoon.,rain,2020-09-14 05:50:00,2020-09-14 18:11:00,0.89,0.598,1.4918,2020-09-14 14:34:00,0.76,rain,24.13,2020-09-14 13:36:00,16.93,2020-09-15 05:37:00,24.79,2020-09-14 13:39:00,17.61,2020-09-15 05:36:00,19.71,1.0,1007.9,0.79,2.22,1600073460,329,0.91,7,1600062900,14.286,259.4,16.66,2020-09-14 04:35:00,24.13,2020-09-14 13:36:00,17.47,2020-09-14 04:34:00,24.79,2020-09-14 13:39:00
Bhaktapur,Changu Narayan,27.67668056,85.42396944,2020-09-14 00:00:00,Rain in the morning and afternoon.,rain,2020-09-14 05:50:00,2020-09-14 18:11:00,0.89,0.5607,1.3219,2020-09-14 14:34:00,0.76,rain,25.59,2020-09-14 13:41:00,17.46,2020-09-15 05:42:00,26.13,2020-09-14 13:43:00,18.0,2020-09-15 05:42:00,20.76,0.97,1008.0,0.8,2.26,1600073280,314,0.9,7,1600062840,14.256,259.5,17.71,2020-09-14 04:40:00,25.59,2020-09-14 13:41:00,18.43,2020-09-14 04:39:00,26.13,2020-09-14 13:43:00
Bhaktapur,Nagarkot,27.645725,85.4615833,2020-09-14 00:00:00,Rain in the morning and afternoon.,rain,2020-09-14 05:50:00,2020-09-14 18:11:00,0.89,0.5862,1.4501,2020-09-14 14:34:00,0.76,rain,25.12,2020-09-14 13:42:00,17.27,2020-09-15 05:38:00,25.72,2020-09-14 13:44:00,17.87,2020-09-15 05:38:00,20.33,0.99,1007.9,0.76,2.2,1600073640,326,0.92,7,1600062960,14.308,259.4,17.01,2020-09-14 04:37:00,25.12,2020-09-14 13:42:00,17.76,2020-09-14 04:36:00,25.72,2020-09-14 13:44:00
Bhaktapur,Sanga,27.71605833,85.42675556,2020-09-14 00:00:00,Rain in the morning and afternoon.,rain,2020-09-14 05:50:00,2020-09-14 18:11:00,0.89,0.5263,1.1695,2020-09-14 14:33:00,0.75,rain,25.17,2020-09-14 13:43:00,16.93,2020-09-15 05:39:00,25.61,2020-09-14 13:45:00,17.38,2020-09-15 05:39:00,19.95,0.96,1008.1,0.77,2.28,1600073220,305,0.89,8,1600062780,14.082,259.5,17.01,2020-09-14 04:37:00,25.17,2020-09-14 13:43:00,17.62,2020-09-14 04:36:00,25.61,2020-09-14 13:45:00
Bhojpur,Dingla,27.1944798,87.04862659999999,2020-09-14 00:00:00,Rain starting in the morning.,rain,2020-09-14 05:43:00,2020-09-14 18:04:00,0.89,0.5013,1.2346,2020-09-14 14:46:00,0.75,rain,22.23,2020-09-14 12:45:00,15.64,2020-09-15 04:59:00,23.23,2020-09-14 12:50:00,16.66,2020-09-15 04:45:00,18.34,1.0,1007.8,0.74,2.56,1600074480,220,0.93,8,1600062900,13.281,257.9,15.15,2020-09-14 04:43:00,22.23,2020-09-14 12:45:00,16.32,2020-09-14 04:41:00,23.23,2020-09-14 12:50:00
Bhojpur,Rampur,27.5282716,87.2177064,2020-09-14 00:00:00,Possible light rain in the evening.,rain,2020-09-14 05:43:00,2020-09-14 18:03:00,0.89,0.2821,0.6673,2020-09-14 15:58:00,0.72,rain,24.23,2020-09-14 12:44:00,17.43,2020-09-15 05:47:00,24.41,2020-09-14 12:48:00,17.7,2020-09-15 05:45:00,17.53,0.87,1008.5,0.86,2.07,1600073460,345,0.97,6,1600063440,12.375,257.4,16.6,2020-09-14 04:48:00,24.23,2020-09-14 12:44:00,16.87,2020-09-14 04:47:00,24.41,2020-09-14 12:48:00
Chitawan,Bharatpur,27.72113611,84.58525556,2020-09-14 00:00:00,"Rain until morning, starting again in the evening.",rain,2020-09-14 05:53:00,2020-09-14 18:14:00,0.89,0.5254,1.419,2020-09-14 06:01:00,0.84,rain,32.56,2020-09-14 13:25:00,22.86,2020-09-15 05:28:00,36.47,2020-09-14 16:20:00,23.78,2020-09-15 05:32:00,23.35,0.81,1007.2,0.94,2.04,1600074060,69,0.82,8,1600061820,15.067,262.2,22.65,2020-09-14 04:58:00,32.56,2020-09-14 13:25:00,23.71,2020-09-14 04:54:00,36.47,2020-09-14 16:20:00
Chitawan,Bharatpur,27.5909,84.5223,2020-09-14 00:00:00,Rain overnight and in the morning.,rain,2020-09-14 05:53:00,2020-09-14 18:14:00,0.89,0.5658,1.985,2020-09-14 06:04:00,0.82,rain,33.58,2020-09-14 13:42:00,24.11,2020-09-15 05:28:00,39.81,2020-09-14 13:03:00,25.27,2020-09-15 05:31:00,25.0,0.84,1006.7,1.04,2.0,1600073940,99,0.85,7,1600061700,14.869,262.5,23.92,2020-09-14 04:56:00,33.58,2020-09-14 13:42:00,25.15,2020-09-14 04:52:00,39.81,2020-09-14 13:03:00
Chitawan,Jhuwani,27.654025,84.3507944,2020-09-14 00:00:00,"Rain until morning, starting again in the evening.",rain,2020-09-14 05:54:00,2020-09-14 18:15:00,0.89,0.5358,1.6713,2020-09-14 06:02:00,0.84,rain,33.92,2020-09-14 13:40:00,23.97,2020-09-15 05:37:00,38.46,2020-09-14 16:19:00,25.0,2020-09-15 05:40:00,23.79,0.78,1006.7,1.09,2.07,1600074000,83,0.81,8,1600062060,14.644,262.5,23.25,2020-09-14 05:37:00,33.92,2020-09-14 13:40:00,24.33,2020-09-14 05:34:00,38.46,2020-09-14 16:19:00
Chitwan,Gobindabasti,27.423171500000002,84.30374090000001,2020-09-14 00:00:00,Rain overnight and in the morning.,rain,2020-09-14 05:54:00,2020-09-14 18:15:00,0.89,0.5662,1.9109,2020-09-14 06:04:00,0.82,rain,32.26,2020-09-14 13:50:00,24.03,2020-09-15 05:09:00,37.76,2020-09-14 12:58:00,25.33,2020-09-15 05:07:00,24.43,0.86,1006.0,1.48,2.35,1600074420,102,0.84,8,1600062000,15.321,262.7,23.68,2020-09-14 04:46:00,32.26,2020-09-14 13:50:00,24.94,2020-09-14 04:45:00,37.76,2020-09-14 12:58:00
Chitwan,Madi Kalyanpur,27.580483299999997,84.2242222,2020-09-14 00:00:00,Rain overnight and in the morning.,rain,2020-09-14 05:54:00,2020-09-14 18:15:00,0.89,0.4496,1.4261,2020-09-14 06:01:00,0.8,rain,34.18,2020-09-14 13:44:00,24.26,2020-09-15 05:21:00,39.7,2020-09-14 13:05:00,25.4,2020-09-15 05:25:00,24.08,0.78,1006.4,1.23,2.24,1600073940,95,0.83,7,1600062180,15.191,262.5,23.57,2020-09-14 05:07:00,34.18,2020-09-14 13:44:00,24.68,2020-09-14 05:07:00,39.7,2020-09-14 13:05:00
Chitwan,Meghauli,27.67303333,84.42227222,2020-09-14 00:00:00,"Rain until morning, starting again in the evening.",rain,2020-09-14 05:54:00,2020-09-14 18:15:00,0.89,0.5585,1.7907,2020-09-14 06:02:00,0.85,rain,33.8,2020-09-14 13:43:00,23.84,2020-09-15 05:29:00,38.3,2020-09-14 16:22:00,24.84,2020-09-15 05:32:00,23.76,0.79,1006.8,1.03,2.01,1600073940,80,0.82,8,1600061940,14.646,262.5,23.29,2020-09-14 05:25:00,33.8,2020-09-14 13:43:00,24.4,2020-09-14 05:13:00,38.3,2020-09-14 16:22:00
Dadeldhura,Dadeldhura,29.301352,80.58775194,2020-09-14 00:00:00,Humid and partly cloudy throughout the day.,rain,2020-09-14 06:08:00,2020-09-14 18:31:00,0.89,0.26,0.6598,2020-09-14 02:32:00,0.54,rain,25.25,2020-09-14 12:45:00,16.79,2020-09-15 05:31:00,25.82,2020-09-14 12:48:00,17.98,2020-09-15 05:26:00,19.63,0.98,1007.7,0.83,2.16,1600077720,208,0.32,9,1600065360,16.056,262.1,16.44,2020-09-14 04:48:00,25.25,2020-09-14 12:45:00,17.57,2020-09-14 04:49:00,25.82,2020-09-14 12:48:00
Dadeldhura,Dailekh,29.12785778,80.34740778,2020-09-14 00:00:00,Humid and partly cloudy throughout the day.,rain,2020-09-14 06:09:00,2020-09-14 18:31:00,0.89,0.1858,0.434,2020-09-14 02:53:00,0.45,rain,31.16,2020-09-14 13:32:00,23.86,2020-09-15 05:40:00,41.82,2020-09-14 16:52:00,25.14,2020-09-15 05:35:00,26.05,0.92,1006.8,1.09,2.19,1600075620,173,0.23,9,1600063560,16.093,264.0,23.91,2020-09-14 04:51:00,31.16,2020-09-14 13:32:00,25.18,2020-09-14 04:51:00,41.82,2020-09-14 16:52:00
Dadeldhura,Sahukharka,29.288393100000004,80.37301500000001,2020-09-14 00:00:00,Humid and partly cloudy throughout the day.,rain,2020-09-14 06:09:00,2020-09-14 18:31:00,0.89,0.1849,0.5399,2020-09-14 14:46:00,0.47,rain,26.82,2020-09-14 12:45:00,18.58,2020-09-15 05:37:00,29.01,2020-09-14 12:47:00,19.78,2020-09-15 05:31:00,21.2,0.98,1007.4,0.93,2.27,1600078380,203,0.24,10,1600064400,16.093,262.7,18.39,2020-09-14 04:43:00,26.82,2020-09-14 12:45:00,19.56,2020-09-14 04:43:00,29.01,2020-09-14 12:47:00
Dailekh,Bale Budha (Tallo Dhungeshwor),28.83811111,81.70848333,2020-09-14 00:00:00,Humid and partly cloudy throughout the day.,rain,2020-09-14 06:04:00,2020-09-14 18:26:00,0.89,0.4703,1.348,2020-09-14 01:55:00,0.6,rain,26.14,2020-09-14 12:35:00,18.27,2020-09-15 05:43:00,27.54,2020-09-14 12:44:00,18.67,2020-09-15 05:45:00,21.76,0.95,1007.9,0.96,1.99,1600072620,225,0.74,10,1600063440,16.093,262.0,19.0,2020-09-14 05:11:00,26.14,2020-09-14 12:35:00,19.82,2020-09-14 05:23:00,27.54,2020-09-14 12:44:00
Dailekh,Katti,28.92202778,81.62608333,2020-09-14 00:00:00,Humid and partly cloudy throughout the day.,rain,2020-09-14 06:04:00,2020-09-14 18:26:00,0.89,0.269,0.6425,2020-09-14 01:38:00,0.53,rain,27.24,2020-09-14 12:41:00,18.0,2020-09-15 05:39:00,28.67,2020-09-14 12:54:00,18.27,2020-09-15 05:38:00,20.22,0.87,1007.9,1.09,2.21,1600072860,218,0.69,10,1600063560,16.093,262.0,18.59,2020-09-14 05:15:00,27.24,2020-09-14 12:41:00,19.02,2020-09-14 05:22:00,28.67,2020-09-14 12:54:00
Dailekh,Nayabasti (Dang),28.78022222,81.82144444,2020-09-14 00:00:00,Humid and mostly cloudy throughout the day.,rain,2020-09-14 06:04:00,2020-09-14 18:25:00,0.89,0.5679,1.6669,2020-09-14 02:03:00,0.64,rain,26.9,2020-09-14 11:04:00,19.09,2020-09-15 05:45:00,29.4,2020-09-14 11:04:00,19.8,2020-09-15 05:48:00,22.92,0.98,1007.9,0.85,1.88,1600071360,224,0.79,9,1600063500,16.093,262.0,19.92,2020-09-14 05:04:00,26.9,2020-09-14 11:04:00,21.04,2020-09-14 05:08:00,29.4,2020-09-14 11:04:00
Dailekh,Ranimatta,28.90711111,81.75019167,2020-09-14 00:00:00,Humid and partly cloudy throughout the day.,rain,2020-09-14 06:04:00,2020-09-14 18:26:00,0.89,0.3034,0.8707,2020-09-14 01:29:00,0.55,rain,24.09,2020-09-14 12:31:00,16.33,2020-09-15 05:32:00,24.5,2020-09-14 12:41:00,16.6,2020-09-15 05:32:00,19.29,0.94,1008.0,1.11,2.19,1600068240,230,0.71,10,1600063500,16.093,261.0,16.41,2020-09-14 05:09:00,24.09,2020-09-14 12:31:00,16.86,2020-09-14 05:14:00,24.5,2020-09-14 12:41:00
Dang,Ghorahi (Masina),28.13174722,82.30278333,2020-09-14 00:00:00,Rain in the morning.,rain,2020-09-14 06:02:00,2020-09-14 18:23:00,0.89,0.4175,1.1907,2020-09-14 05:40:00,0.6,rain,29.12,2020-09-14 12:45:00,21.78,2020-09-15 05:15:00,34.12,2020-09-14 12:49:00,22.74,2020-09-15 05:14:00,24.63,0.94,1006.6,0.96,2.34,1600073880,136,0.81,8,1600062120,15.74,262.8,22.33,2020-09-14 04:41:00,29.12,2020-09-14 12:45:00,23.48,2020-09-14 04:40:00,34.12,2020-09-14 12:49:00
Dang,Ghorai (Dang),27.69233306,82.52512694,2020-09-14 00:00:00,Humid and partly cloudy throughout the day.,rain,2020-09-14 06:01:00,2020-09-14 18:22:00,0.89,0.2544,1.3088,2020-09-14 00:00:00,0.58,rain,31.68,2020-09-14 12:49:00,24.21,2020-09-15 05:12:00,38.11,2020-09-14 12:58:00,25.48,2020-09-15 05:09:00,24.95,0.87,1005.3,1.56,2.68,1600051980,89,0.74,10,1600062900,14.911,264.7,24.46,2020-09-14 04:27:00,31.68,2020-09-14 12:49:00,25.74,2020-09-14 04:28:00,38.11,2020-09-14 12:58:00
Dang,Koilabas,28.05,82.5,2020-09-14 00:00:00,Humid and partly cloudy throughout the day.,rain,2020-09-14 06:01:00,2020-09-14 18:23:00,0.89,0.4865,1.2291,2020-09-14 05:50:00,0.64,rain,29.87,2020-09-14 12:46:00,21.62,2020-09-15 05:30:00,34.91,2020-09-14 12:54:00,22.54,2020-09-15 05:32:00,24.37,0.93,1006.6,0.98,2.17,1600073100,110,0.71,10,1600062720,15.922,262.6,22.23,2020-09-14 04:39:00,29.87,2020-09-14 12:46:00,23.39,2020-09-14 04:38:00,34.91,2020-09-14 12:54:00
Dang,Lalmatiya,27.87055556,82.53666667,2020-09-14 00:00:00,Humid and partly cloudy throughout the day.,rain,2020-09-14 06:01:00,2020-09-14 18:22:00,0.89,0.3715,1.0854,2020-09-14 00:00:00,0.62,rain,32.61,2020-09-14 12:50:00,23.95,2020-09-15 05:13:00,40.24,2020-09-14 12:47:00,25.09,2020-09-15 05:13:00,25.79,0.87,1005.9,1.22,2.2,1600072860,91,0.72,10,1600062840,14.995,263.8,24.42,2020-09-14 04:42:00,32.61,2020-09-14 12:50:00,25.67,2020-09-14 04:40:00,40.24,2020-09-14 12:47:00
Dang,Lamahi,27.88486889,82.33509611,2020-09-14 00:00:00,Humid and partly cloudy throughout the day.,rain,2020-09-14 06:02:00,2020-09-14 18:23:00,0.89,0.3027,0.9096,2020-09-14 00:00:00,0.59,rain,32.93,2020-09-14 12:53:00,24.5,2020-09-15 05:07:00,41.38,2020-09-14 12:53:00,25.71,2020-09-15 05:06:00,26.0,0.87,1005.7,1.29,2.39,1600073340,104,0.74,9,1600062600,15.763,264.3,24.83,2020-09-14 04:35:00,32.93,2020-09-14 12:53:00,26.06,2020-09-14 04:26:00,41.38,2020-09-14 12:53:00
Dang,Padhampur,28.03719889,82.484156,2020-09-14 00:00:00,Humid and partly cloudy throughout the day.,rain,2020-09-14 06:01:00,2020-09-14 18:23:00,0.89,0.4732,1.2139,2020-09-14 05:52:00,0.64,rain,30.1,2020-09-14 12:48:00,21.77,2020-09-15 05:26:00,35.38,2020-09-14 12:56:00,22.7,2020-09-15 05:29:00,24.37,0.93,1006.5,0.99,2.17,1600073100,108,0.71,10,1600062720,15.871,262.8,22.33,2020-09-14 04:39:00,30.1,2020-09-14 12:48:00,23.49,2020-09-14 04:38:00,35.38,2020-09-14 12:56:00
Dang,Tulsipur,28.201323,82.1393939,2020-09-14 00:00:00,Rain in the morning.,rain,2020-09-14 06:03:00,2020-09-14 18:24:00,0.89,0.3486,0.9625,2020-09-14 05:19:00,0.58,rain,29.14,2020-09-14 13:29:00,21.79,2020-09-15 05:24:00,34.67,2020-09-14 13:31:00,22.77,2020-09-15 05:23:00,24.69,0.96,1006.6,0.93,2.18,1600074600,135,0.87,7,1600062420,15.998,263.0,22.1,2020-09-14 04:45:00,29.14,2020-09-14 13:29:00,23.27,2020-09-14 04:45:00,34.67,2020-09-14 13:31:00
Darchula,Darchula New,29.666666999999997,80.55,2020-09-14 00:15:00,Humid throughout the day.,rain,2020-09-14 06:09:00,2020-09-14 18:31:00,0.89,0.1286,0.3196,2020-09-14 02:39:00,0.45,rain,31.39,2020-09-14 13:50:00,20.4,2020-09-15 05:43:00,34.01,2020-09-14 16:26:00,21.22,2020-09-15 05:45:00,21.15,0.82,1008.2,0.92,1.87,1600081440,218,0.32,10,1600066080,16.093,261.5,20.17,2020-09-14 04:50:00,31.39,2020-09-14 13:50:00,20.9,2020-09-14 04:52:00,34.01,2020-09-14 16:26:00
Darchula,Dhaulatiya (Dallekhdhar),29.78255194,80.82215806,2020-09-14 00:00:00,Clear throughout the day.,clear-day,2020-09-14 06:07:00,2020-09-14 18:30:00,0.89,0.0477,0.2016,2020-09-14 17:23:00,0.34,rain,23.27,2020-09-14 12:54:00,14.92,2020-09-15 01:10:00,23.21,2020-09-14 13:04:00,15.19,2020-09-15 01:10:00,14.25,0.81,1009.1,1.23,2.37,1600066320,32,0.37,11,1600064340,15.399,258.1,13.53,2020-09-14 04:57:00,23.27,2020-09-14 12:54:00,13.8,2020-09-14 04:57:00,23.21,2020-09-14 13:04:00
Darchula,Gokuleshwar,29.84287806,80.53884806,2020-09-14 00:15:00,Humid and partly cloudy throughout the day.,rain,2020-09-14 06:08:00,2020-09-14 18:31:00,0.89,0.1042,0.2633,2020-09-14 02:43:00,0.44,rain,29.31,2020-09-14 13:52:00,18.82,2020-09-15 05:47:00,30.39,2020-09-14 14:04:00,19.38,2020-09-15 05:46:00,18.14,0.78,1008.7,1.04,2.1,1600067100,216,0.34,10,1600065000,16.093,260.3,17.89,2020-09-14 04:55:00,29.31,2020-09-14 13:52:00,18.16,2020-09-14 04:55:00,30.39,2020-09-14 14:04:00
Darchula,Lumpthi,29.84496194,80.54539389,2020-09-14 00:15:00,Humid and partly cloudy throughout the day.,rain,2020-09-14 06:08:00,2020-09-14 18:31:00,0.89,0.1019,0.2538,2020-09-14 02:43:00,0.43,rain,29.17,2020-09-14 13:51:00,18.66,2020-09-15 05:46:00,30.27,2020-09-14 14:04:00,19.18,2020-09-15 05:45:00,18.0,0.78,1008.7,1.04,2.11,1600067100,215,0.34,10,1600065000,16.08,260.2,17.68,2020-09-14 04:55:00,29.17,2020-09-14 13:51:00,17.95,2020-09-14 04:55:00,30.27,2020-09-14 14:04:00
Dhading,Dhading,28.05,84.82,2020-09-14 00:00:00,Humid and mostly cloudy throughout the day.,rain,2020-09-14 05:52:00,2020-09-14 18:13:00,0.89,0.2604,0.4659,2020-09-14 21:14:00,0.62,rain,28.12,2020-09-14 13:22:00,20.46,2020-09-15 05:40:00,30.28,2020-09-14 14:17:00,20.73,2020-09-15 05:41:00,18.94,0.74,1008.4,0.87,2.13,1600072920,34,0.79,9,1600062000,15.326,261.1,20.61,2020-09-14 04:49:00,28.12,2020-09-14 13:22:00,20.88,2020-09-14 04:49:00,30.28,2020-09-14 14:17:00
Dhading,Dhunibesi,27.912505600000003,84.8961333,2020-09-14 00:00:00,Humid and mostly cloudy throughout the day.,rain,2020-09-14 05:52:00,2020-09-14 18:13:00,0.89,0.3311,0.5694,2020-09-14 14:21:00,0.67,rain,29.43,2020-09-14 13:25:00,20.96,2020-09-15 05:46:00,32.53,2020-09-14 13:59:00,21.44,2020-09-15 05:48:00,21.28,0.8,1008.1,0.83,2.24,1600073580,68,0.8,9,1600061940,15.859,261.4,21.58,2020-09-14 04:53:00,29.43,2020-09-14 13:25:00,22.08,2020-09-14 04:53:00,32.53,2020-09-14 13:59:00
Dhading,Gajuri,27.8053359,84.7055012,2020-09-14 00:00:00,Rain overnight and in the morning.,rain,2020-09-14 05:52:00,2020-09-14 18:14:00,0.89,0.4212,0.9155,2020-09-14 23:38:00,0.75,rain,31.32,2020-09-14 12:54:00,21.84,2020-09-15 05:33:00,34.58,2020-09-14 14:00:00,22.64,2020-09-15 05:35:00,22.82,0.81,1007.6,0.87,2.13,1600074120,72,0.79,9,1600061640,15.681,261.9,22.23,2020-09-14 04:54:00,31.32,2020-09-14 12:54:00,23.13,2020-09-14 04:52:00,34.58,2020-09-14 14:00:00
Dhading,Majhimtar,27.72311667,85.1642,2020-09-14 00:00:00,Rain in the morning and afternoon.,rain,2020-09-14 05:51:00,2020-09-14 18:12:00,0.89,0.5273,1.1572,2020-09-14 14:28:00,0.74,rain,27.05,2020-09-14 13:21:00,19.21,2020-09-15 05:42:00,29.48,2020-09-14 13:30:00,19.89,2020-09-15 05:43:00,22.37,0.95,1007.9,0.88,2.55,1600072620,80,0.85,8,1600062000,13.978,260.0,19.71,2020-09-14 04:44:00,27.05,2020-09-14 13:21:00,20.52,2020-09-14 04:42:00,29.48,2020-09-14 13:30:00
Dhading,Pakhribas,27.802707399999996,84.8797782,2020-09-14 00:00:00,Possible light rain in the morning.,rain,2020-09-14 05:52:00,2020-09-14 18:13:00,0.89,0.4066,0.6225,2020-09-14 14:12:00,0.71,rain,30.64,2020-09-14 12:50:00,21.75,2020-09-15 05:41:00,34.58,2020-09-14 15:44:00,22.56,2020-09-15 05:42:00,22.99,0.84,1007.8,0.86,2.26,1600073940,74,0.8,9,1600061700,15.581,261.2,22.03,2020-09-14 04:48:00,30.64,2020-09-14 12:50:00,22.89,2020-09-14 04:47:00,34.58,2020-09-14 15:44:00
Dhankuta,Barahkshetra,26.91424278,87.15986,2020-09-14 00:00:00,Rain and humid throughout the day.,rain,2020-09-14 05:43:00,2020-09-14 18:04:00,0.89,0.5103,1.3859,2020-09-14 14:14:00,0.84,rain,29.88,2020-09-14 10:42:00,22.74,2020-09-15 06:14:00,38.14,2020-09-14 16:25:00,23.89,2020-09-15 06:11:00,25.8,0.95,1007.1,1.14,2.67,1600072860,116,0.87,8,1600062720,14.866,259.1,22.82,2020-09-14 04:46:00,29.88,2020-09-14 10:42:00,23.94,2020-09-14 04:46:00,38.14,2020-09-14 16:25:00
Dhankuta,Dhankuta,27.0500025,87.24444444,2020-09-14 00:00:00,Rain and humid throughout the day.,rain,2020-09-14 05:43:00,2020-09-14 18:03:00,0.89,0.4399,1.2001,2020-09-14 14:37:00,0.75,rain,23.39,2020-09-14 10:47:00,17.41,2020-09-15 05:40:00,23.81,2020-09-14 10:50:00,18.36,2020-09-15 05:40:00,19.85,0.99,1007.6,1.04,3.04,1600073880,249,0.88,9,1600062900,14.632,258.9,17.18,2020-09-14 04:46:00,23.39,2020-09-14 10:47:00,18.16,2020-09-14 04:45:00,23.81,2020-09-14 10:50:00
Dhankuta,Dhankuta,26.93805556,87.15472222,2020-09-14 00:00:00,Rain and humid throughout the day.,rain,2020-09-14 05:43:00,2020-09-14 18:04:00,0.89,0.4942,1.3898,2020-09-14 14:20:00,0.82,rain,29.84,2020-09-14 10:43:00,22.58,2020-09-15 06:14:00,37.98,2020-09-14 16:07:00,23.72,2020-09-15 06:11:00,25.62,0.95,1007.2,1.1,2.71,1600072920,122,0.87,8,1600062720,14.871,259.0,22.63,2020-09-14 04:46:00,29.84,2020-09-14 10:43:00,23.74,2020-09-14 04:46:00,37.98,2020-09-14 16:07:00
Dhankuta,Leguwa Ghat,27.04633889,87.2925,2020-09-14 00:00:00,Rain and humid throughout the day.,rain,2020-09-14 05:42:00,2020-09-14 18:03:00,0.89,0.4348,1.2183,2020-09-14 14:37:00,0.75,rain,22.65,2020-09-14 10:48:00,16.54,2020-09-15 06:29:00,23.12,2020-09-14 10:51:00,17.57,2020-09-15 06:31:00,19.18,1.0,1007.6,1.0,2.96,1600073880,243,0.89,9,1600062900,14.653,258.8,16.31,2020-09-14 04:46:00,22.65,2020-09-14 10:48:00,17.42,2020-09-14 04:44:00,23.12,2020-09-14 10:51:00
Dhankuta,Muga,27.15338889,87.28919444,2020-09-14 00:00:00,Rain starting in the morning.,rain,2020-09-14 05:42:00,2020-09-14 18:03:00,0.89,0.412,0.9867,2020-09-14 14:49:00,0.74,rain,28.97,2020-09-14 13:07:00,20.36,2020-09-15 05:51:00,33.41,2020-09-14 13:39:00,21.21,2020-09-15 05:52:00,23.12,0.91,1007.8,0.93,2.74,1600074480,222,0.92,8,1600063080,14.936,258.9,20.36,2020-09-14 04:50:00,28.97,2020-09-14 13:07:00,21.24,2020-09-14 04:49:00,33.41,2020-09-14 13:39:00
Dhankuta,Mul Ghat,26.98321944,87.34595556,2020-09-14 00:00:00,Rain and humid throughout the day.,rain,2020-09-14 05:42:00,2020-09-14 18:03:00,0.89,0.4413,1.3074,2020-09-14 14:32:00,0.76,rain,24.73,2020-09-14 10:44:00,18.55,2020-09-15 05:42:00,25.26,2020-09-14 10:46:00,19.52,2020-09-15 05:42:00,20.72,0.99,1007.5,1.02,2.93,1600073520,216,0.89,8,1600062840,14.617,258.7,18.34,2020-09-14 04:44:00,24.73,2020-09-14 10:44:00,19.32,2020-09-14 04:43:00,25.26,2020-09-14 10:46:00
Dhankuta,Mul Ghat,26.98321944,87.34595556,2020-09-14 00:00:00,Rain and humid throughout the day.,rain,2020-09-14 05:42:00,2020-09-14 18:03:00,0.89,0.4413,1.3074,2020-09-14 14:32:00,0.76,rain,24.73,2020-09-14 10:44:00,18.55,2020-09-15 05:42:00,25.26,2020-09-14 10:46:00,19.52,2020-09-15 05:42:00,20.72,0.99,1007.5,1.02,2.93,1600073520,216,0.89,8,1600062840,14.617,258.7,18.34,2020-09-14 04:44:00,24.73,2020-09-14 10:44:00,19.32,2020-09-14 04:43:00,25.26,2020-09-14 10:46:00
Dhanusa,Chisapani Bazar,27.01295556,85.92089722,2020-09-14 00:00:00,Possible light rain overnight and in the morning.,rain,2020-09-14 05:48:00,2020-09-14 18:09:00,0.89,0.2529,0.5849,2020-09-14 13:56:00,0.75,rain,31.4,2020-09-14 14:09:00,24.0,2020-09-15 05:35:00,40.15,2020-09-14 13:51:00,25.31,2020-09-15 05:30:00,25.83,0.92,1006.3,1.27,1.86,1600020900,71,0.96,5,1600063380,15.964,261.3,24.22,2020-09-14 04:13:00,31.4,2020-09-14 14:09:00,25.42,2020-09-14 04:20:00,40.15,2020-09-14 13:51:00
Dhanusa,Janakpur Airport,26.8,85.9833333,2020-09-14 00:00:00,Rain until afternoon.,rain,2020-09-14 05:48:00,2020-09-14 18:08:00,0.89,0.2796,0.7349,2020-09-14 03:43:00,0.86,rain,31.72,2020-09-14 13:57:00,24.61,2020-09-15 05:00:00,40.81,2020-09-14 13:32:00,26.1,2020-09-15 04:57:00,26.43,0.92,1005.7,2.02,4.44,1600020960,88,0.95,6,1600063200,14.929,261.2,24.78,2020-09-14 03:46:00,31.72,2020-09-14 13:57:00,26.11,2020-09-14 04:17:00,40.81,2020-09-14 13:32:00
Dhanusa,Tulsi,26.71666667,85.96666667,2020-09-14 00:00:00,Rain and humid throughout the day.,rain,2020-09-14 05:48:00,2020-09-14 18:08:00,0.89,0.3272,0.7845,2020-09-14 03:49:00,0.89,rain,31.34,2020-09-14 13:57:00,24.64,2020-09-15 05:03:00,39.94,2020-09-14 13:07:00,26.18,2020-09-15 05:02:00,26.4,0.92,1005.5,2.22,5.28,1600021260,90,0.92,7,1600062840,14.462,261.2,24.85,2020-09-14 03:44:00,31.34,2020-09-14 13:57:00,26.23,2020-09-14 04:18:00,39.94,2020-09-14 13:07:00
Dolakha,Charikot,27.67633111,86.10399389,2020-09-14 00:00:00,Rain starting in the morning.,rain,2020-09-14 05:47:00,2020-09-14 18:08:00,0.89,0.4237,1.2415,2020-09-14 14:44:00,0.72,rain,26.07,2020-09-14 13:46:00,18.84,2020-09-15 05:41:00,27.47,2020-09-14 13:46:00,19.39,2020-09-15 05:41:00,20.9,0.98,1008.0,0.75,1.95,1600066860,226,0.88,8,1600062660,14.546,257.6,17.81,2020-09-14 04:51:00,26.07,2020-09-14 13:46:00,18.53,2020-09-14 04:49:00,27.47,2020-09-14 13:46:00
Dolakha,Dunai,27.63333333,86.13333333,2020-09-14 00:00:00,Rain starting in the morning.,rain,2020-09-14 05:47:00,2020-09-14 18:08:00,0.89,0.4666,1.3555,2020-09-14 14:44:00,0.73,rain,23.94,2020-09-14 13:51:00,16.57,2020-09-15 05:55:00,24.83,2020-09-14 14:01:00,17.32,2020-09-15 05:52:00,19.63,1.0,1008.0,0.76,1.95,1600067340,210,0.9,8,1600062720,14.368,257.6,15.73,2020-09-14 04:53:00,23.94,2020-09-14 13:51:00,16.67,2020-09-14 04:52:00,24.83,2020-09-14 14:01:00
Dolakha,Jiri,27.6666667,86.05,2020-09-14 00:00:00,Rain in the morning and afternoon.,rain,2020-09-14 05:47:00,2020-09-14 18:08:00,0.89,0.4277,1.3008,2020-09-14 14:44:00,0.71,rain,22.66,2020-09-14 13:37:00,15.75,2020-09-15 05:43:00,23.5,2020-09-14 13:42:00,16.59,2020-09-15 05:41:00,18.24,1.0,1008.1,0.73,1.98,1600066920,231,0.89,8,1600062840,14.522,257.9,14.64,2020-09-14 04:49:00,22.66,2020-09-14 13:37:00,15.63,2020-09-14 04:48:00,23.5,2020-09-14 13:42:00
Dolakha,Nagdaha,27.616666700000003,86.35,2020-09-14 00:00:00,Rain starting in the morning.,rain,2020-09-14 05:46:00,2020-09-14 18:07:00,0.89,0.4065,1.0491,2020-09-14 14:44:00,0.7,rain,17.16,2020-09-14 13:35:00,11.3,2020-09-15 05:39:00,18.63,2020-09-14 13:40:00,12.32,2020-09-15 05:34:00,13.47,1.0,1008.1,0.86,2.13,1600067760,258,0.9,8,1600062660,13.535,255.8,10.22,2020-09-14 04:48:00,17.16,2020-09-14 13:35:00,11.37,2020-09-14 04:45:00,18.63,2020-09-14 13:40:00
Dolpa,Kaigaun,29.03154722,82.76287778,2020-09-14 00:00:00,Mostly cloudy throughout the day.,rain,2020-09-14 06:00:00,2020-09-14 18:22:00,0.89,0.0575,0.2668,2020-09-14 17:15:00,0.39,rain,18.82,2020-09-14 12:43:00,9.34,2020-09-15 05:38:00,18.62,2020-09-14 12:50:00,9.61,2020-09-15 05:38:00,11.43,0.97,1009.8,1.23,3.22,1600073640,347,0.83,7,1600062720,15.951,256.0,7.35,2020-09-14 04:47:00,18.82,2020-09-14 12:43:00,7.62,2020-09-14 04:47:00,18.62,2020-09-14 12:50:00
Dolpa,Silgadhi Doti,28.98363333,82.82074444,2020-09-14 00:00:00,Mostly cloudy throughout the day.,rain,2020-09-14 06:00:00,2020-09-14 18:22:00,0.89,0.0595,0.2696,2020-09-14 17:24:00,0.39,rain,18.87,2020-09-14 12:46:00,9.29,2020-09-15 05:31:00,18.79,2020-09-14 12:54:00,9.56,2020-09-15 05:31:00,11.58,0.98,1009.7,1.22,3.2,1600073640,357,0.83,7,1600062120,15.989,256.0,7.24,2020-09-14 04:49:00,18.87,2020-09-14 12:46:00,7.51,2020-09-14 04:49:00,18.79,2020-09-14 12:54:00
Doti,Dipayal (Doti),29.12015194,80.70944778,2020-09-14 00:00:00,Humid and partly cloudy throughout the day.,rain,2020-09-14 06:08:00,2020-09-14 18:30:00,0.89,0.2927,0.6785,2020-09-14 14:56:00,0.56,rain,26.73,2020-09-14 12:41:00,18.73,2020-09-15 05:34:00,29.23,2020-09-14 12:44:00,19.87,2020-09-15 05:30:00,21.72,0.99,1007.5,0.79,2.08,1600075200,199,0.38,9,1600063500,16.093,262.6,18.36,2020-09-14 04:46:00,26.73,2020-09-14 12:41:00,19.45,2020-09-14 04:45:00,29.23,2020-09-14 12:44:00
Doti,Dumrakot,29.16385278,80.600738,2020-09-14 00:00:00,Humid and partly cloudy throughout the day.,rain,2020-09-14 06:08:00,2020-09-14 18:30:00,0.89,0.2687,0.6392,2020-09-14 14:49:00,0.54,rain,23.86,2020-09-14 12:47:00,16.87,2020-09-15 05:44:00,24.64,2020-09-14 12:53:00,18.18,2020-09-15 05:41:00,19.58,1.0,1007.4,0.88,2.08,1600075320,199,0.33,9,1600063860,16.093,262.7,16.69,2020-09-14 04:50:00,23.86,2020-09-14 12:47:00,17.97,2020-09-14 04:50:00,24.64,2020-09-14 12:53:00
Doti,Gaira,29.34106083,81.045105,2020-09-14 00:00:00,Partly cloudy throughout the day.,rain,2020-09-14 06:07:00,2020-09-14 18:29:00,0.89,0.1605,0.571,2020-09-14 17:47:00,0.51,rain,24.28,2020-09-14 13:17:00,14.46,2020-09-15 05:27:00,24.05,2020-09-14 13:25:00,14.73,2020-09-15 05:26:00,15.79,0.88,1008.2,0.9,2.18,1600073820,168,0.4,10,1600065240,16.093,261.9,13.49,2020-09-14 04:54:00,24.28,2020-09-14 13:17:00,13.76,2020-09-14 04:54:00,24.05,2020-09-14 13:25:00
Doti,Jhingrana,29.26209694,80.93690083,2020-09-14 00:00:00,Humid and partly cloudy throughout the day.,rain,2020-09-14 06:07:00,2020-09-14 18:29:00,0.89,0.2381,0.5565,2020-09-14 17:45:00,0.58,rain,31.74,2020-09-14 12:49:00,21.16,2020-09-15 05:53:00,35.32,2020-09-14 16:35:00,21.85,2020-09-15 06:02:00,21.82,0.83,1008.0,0.76,2.12,1600074720,179,0.45,9,1600065120,16.093,262.4,20.34,2020-09-14 04:56:00,31.74,2020-09-14 12:49:00,21.09,2020-09-14 05:00:00,35.32,2020-09-14 16:35:00
Doti,Khaptad,29.0,81.13333333,2020-09-14 00:00:00,Humid and partly cloudy throughout the day.,rain,2020-09-14 06:06:00,2020-09-14 18:28:00,0.89,0.2421,0.6488,2020-09-14 06:00:00,0.54,rain,28.8,2020-09-14 12:46:00,20.01,2020-09-15 05:36:00,30.61,2020-09-14 13:25:00,20.93,2020-09-15 05:37:00,21.3,0.89,1007.5,0.9,2.29,1600073820,202,0.5,11,1600063800,15.666,263.3,20.0,2020-09-14 05:24:00,28.8,2020-09-14 12:46:00,20.89,2020-09-14 05:16:00,30.61,2020-09-14 13:25:00
Doti,Kola Gaun,29.38804889,81.14630111,2020-09-14 00:00:00,Clear throughout the day.,rain,2020-09-14 06:06:00,2020-09-14 18:28:00,0.89,0.1122,0.5009,2020-09-14 17:47:00,0.44,rain,22.58,2020-09-14 13:23:00,11.79,2020-09-15 05:39:00,22.3,2020-09-14 13:23:00,12.06,2020-09-15 05:39:00,13.63,0.87,1008.5,1.0,2.28,1600073760,155,0.33,11,1600065060,16.093,261.4,11.21,2020-09-14 05:04:00,22.58,2020-09-14 13:23:00,11.48,2020-09-14 05:04:00,22.3,2020-09-14 13:23:00
Gorkha,Barpak,28.2,84.73333333,2020-09-13 21:45:00,Foggy in the evening.,rain,2020-09-14 05:52:00,2020-09-14 18:14:00,0.89,0.1591,0.4023,2020-09-14 14:42:00,0.59,rain,22.07,2020-09-14 10:42:00,16.71,2020-09-15 05:45:00,22.31,2020-09-14 10:45:00,16.98,2020-09-15 05:45:00,16.99,0.93,1008.9,1.24,2.23,1600071480,4,0.84,8,1600062060,11.636,259.5,15.15,2020-09-14 04:52:00,22.07,2020-09-14 10:42:00,15.42,2020-09-14 04:52:00,22.31,2020-09-14 10:45:00
Gorkha,Chhekampar,27.97138889,84.58944444,2020-09-14 00:00:00,Humid and partly cloudy throughout the day.,rain,2020-09-14 05:53:00,2020-09-14 18:14:00,0.89,0.3311,0.5939,2020-09-14 20:50:00,0.68,rain,29.99,2020-09-14 13:33:00,20.53,2020-09-15 05:34:00,32.44,2020-09-14 13:51:00,21.01,2020-09-15 05:37:00,20.12,0.74,1008.0,0.74,1.75,1600074600,82,0.76,9,1600061820,16.093,262.5,21.01,2020-09-14 04:54:00,29.99,2020-09-14 13:33:00,21.48,2020-09-14 04:55:00,32.44,2020-09-14 13:51:00
Gorkha,Chumchet,28.48333333,85.0,2020-09-13 21:45:00,Foggy in the evening and overnight.,fog,2020-09-14 05:51:00,2020-09-14 18:13:00,0.89,0.0253,0.0985,2020-09-14 15:19:00,0.31,rain,10.58,2020-09-14 10:45:00,4.67,2020-09-15 05:42:00,11.28,2020-09-14 10:44:00,5.84,2020-09-14 17:26:00,6.43,1.0,1009.8,1.15,2.76,1600065540,17,0.56,11,1600062240,12.177,254.3,2.78,2020-09-14 04:56:00,10.58,2020-09-14 10:45:00,3.03,2020-09-14 04:57:00,11.28,2020-09-14 10:44:00
Gorkha,Gorkha,28.66666667,84.61666667,2020-09-13 21:45:00,Mostly cloudy throughout the day.,partly-cloudy-day,2020-09-14 05:52:00,2020-09-14 18:14:00,0.89,0.0135,0.0494,2020-09-14 15:14:00,0.31,rain,6.29,2020-09-14 12:53:00,0.01,2020-09-15 05:45:00,4.69,2020-09-14 12:53:00,0.28,2020-09-15 05:45:00,2.55,1.0,1010.0,1.19,2.8,1600069620,291,0.71,10,1600062240,15.811,252.6,-0.78,2020-09-14 04:57:00,6.29,2020-09-14 12:53:00,-0.51,2020-09-14 04:57:00,4.69,2020-09-14 12:53:00
Gorkha,Laprak,28.2,84.75,2020-09-13 21:45:00,Foggy in the evening.,rain,2020-09-14 05:52:00,2020-09-14 18:14:00,0.89,0.1536,0.4037,2020-09-14 14:41:00,0.58,rain,19.68,2020-09-14 10:42:00,15.09,2020-09-15 05:45:00,20.09,2020-09-14 10:45:00,15.4,2020-09-15 05:45:00,16.09,0.98,1008.9,1.25,2.26,1600071420,3,0.84,9,1600062060,11.636,259.4,13.59,2020-09-14 04:54:00,19.68,2020-09-14 10:42:00,13.87,2020-09-14 04:53:00,20.09,2020-09-14 10:45:00
Gorkha,Sama Gaun,28.42693611,84.90264444,2020-09-13 21:45:00,Foggy in the evening.,rain,2020-09-14 05:51:00,2020-09-14 18:13:00,0.89,0.0457,0.1605,2020-09-14 14:57:00,0.38,rain,14.02,2020-09-14 10:43:00,8.94,2020-09-15 05:45:00,14.08,2020-09-14 10:49:00,9.21,2020-09-15 05:45:00,10.08,1.0,1009.7,1.16,2.59,1600066260,14,0.65,9,1600062120,11.168,255.0,6.88,2020-09-14 04:54:00,14.02,2020-09-14 10:43:00,7.15,2020-09-14 04:54:00,14.08,2020-09-14 10:49:00
Gulmi,Darma,27.9365,83.33811667,2020-09-14 00:00:00,Possible light rain in the morning.,rain,2020-09-14 05:58:00,2020-09-14 18:19:00,0.89,0.4045,0.7321,2020-09-14 06:03:00,0.71,rain,28.22,2020-09-14 13:50:00,19.28,2020-09-15 05:29:00,30.52,2020-09-14 14:02:00,19.55,2020-09-15 05:31:00,20.47,0.87,1007.3,1.03,1.87,1600063980,37,0.77,9,1600062180,15.449,262.1,18.31,2020-09-14 04:48:00,28.22,2020-09-14 13:50:00,19.01,2020-09-14 04:46:00,30.52,2020-09-14 14:02:00
Gulmi,Musikot,27.93856667,83.44315278,2020-09-14 00:00:00,Possible light rain in the morning.,rain,2020-09-14 05:57:00,2020-09-14 18:19:00,0.89,0.4058,0.741,2020-09-14 06:01:00,0.7,rain,30.83,2020-09-14 14:48:00,20.69,2020-09-15 05:39:00,35.36,2020-09-14 16:33:00,21.05,2020-09-15 05:40:00,21.64,0.8,1007.3,1.01,1.8,1600063500,26,0.78,9,1600062180,15.467,262.0,20.06,2020-09-14 05:20:00,30.83,2020-09-14 14:48:00,20.86,2020-09-14 05:11:00,35.36,2020-09-14 16:33:00
Gulmi,Tamghas,28.16998056,83.26802778,2020-09-14 00:00:00,Possible light rain in the morning.,rain,2020-09-14 05:58:00,2020-09-14 18:19:00,0.89,0.3192,0.4997,2020-09-14 16:45:00,0.69,rain,25.79,2020-09-14 13:59:00,15.75,2020-09-15 05:39:00,26.21,2020-09-14 14:06:00,16.02,2020-09-15 05:39:00,18.61,0.94,1008.2,1.0,1.83,1600065960,32,0.77,10,1600062240,15.418,260.7,14.38,2020-09-14 05:04:00,25.79,2020-09-14 13:59:00,14.81,2020-09-14 05:04:00,26.21,2020-09-14 14:06:00
Humla,Simikot,29.73056889,82.07185,2020-09-14 00:00:00,Clear throughout the day.,clear-day,2020-09-14 06:02:00,2020-09-14 18:25:00,0.89,0.0282,0.1257,2020-09-14 21:06:00,0.28,rain,22.49,2020-09-14 13:51:00,11.05,2020-09-15 05:32:00,22.21,2020-09-14 13:51:00,11.32,2020-09-15 05:32:00,12.17,0.83,1010.4,1.03,3.01,1600082340,143,0.29,11,1600064220,16.093,257.5,9.94,2020-09-14 04:47:00,22.49,2020-09-14 13:51:00,10.21,2020-09-14 04:47:00,22.21,2020-09-14 13:51:00
Humla,Simikot Airport,29.77827806,81.95264499999999,2020-09-14 00:00:00,Clear throughout the day.,clear-day,2020-09-14 06:03:00,2020-09-14 18:25:00,0.89,0.0331,0.133,2020-09-14 21:07:00,0.28,rain,24.33,2020-09-14 13:49:00,12.12,2020-09-15 05:34:00,24.05,2020-09-14 13:49:00,12.39,2020-09-15 05:34:00,12.12,0.77,1010.3,0.97,3.07,1600083420,175,0.3,11,1600064580,16.093,257.8,11.06,2020-09-14 04:47:00,24.33,2020-09-14 13:49:00,11.33,2020-09-14 04:47:00,24.05,2020-09-14 13:49:00
Humla,Thali,29.91966194,81.87920194,2020-09-14 00:00:00,Clear throughout the day.,clear-day,2020-09-14 06:03:00,2020-09-14 18:26:00,0.89,0.026,0.0857,2020-09-14 20:48:00,0.24,rain,18.64,2020-09-14 13:32:00,9.27,2020-09-15 05:39:00,18.36,2020-09-14 13:32:00,9.54,2020-09-15 05:39:00,10.48,0.88,1010.3,1.06,2.86,1600076700,111,0.36,11,1600063740,16.093,255.6,7.42,2020-09-14 04:53:00,18.64,2020-09-14 13:32:00,7.69,2020-09-14 04:53:00,18.36,2020-09-14 13:32:00
Ilam,Himali Gaun,26.90963889,87.92308333,2020-09-14 00:00:00,Rain and humid throughout the day.,rain,2020-09-14 05:40:00,2020-09-14 18:00:00,0.89,0.4874,1.1588,2020-09-14 14:19:00,0.84,rain,25.06,2020-09-14 10:43:00,19.51,2020-09-15 05:59:00,26.09,2020-09-14 10:45:00,20.7,2020-09-15 05:50:00,22.18,1.0,1007.7,0.83,2.12,1600069200,120,0.92,7,1600062480,13.185,258.1,19.65,2020-09-14 04:43:00,25.06,2020-09-14 10:43:00,20.77,2020-09-14 04:41:00,26.09,2020-09-14 10:45:00
Ilam,Ilam Tea Estate,27.06666667,88.0,2020-09-14 00:00:00,Rain starting in the morning.,rain,2020-09-14 05:40:00,2020-09-14 18:00:00,0.89,0.4694,1.0113,2020-09-14 15:06:00,0.77,rain,18.03,2020-09-14 10:45:00,13.52,2020-09-15 05:44:00,19.78,2020-09-14 10:48:00,15.11,2020-09-15 05:36:00,15.24,1.0,1008.1,0.66,1.92,1600071180,243,0.98,7,1600062840,12.382,256.4,13.3,2020-09-14 04:42:00,18.03,2020-09-14 10:45:00,14.8,2020-09-14 04:38:00,19.78,2020-09-14 10:48:00
Ilam,Kanyam Tea Estate,26.8,87.9,2020-09-14 00:00:00,Rain and humid throughout the day.,rain,2020-09-14 05:40:00,2020-09-14 18:01:00,0.89,0.5195,1.2566,2020-09-14 13:28:00,0.9,rain,28.35,2020-09-14 10:42:00,22.53,2020-09-15 06:36:00,34.63,2020-09-14 16:06:00,23.8,2020-09-15 06:34:00,25.33,0.98,1007.3,1.0,2.35,1600070160,91,0.86,8,1600062300,13.053,259.5,22.68,2020-09-14 04:43:00,28.35,2020-09-14 10:42:00,23.82,2020-09-14 04:42:00,34.63,2020-09-14 16:06:00
Ilam,Soktim Tea E,26.88652778,88.02738889,2020-09-14 00:00:00,Rain and humid throughout the day.,rain,2020-09-14 05:40:00,2020-09-14 18:00:00,0.89,0.5069,1.1552,2020-09-14 14:08:00,0.86,rain,22.98,2020-09-14 10:43:00,17.84,2020-09-15 05:41:00,23.91,2020-09-14 10:46:00,19.02,2020-09-15 05:32:00,19.73,1.0,1007.7,0.83,2.05,1600071660,103,0.91,8,1600062360,12.35,258.3,17.68,2020-09-14 04:42:00,22.98,2020-09-14 10:43:00,18.75,2020-09-14 04:41:00,23.91,2020-09-14 10:46:00
Jajarkot,Bhanu Thana,28.961315000000003,82.268888,2020-09-14 00:00:00,Foggy in the afternoon.,rain,2020-09-14 06:02:00,2020-09-14 18:24:00,0.89,0.1157,0.3103,2020-09-14 17:22:00,0.5,rain,23.47,2020-09-14 10:57:00,13.84,2020-09-15 05:32:00,23.5,2020-09-14 12:45:00,14.11,2020-09-15 05:32:00,16.73,0.92,1008.5,1.14,3.35,1600072800,191,0.76,10,1600062900,13.043,258.4,12.71,2020-09-14 05:02:00,23.47,2020-09-14 10:57:00,12.98,2020-09-14 05:02:00,23.5,2020-09-14 12:45:00
Jajarkot,Maina Gaun (D.Bas),28.69860389,82.200792,2020-09-14 00:00:00,Humid and mostly cloudy throughout the day.,rain,2020-09-14 06:02:00,2020-09-14 18:24:00,0.89,0.3402,0.866,2020-09-14 02:39:00,0.65,rain,28.79,2020-09-14 13:40:00,19.6,2020-09-15 05:53:00,32.46,2020-09-14 13:52:00,20.22,2020-09-15 05:57:00,22.58,0.93,1008.0,0.84,1.96,1600066980,217,0.79,9,1600063380,15.727,262.3,20.02,2020-09-14 05:57:00,28.79,2020-09-14 13:40:00,20.96,2020-09-14 06:00:00,32.46,2020-09-14 13:52:00
Jhapa,Anarmani Birta,26.6706658,87.7004293,2020-09-14 00:00:00,Rain and humid throughout the day.,rain,2020-09-14 05:41:00,2020-09-14 18:01:00,0.89,0.5552,1.227,2020-09-14 11:53:00,0.94,rain,28.68,2020-09-14 10:36:00,24.1,2020-09-15 06:10:00,37.21,2020-09-14 16:08:00,25.46,2020-09-15 06:07:00,26.46,0.97,1006.9,1.49,3.18,1600067640,98,0.86,8,1600062300,14.058,260.0,24.2,2020-09-14 04:39:00,28.68,2020-09-14 10:36:00,25.43,2020-09-14 04:35:00,37.21,2020-09-14 16:08:00
Jhapa,Chnadra Gadhi,26.39616667,88.00375,2020-09-14 00:00:00,Rain and humid throughout the day.,rain,2020-09-14 05:40:00,2020-09-14 18:00:00,0.89,0.7865,1.6421,2020-09-14 11:25:00,0.99,rain,28.86,2020-09-14 13:46:00,24.15,2020-09-15 04:54:00,36.41,2020-09-14 13:57:00,25.71,2020-09-15 04:53:00,26.28,0.97,1006.4,1.83,4.53,1600067880,118,0.93,6,1600062300,13.448,259.1,24.44,2020-09-14 04:26:00,28.86,2020-09-14 13:46:00,25.76,2020-09-14 04:26:00,36.41,2020-09-14 13:57:00
Jhapa,Gaida (Kankai),26.68972222,87.98861111,2020-09-14 00:00:00,Rain and humid throughout the day.,rain,2020-09-14 05:40:00,2020-09-14 18:00:00,0.89,0.6069,1.4381,2020-09-14 12:21:00,0.95,rain,29.06,2020-09-14 10:45:00,23.84,2020-09-15 06:40:00,37.25,2020-09-14 16:04:00,25.21,2020-09-15 06:38:00,26.15,0.96,1007.1,1.16,2.7,1600070100,89,0.84,8,1600062120,11.819,260.0,23.91,2020-09-14 04:38:00,29.06,2020-09-14 10:45:00,25.13,2020-09-14 04:37:00,37.25,2020-09-14 16:04:00
Jhapa,Jumla,26.5647011,88.0614307,2020-09-14 00:00:00,Rain and humid throughout the day.,rain,2020-09-14 05:39:00,2020-09-14 18:00:00,0.89,0.7709,1.7631,2020-09-14 11:46:00,0.98,rain,28.92,2020-09-14 13:44:00,23.79,2020-09-15 06:40:00,36.81,2020-09-14 14:21:00,25.18,2020-09-15 06:42:00,26.11,0.96,1006.8,1.46,3.56,1600072020,86,0.88,7,1600061820,11.616,259.7,24.13,2020-09-14 04:29:00,28.92,2020-09-14 13:44:00,25.41,2020-09-14 04:28:00,36.81,2020-09-14 14:21:00
Jhapa,Kechana,26.65688889,87.86072222,2020-09-14 00:00:00,Rain and humid throughout the day.,rain,2020-09-14 05:40:00,2020-09-14 18:01:00,0.89,0.5988,1.3749,2020-09-14 11:58:00,0.95,rain,28.86,2020-09-14 10:42:00,24.06,2020-09-15 06:16:00,36.85,2020-09-14 15:44:00,25.44,2020-09-15 06:14:00,26.29,0.96,1006.9,1.38,3.16,1600068480,94,0.86,8,1600062120,13.154,260.0,24.12,2020-09-14 04:37:00,28.86,2020-09-14 10:42:00,25.34,2020-09-14 04:34:00,36.85,2020-09-14 15:44:00
Jhapa,Sanischare,26.625063899999997,87.98858059999999,2020-09-14 00:00:00,Rain and humid throughout the day.,rain,2020-09-14 05:40:00,2020-09-14 18:00:00,0.89,0.6742,1.5699,2020-09-14 11:55:00,0.97,rain,28.87,2020-09-14 10:47:00,24.07,2020-09-15 06:25:00,37.36,2020-09-14 15:16:00,25.48,2020-09-15 06:25:00,26.31,0.96,1006.9,1.35,3.2,1600069680,91,0.86,8,1600062060,11.895,259.9,24.17,2020-09-14 04:36:00,28.87,2020-09-14 10:47:00,25.42,2020-09-14 04:33:00,37.36,2020-09-14 15:16:00
Jumla,Dipal Gaun,29.23088056,82.33041944,2020-09-14 00:00:00,Partly cloudy throughout the day.,partly-cloudy-day,2020-09-14 06:02:00,2020-09-14 18:24:00,0.89,0.0396,0.1822,2020-09-14 17:30:00,0.36,rain,20.08,2020-09-14 12:49:00,6.51,2020-09-15 05:33:00,19.8,2020-09-14 12:49:00,6.78,2020-09-15 05:33:00,10.77,0.91,1009.6,1.2,2.95,1600073820,6,0.67,11,1600063200,15.514,256.1,6.38,2020-09-14 05:26:00,20.08,2020-09-14 12:49:00,6.65,2020-09-14 05:26:00,19.8,2020-09-14 12:49:00
Jumla,Jacha,29.43111111,82.10744444,2020-09-14 00:00:00,Partly cloudy throughout the day.,partly-cloudy-day,2020-09-14 06:02:00,2020-09-14 18:25:00,0.89,0.0202,0.0875,2020-09-14 18:00:00,0.28,rain,19.59,2020-09-14 13:05:00,6.19,2020-09-15 05:33:00,19.31,2020-09-14 13:05:00,6.46,2020-09-15 05:33:00,9.61,0.89,1009.9,1.28,2.93,1600076760,46,0.5,10,1600063440,16.093,257.8,5.65,2020-09-14 05:13:00,19.59,2020-09-14 13:05:00,5.92,2020-09-14 05:13:00,19.31,2020-09-14 13:05:00
Jumla,Jumla,29.26385556,82.22301111,2020-09-14 00:00:00,Partly cloudy throughout the day.,partly-cloudy-day,2020-09-14 06:02:00,2020-09-14 18:24:00,0.89,0.0321,0.171,2020-09-14 17:37:00,0.33,rain,22.21,2020-09-14 12:55:00,7.48,2020-09-15 05:26:00,21.93,2020-09-14 12:55:00,7.75,2020-09-15 05:26:00,10.57,0.82,1009.7,1.19,2.72,1600074600,16,0.63,10,1600063440,16.093,256.9,7.59,2020-09-14 05:31:00,22.21,2020-09-14 12:55:00,7.86,2020-09-14 05:31:00,21.93,2020-09-14 12:55:00
Jumla,Tatopani,29.316667,82.283333,2020-09-14 00:00:00,Partly cloudy throughout the day.,partly-cloudy-day,2020-09-14 06:02:00,2020-09-14 18:24:00,0.89,0.0317,0.1577,2020-09-14 17:42:00,0.34,rain,18.52,2020-09-14 12:49:00,5.12,2020-09-15 05:33:00,18.24,2020-09-14 12:49:00,5.39,2020-09-15 05:33:00,9.33,0.91,1009.7,1.28,2.84,1600074240,29,0.64,11,1600063260,16.005,256.4,4.9,2020-09-14 05:30:00,18.52,2020-09-14 12:49:00,5.17,2020-09-14 05:30:00,18.24,2020-09-14 12:49:00
Kabhre,Budal (Banepa),27.61611667,85.56550278,2020-09-14 00:00:00,Rain in the morning and afternoon.,rain,2020-09-14 05:49:00,2020-09-14 18:10:00,0.89,0.573,1.4794,2020-09-14 14:36:00,0.76,rain,25.1,2020-09-14 13:45:00,17.37,2020-09-15 05:36:00,25.73,2020-09-14 13:47:00,18.04,2020-09-15 05:36:00,20.13,0.99,1007.9,0.79,2.25,1600073880,324,0.93,7,1600063020,14.439,259.4,16.73,2020-09-14 04:37:00,25.1,2020-09-14 13:45:00,17.48,2020-09-14 04:36:00,25.73,2020-09-14 13:47:00
Kabhre,Dhulikhel,27.63882194,85.70498083,2020-09-14 00:00:00,Rain in the morning and afternoon.,rain,2020-09-14 05:49:00,2020-09-14 18:10:00,0.89,0.4556,1.1448,2020-09-14 14:40:00,0.73,rain,28.11,2020-09-14 13:52:00,19.85,2020-09-15 05:48:00,31.31,2020-09-14 15:18:00,20.6,2020-09-15 05:48:00,21.96,0.92,1008.0,0.81,2.38,1600073880,307,0.92,7,1600063020,14.331,259.6,19.26,2020-09-14 04:42:00,28.11,2020-09-14 13:52:00,20.01,2020-09-14 04:42:00,31.31,2020-09-14 15:18:00
Kabhre,Dolal Ghat,27.69382389,85.635637,2020-09-14 00:00:00,Rain in the morning and afternoon.,rain,2020-09-14 05:49:00,2020-09-14 18:10:00,0.89,0.4412,1.0454,2020-09-14 14:39:00,0.73,rain,26.62,2020-09-14 13:47:00,18.08,2020-09-15 05:49:00,28.32,2020-09-14 13:54:00,18.62,2020-09-15 05:49:00,20.6,0.94,1008.1,0.73,2.28,1600073880,308,0.91,7,1600062960,14.66,259.6,17.64,2020-09-14 04:41:00,26.62,2020-09-14 13:47:00,18.25,2020-09-14 04:40:00,28.32,2020-09-14 13:54:00
Kabhre,Panchkhal,27.63333333,85.51666667,2020-09-14 00:00:00,Rain in the morning and afternoon.,rain,2020-09-14 05:49:00,2020-09-14 18:10:00,0.89,0.5869,1.4893,2020-09-14 14:35:00,0.77,rain,25.2,2020-09-14 13:44:00,17.24,2020-09-15 05:38:00,25.8,2020-09-14 13:46:00,17.86,2020-09-15 05:37:00,20.17,0.99,1007.9,0.76,2.19,1600073880,325,0.92,7,1600063020,14.298,259.4,16.76,2020-09-14 04:37:00,25.2,2020-09-14 13:44:00,17.51,2020-09-14 04:36:00,25.8,2020-09-14 13:46:00
Kailali,Dhangadhi,28.68333333,80.6,2020-09-14 00:00:00,Rain in the morning.,rain,2020-09-14 06:09:00,2020-09-14 18:30:00,0.89,0.4891,1.7618,2020-09-14 05:48:00,0.55,rain,32.01,2020-09-14 14:44:00,25.04,2020-09-15 04:54:00,40.59,2020-09-14 15:12:00,26.3,2020-09-15 05:10:00,25.79,0.88,1005.9,1.36,2.58,1600020900,116,0.46,10,1600063440,16.093,265.9,24.85,2020-09-14 04:35:00,32.01,2020-09-14 14:44:00,26.02,2020-09-14 04:27:00,40.59,2020-09-14 15:12:00
Kailali,Godavari(West),28.554054999999998,80.831765,2020-09-14 00:00:00,Rain in the morning.,rain,2020-09-14 06:08:00,2020-09-14 18:29:00,0.89,0.9954,3.8002,2020-09-14 05:42:00,0.64,rain,31.34,2020-09-14 14:45:00,24.8,2020-09-15 05:02:00,39.47,2020-09-14 15:15:00,26.11,2020-09-15 05:07:00,25.68,0.89,1005.8,1.33,2.89,1600084920,80,0.66,9,1600063260,16.093,266.1,24.9,2020-09-14 04:10:00,31.34,2020-09-14 14:45:00,26.07,2020-09-14 04:18:00,39.47,2020-09-14 15:15:00
Kailali,Malakheti,28.83333333,80.56666667,2020-09-14 00:00:00,Humid and partly cloudy throughout the day.,rain,2020-09-14 06:09:00,2020-09-14 18:31:00,0.89,0.3672,1.4085,2020-09-14 05:53:00,0.52,rain,31.85,2020-09-14 14:45:00,25.04,2020-09-15 04:58:00,41.9,2020-09-14 16:41:00,26.2,2020-09-15 05:09:00,26.46,0.9,1006.2,1.19,2.29,1600020900,135,0.39,10,1600063380,16.093,265.2,24.84,2020-09-14 04:39:00,31.85,2020-09-14 14:45:00,26.09,2020-09-14 04:37:00,41.9,2020-09-14 16:41:00
Kailali,Sitapur,28.66417611,80.97850889,2020-09-14 00:00:00,Rain in the morning.,rain,2020-09-14 06:07:00,2020-09-14 18:29:00,0.89,0.7838,3.613,2020-09-14 05:50:00,0.66,rain,32.5,2020-09-14 14:15:00,25.1,2020-09-15 05:28:00,42.14,2020-09-14 15:38:00,26.31,2020-09-15 05:18:00,26.1,0.87,1006.2,1.13,2.35,1600021080,94,0.62,10,1600063380,16.093,265.7,25.39,2020-09-14 04:33:00,32.5,2020-09-14 14:15:00,27.19,2020-09-14 04:33:00,42.14,2020-09-14 15:38:00
Kailali,Teghari,28.87623,80.57918889,2020-09-14 00:00:00,Humid and partly cloudy throughout the day.,rain,2020-09-14 06:09:00,2020-09-14 18:30:00,0.89,0.3282,1.1629,2020-09-14 05:53:00,0.52,rain,30.82,2020-09-14 14:40:00,24.47,2020-09-15 04:59:00,40.75,2020-09-14 16:43:00,25.69,2020-09-15 04:59:00,26.31,0.92,1006.4,1.14,2.15,1600020900,141,0.39,9,1600063260,16.093,264.8,24.3,2020-09-14 04:40:00,30.82,2020-09-14 14:40:00,25.55,2020-09-14 04:37:00,40.75,2020-09-14 16:43:00
Kalikot,Mahendra Nagar,29.09644444,81.70052778,2020-09-14 00:00:00,Humid and partly cloudy throughout the day.,rain,2020-09-14 06:04:00,2020-09-14 18:26:00,0.89,0.0593,0.1642,2020-09-14 16:38:00,0.41,rain,26.07,2020-09-14 12:48:00,15.52,2020-09-15 05:38:00,26.0,2020-09-14 12:58:00,15.79,2020-09-15 05:38:00,16.72,0.82,1008.4,1.27,2.66,1600072740,244,0.57,10,1600063500,16.093,260.3,15.02,2020-09-14 05:19:00,26.07,2020-09-14 12:48:00,15.29,2020-09-14 05:19:00,26.0,2020-09-14 12:58:00
Kalikot,Manma,29.2495,81.63913889,2020-09-14 00:00:00,Partly cloudy throughout the day.,partly-cloudy-day,2020-09-14 06:04:00,2020-09-14 18:26:00,0.89,0.0338,0.1517,2020-09-14 15:30:00,0.33,rain,26.67,2020-09-14 12:55:00,13.86,2020-09-15 05:38:00,26.48,2020-09-14 13:02:00,14.13,2020-09-15 05:38:00,15.12,0.8,1008.8,1.27,3.02,1600074060,352,0.45,11,1600063380,15.963,259.9,12.56,2020-09-14 05:18:00,26.67,2020-09-14 12:55:00,12.83,2020-09-14 05:18:00,26.48,2020-09-14 13:02:00
Kalikot,Nagma,29.12995833,81.58836111,2020-09-14 00:00:00,Humid and partly cloudy throughout the day.,rain,2020-09-14 06:05:00,2020-09-14 18:27:00,0.89,0.0683,0.1923,2020-09-14 17:19:00,0.41,rain,29.15,2020-09-14 12:48:00,17.81,2020-09-15 05:29:00,29.76,2020-09-14 13:31:00,18.08,2020-09-15 05:29:00,17.17,0.73,1008.4,1.24,2.67,1600073400,226,0.55,10,1600063500,16.093,260.9,17.42,2020-09-14 05:11:00,29.15,2020-09-14 12:48:00,17.69,2020-09-14 05:11:00,29.76,2020-09-14 13:31:00
Kanchanpur,Dodhara,28.86185889,80.44044194,2020-09-14 00:00:00,Humid and partly cloudy throughout the day.,rain,2020-09-14 06:09:00,2020-09-14 18:31:00,0.89,0.3159,1.0899,2020-09-14 05:58:00,0.5,rain,31.66,2020-09-14 14:48:00,25.0,2020-09-15 04:57:00,41.43,2020-09-14 16:32:00,26.19,2020-09-15 05:09:00,26.35,0.9,1006.1,1.26,2.26,1600020900,129,0.32,10,1600063380,16.093,265.4,24.81,2020-09-14 04:39:00,31.66,2020-09-14 14:48:00,26.07,2020-09-14 04:37:00,41.43,2020-09-14 16:32:00
Kanchanpur,Hanmannagar,28.698575,80.37540389,2020-09-14 00:00:00,Humid throughout the day.,rain,2020-09-14 06:10:00,2020-09-14 18:31:00,0.89,0.3625,0.9849,2020-09-14 08:30:00,0.48,rain,31.34,2020-09-14 14:40:00,24.72,2020-09-15 04:53:00,38.92,2020-09-14 15:19:00,26.05,2020-09-15 04:59:00,25.66,0.89,1005.7,1.5,2.39,1600085640,113,0.34,10,1600063680,16.093,266.2,24.48,2020-09-14 04:37:00,31.34,2020-09-14 14:40:00,25.74,2020-09-14 04:31:00,38.92,2020-09-14 15:19:00
Kanchanpur,Taulihawa,28.89702,80.36996389,2020-09-14 00:00:00,Humid throughout the day.,rain,2020-09-14 06:09:00,2020-09-14 18:31:00,0.89,0.2664,0.8883,2020-09-14 05:55:00,0.48,rain,31.94,2020-09-14 14:50:00,25.0,2020-09-15 04:58:00,42.06,2020-09-14 16:25:00,26.19,2020-09-15 05:09:00,26.35,0.89,1006.1,1.3,2.25,1600020900,124,0.28,10,1600063440,16.093,265.4,24.93,2020-09-14 04:39:00,31.94,2020-09-14 14:50:00,26.19,2020-09-14 04:38:00,42.06,2020-09-14 16:25:00
Kapilbastu,Banganga,27.669936100000005,82.7911917,2020-09-14 00:00:00,Humid and partly cloudy throughout the day.,rain,2020-09-14 06:00:00,2020-09-14 18:21:00,0.89,0.2646,0.911,2020-09-14 06:03:00,0.56,rain,32.63,2020-09-14 13:24:00,24.64,2020-09-15 05:09:00,40.62,2020-09-14 13:48:00,25.81,2020-09-15 05:15:00,25.25,0.83,1005.5,1.56,3.42,1600052220,74,0.75,9,1600062600,15.658,264.3,24.81,2020-09-14 04:53:00,32.63,2020-09-14 13:24:00,25.95,2020-09-14 04:55:00,40.62,2020-09-14 13:48:00
Kapilvastu,Bahadur Ganj,27.693294399999996,83.1612556,2020-09-14 00:00:00,Rain in the morning.,rain,2020-09-14 05:59:00,2020-09-14 18:20:00,0.89,0.2926,1.1438,2020-09-14 06:05:00,0.67,rain,33.65,2020-09-14 13:17:00,24.59,2020-09-15 05:22:00,40.89,2020-09-14 16:31:00,25.38,2020-09-15 05:27:00,24.44,0.77,1005.8,1.53,2.47,1600051860,77,0.75,9,1600062900,15.493,263.6,24.42,2020-09-14 04:53:00,33.65,2020-09-14 13:17:00,25.42,2020-09-14 04:51:00,40.89,2020-09-14 16:31:00
Kapilvastu,Sallyan (Kaski),27.55,83.85,2020-09-14 00:00:00,Rain overnight and in the morning.,rain,2020-09-14 05:56:00,2020-09-14 18:17:00,0.89,0.247,1.1369,2020-09-14 05:59:00,0.7,rain,31.43,2020-09-14 12:45:00,23.2,2020-09-15 04:41:00,34.28,2020-09-14 12:54:00,24.06,2020-09-15 04:44:00,22.21,0.78,1006.0,1.41,2.09,1600052580,103,0.81,8,1600062420,15.754,263.1,22.98,2020-09-14 04:16:00,31.43,2020-09-14 12:45:00,23.98,2020-09-14 04:23:00,34.28,2020-09-14 12:54:00
Kaski,Begnas,28.212011100000005,83.8915417,2020-09-14 00:00:00,Partly cloudy throughout the day.,rain,2020-09-14 05:56:00,2020-09-14 18:17:00,0.89,0.2367,0.477,2020-09-14 12:46:00,0.59,rain,24.5,2020-09-14 14:45:00,16.74,2020-09-15 05:51:00,24.49,2020-09-14 14:45:00,17.04,2020-09-15 05:49:00,16.62,0.84,1008.5,1.47,1.99,1600025280,28,0.75,9,1600061820,15.78,261.4,16.14,2020-09-14 04:58:00,24.5,2020-09-14 14:45:00,16.44,2020-09-14 04:57:00,24.49,2020-09-14 14:45:00
Kaski,Begnas Tal,28.35805556,84.105175,2020-09-14 00:00:00,Mostly cloudy throughout the day.,rain,2020-09-14 05:55:00,2020-09-14 18:16:00,0.89,0.1502,0.3351,2020-09-14 14:43:00,0.56,rain,17.81,2020-09-14 14:05:00,11.91,2020-09-15 06:05:00,18.24,2020-09-14 14:10:00,12.17,2020-09-15 06:08:00,13.95,1.0,1009.1,1.79,2.27,1600065000,1,0.8,9,1600061820,13.546,257.9,10.64,2020-09-14 04:59:00,17.81,2020-09-14 14:05:00,10.91,2020-09-14 04:59:00,18.24,2020-09-14 14:10:00
Kaski,Bhadaure Deurali,28.21849444,83.9742,2020-09-14 00:00:00,Partly cloudy throughout the day.,rain,2020-09-14 05:55:00,2020-09-14 18:17:00,0.89,0.223,0.4929,2020-09-14 13:06:00,0.59,rain,25.23,2020-09-14 14:43:00,17.44,2020-09-15 06:10:00,25.21,2020-09-14 14:43:00,17.71,2020-09-15 06:10:00,16.08,0.77,1008.5,1.81,2.48,1600021380,28,0.74,9,1600061700,15.211,261.5,16.77,2020-09-14 05:13:00,25.23,2020-09-14 14:43:00,17.04,2020-09-14 05:13:00,25.21,2020-09-14 14:43:00
Kaski,Ghandruk,28.26168056,83.96873333,2020-09-14 00:00:00,Partly cloudy throughout the day.,rain,2020-09-14 05:55:00,2020-09-14 18:17:00,0.89,0.1944,0.4759,2020-09-14 12:48:00,0.57,rain,23.98,2020-09-14 14:42:00,16.5,2020-09-15 06:07:00,23.91,2020-09-14 14:42:00,16.77,2020-09-15 06:07:00,15.65,0.8,1008.7,1.9,2.57,1600021380,28,0.76,9,1600061640,15.231,261.0,15.54,2020-09-14 05:07:00,23.98,2020-09-14 14:42:00,15.81,2020-09-14 05:07:00,23.91,2020-09-14 14:42:00
Kaski,Lamachaur,28.29653889,83.81791111,2020-09-14 00:00:00,Mostly cloudy throughout the day.,rain,2020-09-14 05:56:00,2020-09-14 18:17:00,0.89,0.1858,0.387,2020-09-14 12:10:00,0.57,rain,22.42,2020-09-14 14:42:00,14.92,2020-09-15 06:04:00,22.67,2020-09-14 14:42:00,15.3,2020-09-15 05:55:00,17.22,0.97,1008.7,1.24,2.08,1600064700,31,0.8,9,1600062060,15.887,260.0,14.24,2020-09-14 04:56:00,22.42,2020-09-14 14:42:00,14.72,2020-09-14 04:55:00,22.67,2020-09-14 14:42:00
Kaski,Lumle,28.26555556,83.82211944,2020-09-14 00:00:00,Partly cloudy throughout the day.,rain,2020-09-14 05:56:00,2020-09-14 18:17:00,0.89,0.2032,0.4321,2020-09-14 12:06:00,0.57,rain,23.76,2020-09-14 14:45:00,15.76,2020-09-15 05:55:00,23.86,2020-09-14 14:45:00,16.12,2020-09-15 05:50:00,17.19,0.91,1008.6,1.26,1.98,1600035600,31,0.78,9,1600061940,16.093,260.8,15.15,2020-09-14 04:57:00,23.76,2020-09-14 14:45:00,15.55,2020-09-14 04:56:00,23.86,2020-09-14 14:45:00
Kaski,Pokhara Airport,28.23333333,84.0,2020-09-14 00:00:00,Partly cloudy throughout the day.,rain,2020-09-14 05:55:00,2020-09-14 18:17:00,0.89,0.2104,0.5029,2020-09-14 13:04:00,0.58,rain,24.15,2020-09-14 14:42:00,16.98,2020-09-15 06:19:00,24.08,2020-09-14 14:42:00,17.25,2020-09-15 06:19:00,15.59,0.79,1008.6,1.97,2.73,1600021260,28,0.74,9,1600061640,15.03,261.5,16.2,2020-09-14 05:04:00,24.15,2020-09-14 14:42:00,16.47,2020-09-14 05:04:00,24.08,2020-09-14 14:42:00
Kaski,Pokhara Airport,28.22,84.0,2020-09-14 00:00:00,Partly cloudy throughout the day.,rain,2020-09-14 05:55:00,2020-09-14 18:17:00,0.89,0.2194,0.5012,2020-09-14 13:20:00,0.59,rain,24.71,2020-09-14 14:42:00,17.29,2020-09-15 06:14:00,24.65,2020-09-14 14:42:00,17.56,2020-09-15 06:14:00,15.75,0.77,1008.6,1.91,2.64,1600021260,28,0.74,9,1600061640,14.996,261.5,16.56,2020-09-14 05:08:00,24.71,2020-09-14 14:42:00,16.83,2020-09-14 05:08:00,24.65,2020-09-14 14:42:00
Kathmandu,Budhanilakan,27.78333333,85.31666667,2020-09-14 00:00:00,Rain in the morning and afternoon.,rain,2020-09-14 05:50:00,2020-09-14 18:11:00,0.89,0.4855,1.0605,2020-09-14 14:30:00,0.73,rain,24.96,2020-09-14 13:44:00,16.95,2020-09-15 05:35:00,25.44,2020-09-14 13:46:00,17.35,2020-09-15 05:35:00,19.9,0.96,1008.1,0.87,2.6,1600071780,133,0.86,8,1600062360,14.132,259.5,17.11,2020-09-14 04:43:00,24.96,2020-09-14 13:44:00,17.63,2020-09-14 04:41:00,25.44,2020-09-14 13:46:00
Kathmandu,Kathmandu Airport,27.703825,85.35624722,2020-09-14 00:00:00,Rain in the morning and afternoon.,rain,2020-09-14 05:50:00,2020-09-14 18:11:00,0.89,0.5493,1.2459,2020-09-14 14:33:00,0.75,rain,27.06,2020-09-14 13:30:00,17.24,2020-09-15 05:43:00,28.75,2020-09-14 12:46:00,17.77,2020-09-15 05:42:00,21.04,0.88,1008.0,1.58,4.64,1600072260,271,0.81,7,1600063740,10.95,259.6,20.25,2020-09-14 04:39:00,27.06,2020-09-14 13:30:00,21.09,2020-09-14 04:46:00,28.75,2020-09-14 12:46:00
Kathmandu,Naikap,27.7726953,85.4277003,2020-09-14 00:00:00,Rain in the morning and afternoon.,rain,2020-09-14 05:50:00,2020-09-14 18:11:00,0.89,0.4668,0.99,2020-09-14 14:31:00,0.73,rain,23.11,2020-09-14 13:37:00,15.68,2020-09-15 05:34:00,23.5,2020-09-14 13:40:00,16.08,2020-09-15 05:33:00,18.24,0.98,1008.2,0.73,2.32,1600072860,305,0.89,8,1600062660,13.86,259.4,15.33,2020-09-14 04:39:00,23.11,2020-09-14 13:37:00,15.85,2020-09-14 04:37:00,23.5,2020-09-14 13:40:00
Kathmandu,Pharping,27.76666667,85.31666667,2020-09-14 00:00:00,Rain in the morning and afternoon.,rain,2020-09-14 05:50:00,2020-09-14 18:11:00,0.89,0.5073,1.1015,2020-09-14 14:30:00,0.74,rain,25.29,2020-09-14 13:43:00,17.1,2020-09-15 05:37:00,25.76,2020-09-14 13:45:00,17.53,2020-09-15 05:38:00,20.14,0.96,1008.1,0.87,2.6,1600071660,141,0.86,8,1600062360,14.095,259.6,17.42,2020-09-14 04:42:00,25.29,2020-09-14 13:43:00,17.98,2020-09-14 04:40:00,25.76,2020-09-14 13:45:00
Kathmandu,Sankhu,27.73333333,85.33333333,2020-09-14 00:00:00,Rain in the morning and afternoon.,rain,2020-09-14 05:50:00,2020-09-14 18:11:00,0.89,0.5347,1.1732,2020-09-14 14:31:00,0.75,rain,25.51,2020-09-14 13:41:00,17.2,2020-09-15 05:38:00,25.97,2020-09-14 13:41:00,17.68,2020-09-15 05:39:00,20.44,0.96,1008.1,0.93,2.52,1600071960,280,0.86,8,1600062540,13.98,259.6,17.82,2020-09-14 04:39:00,25.51,2020-09-14 13:41:00,18.47,2020-09-14 04:38:00,25.97,2020-09-14 13:41:00
Kathmandu,Sankhu,27.73333333,85.33333333,2020-09-14 00:00:00,Rain in the morning and afternoon.,rain,2020-09-14 05:50:00,2020-09-14 18:11:00,0.89,0.5347,1.1732,2020-09-14 14:31:00,0.75,rain,25.51,2020-09-14 13:41:00,17.2,2020-09-15 05:38:00,25.97,2020-09-14 13:41:00,17.68,2020-09-15 05:39:00,20.44,0.96,1008.1,0.93,2.52,1600071960,280,0.86,8,1600062540,13.98,259.6,17.82,2020-09-14 04:39:00,25.51,2020-09-14 13:41:00,18.47,2020-09-14 04:38:00,25.97,2020-09-14 13:41:00
Kathmandu,Sivapuri,27.75,85.43333333,2020-09-14 00:00:00,Rain in the morning and afternoon.,rain,2020-09-14 05:50:00,2020-09-14 18:11:00,0.89,0.4949,1.0323,2020-09-14 14:30:00,0.74,rain,25.14,2020-09-14 13:45:00,16.71,2020-09-15 05:39:00,25.51,2020-09-14 13:47:00,17.08,2020-09-15 05:39:00,19.45,0.95,1008.2,0.7,2.29,1600073220,300,0.89,8,1600062720,13.919,259.6,16.71,2020-09-14 04:37:00,25.14,2020-09-14 13:45:00,17.23,2020-09-14 04:36:00,25.51,2020-09-14 13:47:00
Kathmandu,Sundarijal,27.8,85.43333333,2020-09-14 00:00:00,Rain in the morning and afternoon.,rain,2020-09-14 05:50:00,2020-09-14 18:11:00,0.89,0.4294,0.9284,2020-09-14 14:33:00,0.72,rain,20.45,2020-09-14 13:42:00,13.82,2020-09-15 05:34:00,20.97,2020-09-14 13:46:00,14.22,2020-09-15 05:32:00,16.34,1.0,1008.3,0.76,2.32,1600072500,311,0.89,8,1600062600,13.671,259.2,13.16,2020-09-14 04:43:00,20.45,2020-09-14 13:42:00,13.74,2020-09-14 04:41:00,20.97,2020-09-14 13:46:00
Kathmandu,Tarebhir,27.78419167,85.29049444,2020-09-14 00:00:00,Rain in the morning and afternoon.,rain,2020-09-14 05:50:00,2020-09-14 18:11:00,0.89,0.4921,1.0802,2020-09-14 14:30:00,0.73,rain,24.38,2020-09-14 13:43:00,16.77,2020-09-15 05:31:00,24.9,2020-09-14 13:45:00,17.24,2020-09-15 05:32:00,19.56,0.98,1008.1,0.89,2.67,1600071540,125,0.85,8,1600062300,14.203,259.5,16.73,2020-09-14 04:41:00,24.38,2020-09-14 13:43:00,17.29,2020-09-14 04:39:00,24.9,2020-09-14 13:45:00
Kathmandu,Tokha,27.7972222,85.3577778,2020-09-14 00:00:00,Rain in the morning and afternoon.,rain,2020-09-14 05:50:00,2020-09-14 18:11:00,0.89,0.4553,0.9938,2020-09-14 14:31:00,0.73,rain,21.38,2020-09-14 13:38:00,14.55,2020-09-15 05:24:00,21.89,2020-09-14 13:41:00,15.01,2020-09-15 05:22:00,17.19,1.0,1008.2,0.83,2.5,1600072140,296,0.87,8,1600062420,14.015,259.4,14.11,2020-09-14 04:43:00,21.38,2020-09-14 13:38:00,14.71,2020-09-14 04:41:00,21.89,2020-09-14 13:41:00
Khotang,Diktel,27.02930083,86.84337278,2020-09-14 00:00:00,Rain and humid throughout the day.,rain,2020-09-14 05:44:00,2020-09-14 18:05:00,0.89,0.4522,1.2362,2020-09-14 14:12:00,0.76,rain,26.17,2020-09-14 10:43:00,19.88,2020-09-15 05:43:00,28.03,2020-09-14 10:45:00,20.96,2020-09-15 05:41:00,22.61,1.0,1007.2,0.87,2.35,1600072020,126,0.9,8,1600062780,15.202,258.7,19.37,2020-09-14 04:42:00,26.17,2020-09-14 10:43:00,20.42,2020-09-14 04:41:00,28.03,2020-09-14 10:45:00
Khotang,Dwarpa,27.359795000000002,86.7486619,2020-09-14 00:00:00,Possible light rain in the evening.,rain,2020-09-14 05:44:00,2020-09-14 18:05:00,0.89,0.3171,0.6572,2020-09-14 16:58:00,0.71,rain,21.69,2020-09-14 12:44:00,14.53,2020-09-15 01:12:00,22.25,2020-09-14 12:48:00,15.31,2020-09-15 05:34:00,16.86,1.0,1007.8,0.91,2.53,1600070460,357,0.92,8,1600063020,12.356,257.8,13.57,2020-09-14 04:44:00,21.69,2020-09-14 12:44:00,14.32,2020-09-14 04:43:00,22.25,2020-09-14 12:48:00
Khotang,Khotang Bazar,27.1408985,86.4317585,2020-09-14 00:00:00,Rain and humid throughout the day.,rain,2020-09-14 05:46:00,2020-09-14 18:07:00,0.89,0.4741,1.0492,2020-09-14 14:51:00,0.77,rain,30.26,2020-09-14 13:32:00,22.97,2020-09-15 06:19:00,38.27,2020-09-14 16:09:00,24.23,2020-09-15 06:14:00,25.18,0.95,1007.2,0.92,2.36,1600073100,111,0.94,6,1600062300,14.463,259.4,22.12,2020-09-14 04:45:00,30.26,2020-09-14 13:32:00,23.17,2020-09-14 04:44:00,38.27,2020-09-14 16:09:00
Khotang,Kurle Ghat,27.21666667,86.85,2020-09-14 00:00:00,Rain starting in the morning.,rain,2020-09-14 05:44:00,2020-09-14 18:05:00,0.89,0.4645,1.0101,2020-09-14 14:35:00,0.75,rain,22.6,2020-09-14 12:43:00,15.97,2020-09-15 05:09:00,23.42,2020-09-14 12:47:00,16.95,2020-09-15 05:01:00,18.48,1.0,1007.7,0.79,2.56,1600073280,193,0.9,8,1600062780,12.896,258.3,15.36,2020-09-14 04:41:00,22.6,2020-09-14 12:43:00,16.41,2020-09-14 04:40:00,23.42,2020-09-14 12:47:00
Lalitpur,Chapa Gaun,27.566666700000003,85.3166667,2020-09-14 00:00:00,Rain in the morning and afternoon.,rain,2020-09-14 05:50:00,2020-09-14 18:11:00,0.89,0.6373,1.6193,2020-09-14 14:35:00,0.77,rain,23.17,2020-09-14 12:49:00,17.54,2020-09-15 05:36:00,24.17,2020-09-14 13:07:00,18.45,2020-09-15 05:35:00,20.02,1.0,1007.6,0.78,2.12,1600072920,355,0.93,7,1600062900,13.595,259.5,17.45,2020-09-14 04:35:00,23.17,2020-09-14 12:49:00,18.46,2020-09-14 04:34:00,24.17,2020-09-14 13:07:00
Lalitpur,Godavari,27.68333333,85.3,2020-09-14 00:00:00,Rain in the morning and afternoon.,rain,2020-09-14 05:50:00,2020-09-14 18:11:00,0.89,0.5705,1.3186,2020-09-14 14:33:00,0.75,rain,25.31,2020-09-14 13:31:00,17.68,2020-09-15 05:39:00,25.93,2020-09-14 13:31:00,18.27,2020-09-15 05:39:00,21.13,0.98,1007.9,0.9,2.45,1600071960,329,0.87,8,1600062480,14.123,259.6,18.25,2020-09-14 04:40:00,25.31,2020-09-14 13:31:00,19.01,2020-09-14 04:39:00,25.93,2020-09-14 13:31:00
Lalitpur,Khokana,27.65,85.38333333,2020-09-14 00:00:00,Rain in the morning and afternoon.,rain,2020-09-14 05:50:00,2020-09-14 18:11:00,0.89,0.5853,1.4159,2020-09-14 14:34:00,0.76,rain,25.4,2020-09-14 13:34:00,17.63,2020-09-15 05:40:00,26.01,2020-09-14 13:35:00,18.26,2020-09-15 05:40:00,21.08,0.98,1007.9,0.87,2.27,1600073040,317,0.9,7,1600062840,14.257,259.5,18.02,2020-09-14 04:39:00,25.4,2020-09-14 13:34:00,18.81,2020-09-14 04:38:00,26.01,2020-09-14 13:35:00
Lalitpur,Khumaltar,27.5929167,85.3788333,2020-09-14 00:00:00,Rain in the morning and afternoon.,rain,2020-09-14 05:50:00,2020-09-14 18:11:00,0.89,0.6281,1.6043,2020-09-14 14:34:00,0.77,rain,23.7,2020-09-14 13:23:00,17.28,2020-09-15 05:36:00,24.55,2020-09-14 13:31:00,18.1,2020-09-15 05:35:00,19.94,1.0,1007.7,0.81,2.19,1600073160,342,0.92,7,1600062900,14.053,259.4,17.1,2020-09-14 04:36:00,23.7,2020-09-14 13:23:00,18.04,2020-09-14 04:34:00,24.55,2020-09-14 13:31:00
Lalitpur,Kritipur (Bagban),27.68333333,85.33333333,2020-09-14 00:00:00,Rain in the morning and afternoon.,rain,2020-09-14 05:50:00,2020-09-14 18:11:00,0.89,0.5663,1.3126,2020-09-14 14:33:00,0.75,rain,25.92,2020-09-14 13:31:00,17.58,2020-09-15 05:40:00,26.41,2020-09-14 13:25:00,18.16,2020-09-15 05:40:00,21.28,0.95,1007.9,1.09,2.62,1600072320,284,0.86,7,1600062840,13.721,259.6,18.84,2020-09-14 04:40:00,25.92,2020-09-14 13:31:00,19.63,2020-09-14 04:40:00,26.41,2020-09-14 13:25:00
Lalitpur,Lalitpur (Kopundol),27.659325,85.3697083,2020-09-14 00:00:00,Rain in the morning and afternoon.,rain,2020-09-14 05:50:00,2020-09-14 18:11:00,0.89,0.5791,1.3832,2020-09-14 14:34:00,0.76,rain,25.61,2020-09-14 13:33:00,17.65,2020-09-15 05:41:00,26.18,2020-09-14 13:32:00,18.26,2020-09-15 05:41:00,21.22,0.97,1007.9,0.94,2.3,1600072860,303,0.89,7,1600062900,14.128,259.5,18.34,2020-09-14 04:40:00,25.61,2020-09-14 13:33:00,19.13,2020-09-14 04:39:00,26.18,2020-09-14 13:32:00
Lalitpur,Lubhu,27.60325833,85.32656389,2020-09-14 00:00:00,Rain in the morning and afternoon.,rain,2020-09-14 05:50:00,2020-09-14 18:11:00,0.89,0.6164,1.5313,2020-09-14 14:34:00,0.76,rain,23.96,2020-09-14 13:14:00,17.66,2020-09-15 05:34:00,24.83,2020-09-14 13:24:00,18.45,2020-09-15 05:33:00,20.54,1.0,1007.7,0.81,2.21,1600072800,351,0.91,7,1600062780,14.065,259.5,17.59,2020-09-14 04:37:00,23.96,2020-09-14 13:14:00,18.5,2020-09-14 04:35:00,24.83,2020-09-14 13:24:00
Lalitpur,Tikathali,27.576825,85.3540444,2020-09-14 00:00:00,Rain in the morning and afternoon.,rain,2020-09-14 05:50:00,2020-09-14 18:11:00,0.89,0.6366,1.6318,2020-09-14 14:35:00,0.77,rain,22.94,2020-09-14 13:05:00,17.06,2020-09-15 05:33:00,23.88,2020-09-14 13:18:00,17.95,2020-09-15 05:31:00,19.47,1.0,1007.6,0.8,2.16,1600073100,348,0.92,7,1600062900,13.826,259.4,16.81,2020-09-14 04:36:00,22.94,2020-09-14 13:05:00,17.8,2020-09-14 04:35:00,23.88,2020-09-14 13:18:00
Lamiung,Khudi Bazar,28.12677778,84.34494167,2020-09-14 00:00:00,Partly cloudy throughout the day.,rain,2020-09-14 05:54:00,2020-09-14 18:15:00,0.89,0.2861,0.547,2020-09-14 17:44:00,0.65,rain,28.06,2020-09-14 13:51:00,19.08,2020-09-15 05:57:00,29.33,2020-09-14 14:11:00,19.35,2020-09-15 05:59:00,18.04,0.73,1008.3,1.07,1.59,1600073280,358,0.76,9,1600061940,14.063,261.6,18.97,2020-09-14 05:39:00,28.06,2020-09-14 13:51:00,19.24,2020-09-14 05:39:00,29.33,2020-09-14 14:11:00
Lamjung,Besishahar,28.25596667,84.47929722,2020-09-13 21:45:00,Humid throughout the day.,rain,2020-09-14 05:53:00,2020-09-14 18:15:00,0.89,0.2249,0.4198,2020-09-14 15:05:00,0.65,rain,24.08,2020-09-14 12:55:00,16.69,2020-09-15 05:41:00,24.36,2020-09-14 13:03:00,16.99,2020-09-15 05:35:00,17.46,0.88,1008.8,1.19,1.85,1600071660,13,0.79,9,1600062120,10.635,260.3,16.08,2020-09-14 04:58:00,24.08,2020-09-14 12:55:00,16.34,2020-09-14 04:59:00,24.36,2020-09-14 13:03:00
Lamjung,Bhorletar,28.21813889,84.24153889,2020-09-14 00:00:00,Partly cloudy throughout the day.,rain,2020-09-14 05:54:00,2020-09-14 18:16:00,0.89,0.2755,0.5383,2020-09-14 16:27:00,0.65,rain,24.85,2020-09-14 13:54:00,17.17,2020-09-15 06:26:00,24.86,2020-09-14 13:58:00,17.44,2020-09-15 06:26:00,15.72,0.77,1008.6,1.52,1.88,1600036980,348,0.76,9,1600061880,13.801,261.2,16.6,2020-09-14 05:18:00,24.85,2020-09-14 13:54:00,16.87,2020-09-14 05:18:00,24.86,2020-09-14 13:58:00
Lamjung,Faleni,28.30964722,84.26600278,2020-09-14 00:00:00,Mostly cloudy throughout the day.,rain,2020-09-14 05:54:00,2020-09-14 18:16:00,0.89,0.2151,0.4449,2020-09-14 15:27:00,0.62,rain,21.87,2020-09-14 13:43:00,15.4,2020-09-15 06:18:00,22.08,2020-09-14 13:45:00,15.67,2020-09-15 06:18:00,15.7,0.88,1009.0,1.59,1.91,1600037160,343,0.78,9,1600061820,13.905,259.3,14.23,2020-09-14 05:03:00,21.87,2020-09-14 13:43:00,14.5,2020-09-14 05:03:00,22.08,2020-09-14 13:45:00
Lamjung,Gausala,28.07621667,84.47669444,2020-09-14 00:00:00,Humid and partly cloudy throughout the day.,rain,2020-09-14 05:53:00,2020-09-14 18:15:00,0.89,0.2821,0.5139,2020-09-14 20:07:00,0.67,rain,29.67,2020-09-14 13:49:00,20.5,2020-09-15 05:59:00,31.82,2020-09-14 14:33:00,20.95,2020-09-15 06:02:00,19.59,0.72,1008.2,0.86,1.62,1600074240,30,0.76,9,1600061940,14.743,261.7,20.72,2020-09-14 05:50:00,29.67,2020-09-14 13:49:00,21.1,2020-09-14 05:53:00,31.82,2020-09-14 14:33:00
Lamjung,Gharedhunga,28.282208299999997,84.3454164,2020-09-14 00:00:00,Foggy in the afternoon.,rain,2020-09-14 05:54:00,2020-09-14 18:15:00,0.89,0.2287,0.4512,2020-09-14 15:19:00,0.64,rain,24.45,2020-09-14 13:15:00,17.33,2020-09-15 06:09:00,24.57,2020-09-14 13:20:00,17.6,2020-09-15 06:09:00,15.99,0.78,1008.8,1.45,1.71,1600037100,353,0.78,9,1600061940,12.852,259.6,16.45,2020-09-14 05:06:00,24.45,2020-09-14 13:15:00,16.72,2020-09-14 05:06:00,24.57,2020-09-14 13:20:00
Mahottari,Chisapani Gadhi,26.65224722,85.807275,2020-09-14 00:00:00,Rain and humid throughout the day.,rain,2020-09-14 05:48:00,2020-09-14 18:09:00,0.89,0.3614,0.6107,2020-09-14 05:49:00,0.89,rain,30.99,2020-09-14 14:02:00,24.76,2020-09-15 05:32:00,39.66,2020-09-14 13:03:00,26.26,2020-09-15 06:18:00,26.5,0.93,1005.3,2.28,6.01,1600021860,82,0.89,7,1600062180,15.598,261.3,24.88,2020-09-14 03:44:00,30.99,2020-09-14 14:02:00,26.27,2020-09-14 04:20:00,39.66,2020-09-14 13:03:00
Mahottari,Jalesore,26.88333333,85.78333333,2020-09-14 00:00:00,Possible light rain until afternoon.,rain,2020-09-14 05:48:00,2020-09-14 18:09:00,0.89,0.2882,0.6942,2020-09-14 05:54:00,0.84,rain,31.46,2020-09-14 14:38:00,24.77,2020-09-15 05:23:00,40.83,2020-09-14 14:34:00,26.19,2020-09-15 06:17:00,26.39,0.92,1005.7,1.73,4.49,1600020900,75,0.93,6,1600062000,16.049,261.6,24.81,2020-09-14 03:57:00,31.46,2020-09-14 14:38:00,26.07,2020-09-14 04:18:00,40.83,2020-09-14 14:34:00
Makwanpur,Daman,27.5599456,85.1386067,2020-09-14 00:00:00,Rain in the morning and afternoon.,rain,2020-09-14 05:51:00,2020-09-14 18:12:00,0.89,0.5762,1.2059,2020-09-14 08:36:00,0.76,rain,21.85,2020-09-14 10:48:00,17.04,2020-09-15 05:37:00,22.63,2020-09-14 10:50:00,18.1,2020-09-15 05:34:00,18.96,1.0,1007.4,0.79,2.16,1600072980,11,0.92,7,1600062720,14.661,260.0,16.91,2020-09-14 04:43:00,21.85,2020-09-14 10:48:00,18.09,2020-09-14 04:41:00,22.63,2020-09-14 10:50:00
Makwanpur,Hetanuda(Ind. Dist),27.619,85.1496,2020-09-14 00:00:00,Rain in the morning and afternoon.,rain,2020-09-14 05:51:00,2020-09-14 18:12:00,0.89,0.5598,1.1938,2020-09-14 14:30:00,0.75,rain,22.3,2020-09-14 10:59:00,17.2,2020-09-15 05:21:00,23.16,2020-09-14 12:46:00,18.11,2020-09-15 05:18:00,19.37,1.0,1007.6,0.82,2.29,1600072920,27,0.9,7,1600062360,14.574,260.0,16.97,2020-09-14 04:41:00,22.3,2020-09-14 10:59:00,17.97,2020-09-14 04:39:00,23.16,2020-09-14 12:46:00
Makwanpur,Makwanpur Gadhi,27.43333333,85.03333333,2020-09-14 00:00:00,Rain in the morning and afternoon.,rain,2020-09-14 05:51:00,2020-09-14 18:12:00,0.89,0.5292,1.5949,2020-09-14 08:41:00,0.76,rain,28.19,2020-09-14 10:52:00,22.88,2020-09-15 06:00:00,35.38,2020-09-14 16:43:00,24.05,2020-09-15 05:38:00,25.39,0.99,1006.8,0.99,2.11,1600072860,17,0.95,6,1600063140,15.429,261.0,22.72,2020-09-14 04:44:00,28.19,2020-09-14 10:52:00,23.91,2020-09-14 04:42:00,35.38,2020-09-14 16:43:00
Makwanpur,Manang Bhot,27.635081899999996,84.7416103,2020-09-14 00:00:00,Rain overnight and in the morning.,rain,2020-09-14 05:52:00,2020-09-14 18:13:00,0.89,0.4424,0.9576,2020-09-14 08:28:00,0.74,rain,28.92,2020-09-14 12:36:00,21.37,2020-09-15 05:12:00,31.79,2020-09-14 12:46:00,22.34,2020-09-15 05:13:00,22.83,0.92,1007.2,0.94,2.22,1600074060,70,0.85,8,1600062060,15.648,261.9,21.25,2020-09-14 04:40:00,28.92,2020-09-14 12:36:00,22.28,2020-09-14 04:39:00,31.79,2020-09-14 12:46:00
Makwanpur,Markhu Gaun,27.4227,85.0279,2020-09-14 00:00:00,Rain in the morning and afternoon.,rain,2020-09-14 05:51:00,2020-09-14 18:12:00,0.89,0.5249,1.6198,2020-09-14 08:41:00,0.76,rain,28.16,2020-09-14 10:53:00,22.96,2020-09-15 05:41:00,35.51,2020-09-14 16:43:00,24.13,2020-09-15 05:35:00,25.41,0.99,1006.8,1.02,2.1,1600072800,19,0.95,6,1600063080,15.466,261.1,22.76,2020-09-14 04:43:00,28.16,2020-09-14 10:53:00,23.93,2020-09-14 04:41:00,35.51,2020-09-14 16:43:00
Manang,Goga,28.63989694,84.08811583,2020-09-14 00:00:00,Foggy in the afternoon.,rain,2020-09-14 05:55:00,2020-09-14 18:16:00,0.89,0.0262,0.0821,2020-09-14 16:26:00,0.38,rain,9.8,2020-09-14 12:45:00,4.34,2020-09-15 00:24:00,8.72,2020-09-14 12:43:00,4.71,2020-09-15 05:41:00,6.03,1.0,1010.0,1.33,2.41,1600067280,11,0.84,9,1600062000,11.31,252.6,3.13,2020-09-14 04:53:00,9.8,2020-09-14 12:45:00,3.4,2020-09-14 04:53:00,8.72,2020-09-14 12:43:00
Manang,Humde,28.66627083,84.02257194,2020-09-14 00:00:00,Foggy in the afternoon and evening.,fog,2020-09-14 05:55:00,2020-09-14 18:17:00,0.89,0.0222,0.0727,2020-09-14 16:21:00,0.35,rain,9.69,2020-09-14 12:46:00,4.03,2020-09-15 05:45:00,8.56,2020-09-14 12:43:00,4.3,2020-09-15 05:44:00,5.73,1.0,1010.0,1.3,2.34,1600067040,99,0.83,9,1600062180,11.294,252.4,3.06,2020-09-14 04:56:00,9.69,2020-09-14 12:46:00,3.33,2020-09-14 04:56:00,8.56,2020-09-14 12:43:00
Manang,Naar,28.76666667,84.28333333,2020-09-14 00:00:00,Mostly cloudy throughout the day.,partly-cloudy-day,2020-09-14 05:54:00,2020-09-14 18:16:00,0.89,0.0095,0.0381,2020-09-14 15:47:00,0.3,rain,5.85,2020-09-14 13:22:00,-1.31,2020-09-15 05:42:00,7.53,2020-09-14 12:31:00,-1.04,2020-09-15 05:42:00,1.82,1.0,1010.4,1.04,2.76,1600074060,25,0.81,10,1600061700,10.349,251.3,-1.82,2020-09-14 05:00:00,5.85,2020-09-14 13:22:00,-1.55,2020-09-14 05:00:00,7.53,2020-09-14 12:31:00
Manang,Phu Gaun,28.55,84.2333333,2020-09-14 00:00:00,Foggy in the morning and afternoon.,rain,2020-09-14 05:54:00,2020-09-14 18:16:00,0.89,0.0404,0.1141,2020-09-14 16:35:00,0.44,rain,11.73,2020-09-14 10:43:00,6.54,2020-09-15 00:11:00,12.54,2020-09-14 10:52:00,7.2,2020-09-15 00:33:00,8.25,1.0,1009.8,1.48,2.49,1600064520,332,0.82,9,1600061580,12.436,253.5,5.49,2020-09-14 04:53:00,11.73,2020-09-14 10:43:00,5.02,2020-09-14 04:47:00,12.54,2020-09-14 10:52:00
Morang,Biratnagar,29.2160678,83.983333,2020-09-13 21:45:00,Overcast throughout the day.,cloudy,2020-09-14 05:55:00,2020-09-14 18:17:00,0.89,0.0026,0.0075,2020-09-14 05:21:00,0.13,rain,16.7,2020-09-14 14:01:00,0.16,2020-09-15 05:31:00,16.42,2020-09-14 14:01:00,-0.16,2020-09-15 03:40:00,5.25,0.9,1010.2,2.36,6.84,1600077900,197,0.78,7,1600063620,15.766,253.3,-0.22,2020-09-14 04:56:00,16.7,2020-09-14 14:01:00,-1.58,2020-09-14 05:05:00,16.42,2020-09-14 14:01:00
Morang,Biratnagar Airport,26.61000889,87.37074778,2020-09-14 00:00:00,Rain and humid throughout the day.,rain,2020-09-14 05:42:00,2020-09-14 18:03:00,0.89,0.5907,1.4849,2020-09-15 00:00:00,0.96,rain,29.33,2020-09-14 15:04:00,24.33,2020-09-15 05:35:00,37.87,2020-09-14 15:42:00,25.76,2020-09-15 05:35:00,26.85,0.97,1006.5,1.82,3.78,1600020900,108,0.89,7,1600062420,13.538,259.7,24.62,2020-09-14 04:37:00,29.33,2020-09-14 15:04:00,25.84,2020-09-14 04:31:00,37.87,2020-09-14 15:42:00
Morang,Gam Shree Nagar,26.73416667,87.50166667,2020-09-14 00:00:00,Rain and humid throughout the day.,rain,2020-09-14 05:42:00,2020-09-14 18:02:00,0.89,0.5277,1.0036,2020-09-14 11:54:00,0.92,rain,28.42,2020-09-14 15:49:00,23.69,2020-09-15 06:36:00,39.18,2020-09-14 16:05:00,25.07,2020-09-15 06:31:00,26.34,0.99,1006.9,1.46,2.71,1600020900,104,0.86,9,1600062780,12.489,259.6,23.8,2020-09-14 04:47:00,28.42,2020-09-14 15:49:00,25.06,2020-09-14 04:45:00,39.18,2020-09-14 16:05:00
Morang,Haraincha,28.46717,84.37307390000001,2020-09-14 00:00:00,Foggy in the morning and afternoon.,rain,2020-09-14 05:54:00,2020-09-14 18:15:00,0.89,0.0657,0.1545,2020-09-14 15:25:00,0.49,rain,14.32,2020-09-14 12:44:00,9.46,2020-09-14 21:02:00,15.05,2020-09-14 12:46:00,10.09,2020-09-15 00:53:00,10.94,1.0,1009.5,1.41,2.47,1600064040,346,0.81,9,1600061580,12.411,254.4,7.99,2020-09-14 04:55:00,14.32,2020-09-14 12:44:00,8.26,2020-09-14 04:55:00,15.05,2020-09-14 12:46:00
Morang,Letang,26.46666667,87.28333333,2020-09-14 00:00:00,Rain and humid throughout the day.,rain,2020-09-14 05:43:00,2020-09-14 18:03:00,0.89,0.6423,2.4071,2020-09-14 23:57:00,0.98,rain,29.27,2020-09-14 14:42:00,24.1,2020-09-15 04:47:00,36.16,2020-09-14 14:02:00,25.68,2020-09-15 04:46:00,26.42,0.98,1006.1,2.09,4.68,1600020900,109,0.93,6,1600062000,12.783,259.5,24.56,2020-09-14 04:03:00,29.27,2020-09-14 14:42:00,25.95,2020-09-14 04:19:00,36.16,2020-09-14 14:02:00
Morang,Mugu,26.483967,87.26700600000001,2020-09-14 00:00:00,Rain and humid throughout the day.,rain,2020-09-14 05:43:00,2020-09-14 18:03:00,0.89,0.6239,2.5823,2020-09-14 23:55:00,0.98,rain,29.45,2020-09-14 14:42:00,24.11,2020-09-15 04:46:00,36.39,2020-09-14 14:06:00,25.7,2020-09-15 04:45:00,26.42,0.98,1006.1,2.1,4.89,1600020900,110,0.93,6,1600062120,12.447,259.6,24.55,2020-09-14 04:02:00,29.45,2020-09-14 14:42:00,25.95,2020-09-14 04:19:00,36.39,2020-09-14 14:06:00
Mugu,Jomsom,29.50867889,81.89267389,2020-09-14 00:00:00,Partly cloudy throughout the day.,partly-cloudy-day,2020-09-14 06:03:00,2020-09-14 18:25:00,0.89,0.0157,0.0584,2020-09-14 18:01:00,0.25,rain,24.96,2020-09-14 13:41:00,9.12,2020-09-15 05:28:00,24.68,2020-09-14 13:41:00,9.39,2020-09-15 05:28:00,12.06,0.81,1010.2,0.99,3.4,1600081380,260,0.34,10,1600063800,16.093,259.2,8.5,2020-09-14 04:54:00,24.96,2020-09-14 13:41:00,8.77,2020-09-14 04:54:00,24.68,2020-09-14 13:41:00
Mugu,Mangri,29.540125,82.081825,2020-09-14 00:00:00,Partly cloudy throughout the day.,partly-cloudy-day,2020-09-14 06:02:00,2020-09-14 18:25:00,0.89,0.0191,0.0762,2020-09-14 18:55:00,0.27,rain,19.33,2020-09-14 13:28:00,6.57,2020-09-15 05:33:00,19.05,2020-09-14 13:28:00,6.84,2020-09-15 05:33:00,9.51,0.9,1010.0,1.23,2.96,1600080480,60,0.42,11,1600063500,16.093,258.0,5.75,2020-09-14 04:52:00,19.33,2020-09-14 13:28:00,6.02,2020-09-14 04:52:00,19.05,2020-09-14 13:28:00
Mugu,Rara,29.75,82.55,2020-09-14 00:00:00,Partly cloudy throughout the day.,partly-cloudy-day,2020-09-14 06:00:00,2020-09-14 18:23:00,0.89,0.006,0.0202,2020-09-14 15:13:00,0.21,rain,5.25,2020-09-14 13:02:00,-1.76,2020-09-15 05:36:00,2.84,2020-09-14 12:53:00,-1.49,2020-09-15 05:36:00,1.29,1.0,1010.9,1.54,4.64,1600073160,36,0.45,13,1600063440,15.578,253.3,-2.38,2020-09-14 05:30:00,5.25,2020-09-14 13:02:00,-2.11,2020-09-14 05:30:00,2.84,2020-09-14 12:53:00
Mugu,Seroge,29.58904306,82.30580306,2020-09-14 00:00:00,Partly cloudy throughout the day.,partly-cloudy-day,2020-09-14 06:02:00,2020-09-14 18:24:00,0.89,0.0194,0.0739,2020-09-14 20:14:00,0.29,rain,16.93,2020-09-14 12:50:00,7.91,2020-09-15 05:35:00,16.65,2020-09-14 12:50:00,8.18,2020-09-15 05:35:00,9.88,0.93,1010.7,1.47,3.41,1600073100,50,0.5,11,1600063200,16.093,255.7,6.85,2020-09-14 04:53:00,16.93,2020-09-14 12:50:00,7.12,2020-09-14 04:53:00,16.65,2020-09-14 12:50:00
Mustang,Lete,28.78401111,83.72981667,2020-09-14 00:00:00,Mostly cloudy throughout the day.,partly-cloudy-day,2020-09-14 05:56:00,2020-09-14 18:18:00,0.89,0.0154,0.0417,2020-09-14 15:26:00,0.33,rain,11.53,2020-09-14 10:47:00,7.0,2020-09-15 05:42:00,11.66,2020-09-14 10:55:00,6.45,2020-09-15 02:12:00,8.13,1.0,1010.0,1.77,5.1,1600073940,203,0.79,9,1600062540,7.541,253.6,5.06,2020-09-14 04:55:00,11.53,2020-09-14 10:47:00,5.11,2020-09-14 05:35:00,11.66,2020-09-14 10:55:00
Mustang,Mustang(Lomangthang),28.81555556,83.86222222,2020-09-14 00:00:00,Mostly cloudy throughout the day.,partly-cloudy-day,2020-09-14 05:56:00,2020-09-14 18:17:00,0.89,0.0103,0.0321,2020-09-14 15:19:00,0.27,rain,10.21,2020-09-14 13:09:00,4.94,2020-09-15 05:44:00,8.88,2020-09-14 12:58:00,4.53,2020-09-14 23:27:00,6.74,1.0,1010.0,1.59,4.18,1600074960,188,0.81,10,1600062420,12.18,253.0,3.57,2020-09-14 04:58:00,10.21,2020-09-14 13:09:00,3.8,2020-09-14 05:02:00,8.88,2020-09-14 12:58:00
Mustang,Ranipauwa (M.Nath),28.73887222,83.68183333,2020-09-14 00:00:00,Foggy starting in the morning.,rain,2020-09-14 05:56:00,2020-09-14 18:18:00,0.89,0.0259,0.0763,2020-09-14 15:41:00,0.39,rain,11.55,2020-09-14 10:48:00,6.94,2020-09-15 02:32:00,11.86,2020-09-14 10:56:00,6.47,2020-09-15 02:27:00,8.08,1.0,1009.9,1.64,4.62,1600073520,211,0.78,9,1600062480,5.555,253.6,5.02,2020-09-14 04:57:00,11.55,2020-09-14 10:48:00,5.56,2020-09-14 04:57:00,11.86,2020-09-14 10:56:00
Mustang,Tatopani,28.9,83.68333333,2020-09-14 00:00:00,Mostly cloudy throughout the day.,partly-cloudy-day,2020-09-14 05:56:00,2020-09-14 18:18:00,0.89,0.0114,0.0291,2020-09-14 15:04:00,0.26,rain,9.93,2020-09-14 13:29:00,4.32,2020-09-15 05:53:00,8.31,2020-09-14 13:15:00,3.93,2020-09-15 01:15:00,6.33,1.0,1010.1,1.84,5.31,1600074960,236,0.78,10,1600062540,15.254,252.7,2.95,2020-09-14 05:00:00,9.93,2020-09-14 13:29:00,3.18,2020-09-14 05:01:00,8.31,2020-09-14 13:15:00
Myagdi,Bega,28.4,83.73333333,2020-09-14 00:00:00,Mostly cloudy throughout the day.,rain,2020-09-14 05:56:00,2020-09-14 18:18:00,0.89,0.1374,0.2858,2020-09-14 14:58:00,0.57,rain,15.84,2020-09-14 14:16:00,10.33,2020-09-15 01:35:00,17.23,2020-09-14 13:58:00,10.88,2020-09-15 02:17:00,12.5,1.0,1008.8,1.0,2.43,1600064340,151,0.87,9,1600062660,13.276,257.9,9.43,2020-09-14 04:49:00,15.84,2020-09-14 14:16:00,10.47,2020-09-14 04:46:00,17.23,2020-09-14 13:58:00
Myagdi,Beni Bazar,29.22713194,83.979815,2020-09-13 21:45:00,Overcast throughout the day.,cloudy,2020-09-14 05:55:00,2020-09-14 18:17:00,0.89,0.0026,0.0075,2020-09-14 05:21:00,0.13,rain,16.58,2020-09-14 14:01:00,-0.2,2020-09-15 05:31:00,16.3,2020-09-14 14:01:00,-0.58,2020-09-15 03:40:00,5.03,0.9,1010.2,2.38,6.92,1600077900,199,0.77,7,1600063680,15.701,253.2,-0.53,2020-09-14 04:56:00,16.58,2020-09-14 14:01:00,-1.95,2020-09-14 05:07:00,16.3,2020-09-14 14:01:00
Myagdi,Dumkauli,28.56666667,83.38333333,2020-09-14 00:00:00,Foggy in the afternoon and evening.,rain,2020-09-14 05:58:00,2020-09-14 18:19:00,0.89,0.1235,0.4001,2020-09-14 15:41:00,0.53,rain,16.36,2020-09-14 12:41:00,10.29,2020-09-15 05:44:00,16.84,2020-09-14 12:51:00,10.56,2020-09-15 05:44:00,12.22,1.0,1009.3,1.42,2.8,1600067340,354,0.83,9,1600062480,10.689,256.4,8.94,2020-09-14 04:54:00,16.36,2020-09-14 12:41:00,9.21,2020-09-14 04:54:00,16.84,2020-09-14 12:51:00
Myagdi,Ghorepani,28.35083333,83.56666667,2020-09-14 00:00:00,Mostly cloudy throughout the day.,rain,2020-09-14 05:57:00,2020-09-14 18:18:00,0.89,0.1953,0.4426,2020-09-14 17:16:00,0.6,rain,23.47,2020-09-14 14:30:00,15.94,2020-09-15 05:36:00,23.71,2020-09-14 14:31:00,16.21,2020-09-15 05:36:00,16.44,0.86,1008.8,1.09,2.28,1600064940,350,0.84,8,1600062540,14.313,259.3,15.08,2020-09-14 04:48:00,23.47,2020-09-14 14:30:00,15.35,2020-09-14 04:48:00,23.71,2020-09-14 14:31:00
Myagdi,Muna,28.44271389,83.576185,2020-09-14 00:00:00,Mostly cloudy throughout the day.,rain,2020-09-14 05:57:00,2020-09-14 18:18:00,0.89,0.1539,0.4255,2020-09-14 16:17:00,0.58,rain,19.49,2020-09-14 10:47:00,13.21,2020-09-15 05:41:00,19.59,2020-09-14 10:50:00,13.48,2020-09-15 05:41:00,15.64,0.99,1009.0,1.23,2.67,1600064880,358,0.88,8,1600062780,11.95,258.1,12.02,2020-09-14 04:50:00,19.49,2020-09-14 10:47:00,12.34,2020-09-14 04:50:00,19.59,2020-09-14 10:50:00
Nawalparasi,Bara Ghat,27.680675,84.22854170000001,2020-09-14 00:00:00,"Rain until morning, starting again in the evening.",rain,2020-09-14 05:54:00,2020-09-14 18:15:00,0.89,0.5146,1.4524,2020-09-14 06:03:00,0.83,rain,33.91,2020-09-14 13:13:00,23.9,2020-09-15 05:45:00,37.99,2020-09-14 16:19:00,24.85,2020-09-15 05:50:00,23.12,0.75,1006.7,1.12,2.12,1600073940,75,0.79,8,1600062240,13.887,262.4,22.8,2020-09-14 05:43:00,33.91,2020-09-14 13:13:00,23.67,2020-09-14 05:45:00,37.99,2020-09-14 16:19:00
Nawalparasi,Dumkibas,27.51925,83.66218333,2020-09-14 00:00:00,Rain overnight and in the morning.,rain,2020-09-14 05:57:00,2020-09-14 18:18:00,0.89,0.2337,1.2403,2020-09-14 06:01:00,0.67,rain,33.27,2020-09-14 12:48:00,24.37,2020-09-15 04:56:00,40.27,2020-09-14 13:18:00,25.35,2020-09-15 05:04:00,24.71,0.8,1005.7,1.63,2.95,1600062540,114,0.77,8,1600062600,15.656,263.6,24.74,2020-09-14 04:25:00,33.27,2020-09-14 12:48:00,25.89,2020-09-14 04:25:00,40.27,2020-09-14 13:18:00
Nawalparasi,Parasi,27.67488333,84.07438333,2020-09-14 00:00:00,Rain overnight and in the morning.,rain,2020-09-14 05:55:00,2020-09-14 18:16:00,0.89,0.4517,1.3225,2020-09-14 06:01:00,0.79,rain,33.65,2020-09-14 12:56:00,23.78,2020-09-15 05:36:00,37.68,2020-09-14 13:06:00,24.55,2020-09-15 05:38:00,22.63,0.73,1006.6,1.13,2.17,1600073280,75,0.82,8,1600062420,14.364,262.4,22.79,2020-09-14 05:38:00,33.65,2020-09-14 12:56:00,23.55,2020-09-14 05:41:00,37.68,2020-09-14 13:06:00
Nawalparasi,Rambas,27.56666667,82.95,2020-09-14 00:00:00,Humid and partly cloudy throughout the day.,rain,2020-09-14 06:00:00,2020-09-14 18:21:00,0.89,0.1679,0.5424,2020-09-14 06:01:00,0.51,rain,32.36,2020-09-14 13:53:00,24.76,2020-09-15 05:02:00,39.98,2020-09-14 13:48:00,26.01,2020-09-15 05:08:00,25.01,0.81,1005.3,1.83,4.0,1600052220,77,0.74,9,1600062660,16.093,264.4,25.22,2020-09-14 04:47:00,32.36,2020-09-14 13:53:00,26.4,2020-09-14 04:46:00,39.98,2020-09-14 13:48:00
Nawalparasi,Trisuli,27.68333333,84.13333333,2020-09-14 00:00:00,"Rain until morning, starting again in the evening.",rain,2020-09-14 05:55:00,2020-09-14 18:16:00,0.89,0.4827,1.3819,2020-09-14 06:02:00,0.81,rain,33.52,2020-09-14 12:59:00,23.63,2020-09-15 05:37:00,37.39,2020-09-14 13:10:00,24.43,2020-09-15 05:39:00,22.58,0.73,1006.7,1.12,2.15,1600073460,74,0.81,8,1600062360,14.093,262.4,22.68,2020-09-14 05:37:00,33.52,2020-09-14 12:59:00,23.46,2020-09-14 05:41:00,37.39,2020-09-14 13:10:00
Nuwakot,Kakani,27.91666667,85.15,2020-09-14 00:00:00,Humid and mostly cloudy throughout the day.,rain,2020-09-14 05:51:00,2020-09-14 18:12:00,0.89,0.3225,0.7279,2020-09-14 14:19:00,0.69,rain,28.74,2020-09-14 13:45:00,20.72,2020-09-15 05:37:00,31.81,2020-09-14 14:00:00,21.05,2020-09-15 05:38:00,20.73,0.83,1008.2,0.91,2.55,1600073160,158,0.84,8,1600062300,15.397,260.0,20.53,2020-09-14 04:47:00,28.74,2020-09-14 13:45:00,20.88,2020-09-14 04:46:00,31.81,2020-09-14 14:00:00
