district,formal_name,lat,long,time,summary,icon,sunriseTime,sunsetTime,moonPhase,precipIntensity,precipIntensityMax,precipIntensityMaxTime,precipProbability,precipType,temperatureHigh,temperatureHighTime,temperatureLow,temperatureLowTime,apparentTemperatureHigh,apparentTemperatureHighTime,apparentTemperatureLow,apparentTemperatureLowTime,dewPoint,humidity,pressure,windSpeed,windGust,windGustTime,windBearing,cloudCover,uvIndex,uvIndexTime,visibility,ozone,temperatureMin,temperatureMinTime,temperatureMax,temperatureMaxTime,apparentTemperatureMin,apparentTemperatureMinTime,apparentTemperatureMax,apparentTemperatureMaxTime,precipAccumulation
Achham,Asara Ghat,28.95029444,81.44431944,2020-10-19 00:00:00,Clear throughout the day.,clear-day,2020-10-19 06:24:00,2020-10-19 17:46:00,0.11,0.0015,0.0051,2020-10-19 17:45:00,0.02,rain,29.57,2020-10-19 13:38:00,16.89,2020-10-20 05:38:00,29.29,2020-10-19 13:38:00,17.16,2020-10-20 05:38:00,13.14,0.58,1010.3,1.41,2.92,1603062780,71,0.04,8,1603087620,16.093,260.3,17.08,2020-10-19 05:33:00,29.57,2020-10-19 13:38:00,17.35,2020-10-19 05:33:00,29.29,2020-10-19 13:38:00,
Achham,Basti,29.03098333,81.17113333,2020-10-19 00:00:00,Clear throughout the day.,clear-day,2020-10-19 06:25:00,2020-10-19 17:47:00,0.11,0.0018,0.0088,2020-10-19 17:46:00,0.02,rain,30.63,2020-10-19 13:35:00,16.99,2020-10-20 05:37:00,30.35,2020-10-19 13:35:00,17.26,2020-10-20 05:37:00,14.21,0.6,1010.2,1.2,2.21,1603062960,26,0.06,8,1603087800,16.093,260.0,16.67,2020-10-19 05:31:00,30.63,2020-10-19 13:35:00,16.94,2020-10-19 05:31:00,30.35,2020-10-19 13:35:00,
Achham,Mangalsen,29.13611389,81.25009167,2020-10-19 00:00:00,Clear throughout the day.,clear-day,2020-10-19 06:25:00,2020-10-19 17:47:00,0.11,0.0015,0.0051,2020-10-19 17:45:00,0.01,rain,27.52,2020-10-19 13:47:00,15.48,2020-10-20 05:35:00,27.24,2020-10-19 13:47:00,15.75,2020-10-20 05:35:00,9.92,0.54,1010.4,1.26,2.45,1603063020,55,0.05,8,1603088160,16.093,259.6,15.13,2020-10-19 05:29:00,27.52,2020-10-19 13:47:00,15.4,2020-10-19 05:29:00,27.24,2020-10-19 13:47:00,
Achham,Sugali,29.17980694,81.37293889,2020-10-19 00:00:00,Clear throughout the day.,clear-day,2020-10-19 06:25:00,2020-10-19 17:46:00,0.11,0.0015,0.0051,2020-10-19 17:45:00,0.02,rain,24.58,2020-10-19 13:32:00,13.72,2020-10-20 05:30:00,24.3,2020-10-19 13:32:00,13.99,2020-10-20 05:30:00,8.57,0.57,1011.0,1.47,3.3,1603063080,48,0.09,8,1603087980,16.093,258.7,13.33,2020-10-19 05:17:00,24.58,2020-10-19 13:32:00,13.6,2020-10-19 05:17:00,24.3,2020-10-19 13:32:00,
Arghakhanchi,Rangsing,27.80330278,82.78400833,2020-10-19 00:00:00,Clear throughout the day.,clear-day,2020-10-19 06:18:00,2020-10-19 17:42:00,0.11,0.0017,0.0051,2020-10-19 17:45:00,0.02,rain,32.2,2020-10-19 14:10:00,19.16,2020-10-20 05:13:00,31.92,2020-10-19 14:10:00,19.43,2020-10-20 05:13:00,13.99,0.52,1008.0,1.62,3.26,1603095780,355,0.16,8,1603088280,16.093,262.5,19.86,2020-10-19 04:58:00,32.2,2020-10-19 14:10:00,20.13,2020-10-19 04:58:00,31.92,2020-10-19 14:10:00,
Arghakhanchi,Sandhikharka,27.96402222,83.12056944,2020-10-19 00:00:00,Partly cloudy throughout the day.,partly-cloudy-day,2020-10-19 06:17:00,2020-10-19 17:41:00,0.11,0.0094,0.0258,2020-10-19 00:35:00,0.04,rain,27.78,2020-10-19 13:43:00,15.94,2020-10-20 05:37:00,27.5,2020-10-19 13:43:00,16.21,2020-10-20 05:37:00,11.49,0.54,1009.7,1.26,1.99,1603096920,49,0.41,7,1603089060,16.093,260.2,17.69,2020-10-19 05:35:00,27.78,2020-10-19 13:43:00,17.96,2020-10-19 05:35:00,27.5,2020-10-19 13:43:00,
Arghakhanchi,Sidhara,27.7945,82.82838333,2020-10-19 00:00:00,Clear throughout the day.,clear-day,2020-10-19 06:18:00,2020-10-19 17:42:00,0.11,0.0019,0.0051,2020-10-19 17:45:00,0.02,rain,31.63,2020-10-19 13:46:00,19.52,2020-10-20 05:25:00,31.35,2020-10-19 13:46:00,19.79,2020-10-20 05:25:00,13.43,0.51,1007.9,1.62,3.29,1603095780,358,0.17,8,1603088160,16.093,262.5,20.18,2020-10-19 05:00:00,31.63,2020-10-19 13:46:00,20.45,2020-10-19 05:00:00,31.35,2020-10-19 13:46:00,
Baglung,Baglung,28.26363611,83.60032222,2020-10-19 00:00:00,Partly cloudy throughout the day.,partly-cloudy-day,2020-10-19 06:15:00,2020-10-19 17:38:00,0.11,0.0988,0.2832,2020-10-19 16:34:00,0.23,rain,24.91,2020-10-19 13:00:00,15.33,2020-10-20 05:36:00,24.63,2020-10-19 13:00:00,15.6,2020-10-20 05:36:00,13.37,0.69,1011.6,1.12,1.93,1603089480,317,0.6,6,1603087980,15.909,257.8,15.91,2020-10-19 05:08:00,24.91,2020-10-19 13:00:00,16.18,2020-10-19 05:08:00,24.63,2020-10-19 13:00:00,
Baglung,Dhorpatan,28.48333333,83.08333333,2020-10-19 00:00:00,Foggy in the afternoon.,fog,2020-10-19 06:17:00,2020-10-19 17:40:00,0.11,0.0379,0.109,2020-10-19 00:34:00,0.25,rain,14.92,2020-10-19 12:35:00,6.07,2020-10-20 05:14:00,14.64,2020-10-19 12:35:00,4.91,2020-10-20 05:18:00,8.89,0.96,1012.7,1.42,2.41,1603089840,24,0.44,8,1603086300,13.31,254.5,6.38,2020-10-19 05:07:00,14.92,2020-10-19 12:35:00,5.59,2020-10-19 05:18:00,14.64,2020-10-19 12:35:00,
Baglung,Galkot,28.21869167,83.41881111,2020-10-19 00:00:00,Partly cloudy throughout the day.,partly-cloudy-day,2020-10-19 06:16:00,2020-10-19 17:39:00,0.11,0.0859,0.1878,2020-10-19 16:37:00,0.22,rain,24.27,2020-10-19 13:03:00,13.41,2020-10-20 05:42:00,23.99,2020-10-19 13:03:00,13.68,2020-10-20 05:42:00,11.24,0.64,1011.5,1.17,1.84,1603089420,344,0.6,6,1603087620,16.093,257.8,14.3,2020-10-19 05:39:00,24.27,2020-10-19 13:03:00,14.57,2020-10-19 05:39:00,23.99,2020-10-19 13:03:00,
Baglung,Rangkhani,28.14408889,83.55824444,2020-10-19 00:00:00,Partly cloudy throughout the day.,partly-cloudy-day,2020-10-19 06:15:00,2020-10-19 17:39:00,0.11,0.0903,0.2026,2020-10-19 00:45:00,0.21,rain,22.19,2020-10-19 13:36:00,13.3,2020-10-20 05:03:00,21.91,2020-10-19 13:36:00,13.57,2020-10-20 05:03:00,11.17,0.7,1011.1,1.03,1.73,1603089360,330,0.54,7,1603088160,16.093,258.6,13.72,2020-10-19 05:01:00,22.19,2020-10-19 13:36:00,13.99,2020-10-19 05:01:00,21.91,2020-10-19 13:36:00,
Baitadi,Patan (West),29.467137,80.54575109999999,2020-10-19 00:00:00,Clear throughout the day.,clear-day,2020-10-19 06:28:00,2020-10-19 17:49:00,0.11,0.0012,0.0041,2020-10-19 23:45:00,0.02,rain,28.1,2020-10-19 13:41:00,13.38,2020-10-20 05:40:00,27.82,2020-10-19 13:41:00,13.65,2020-10-20 05:40:00,12.57,0.69,1010.8,1.17,2.03,1603095960,186,0.17,7,1603086540,16.093,259.2,13.46,2020-10-19 05:34:00,28.1,2020-10-19 13:41:00,13.73,2020-10-19 05:34:00,27.82,2020-10-19 13:41:00,
Baitadi,Satbanjh,29.4973,80.49741194,2020-10-19 00:00:00,Clear throughout the day.,clear-day,2020-10-19 06:28:00,2020-10-19 17:50:00,0.11,0.0011,0.0041,2020-10-19 23:45:00,0.02,rain,24.62,2020-10-19 13:42:00,11.33,2020-10-20 05:08:00,24.34,2020-10-19 13:42:00,11.6,2020-10-20 05:08:00,10.85,0.74,1010.5,1.21,2.14,1603091760,187,0.15,7,1603085880,16.093,259.4,11.42,2020-10-19 05:10:00,24.62,2020-10-19 13:42:00,11.69,2020-10-19 05:10:00,24.34,2020-10-19 13:42:00,
Bajhang,Chainpur (West),29.55,81.21666667,2020-10-19 00:00:00,Clear throughout the day.,clear-day,2020-10-19 06:26:00,2020-10-19 17:47:00,0.11,0.0064,0.0857,2020-10-19 19:45:00,0.02,rain,23.85,2020-10-19 13:01:00,11.54,2020-10-20 05:31:00,23.57,2020-10-19 13:01:00,11.81,2020-10-20 05:31:00,3.35,0.45,1012.7,1.4,2.96,1603061880,39,0.22,8,1603088400,16.093,256.2,11.45,2020-10-19 05:11:00,23.85,2020-10-19 13:01:00,11.72,2020-10-19 05:11:00,23.57,2020-10-19 13:01:00,
Bajhang,Chainpur Bajhang Aws Climate,29.545890000000004,81.20114000000001,2020-10-19 00:00:00,Clear throughout the day.,clear-day,2020-10-19 06:26:00,2020-10-19 17:47:00,0.11,0.0064,0.0822,2020-10-19 19:45:00,0.02,rain,24.1,2020-10-19 13:04:00,11.92,2020-10-20 01:26:00,23.82,2020-10-19 13:04:00,12.19,2020-10-20 01:26:00,3.51,0.45,1012.6,1.38,2.93,1603061880,39,0.22,8,1603088400,16.093,256.3,11.72,2020-10-19 05:06:00,24.1,2020-10-19 13:04:00,11.99,2020-10-19 05:06:00,23.82,2020-10-19 13:04:00,
Bajhang,Kalukheti,29.447359999999996,81.16838,2020-10-19 00:00:00,Clear throughout the day.,clear-day,2020-10-19 06:26:00,2020-10-19 17:47:00,0.11,0.0063,0.0686,2020-10-19 19:45:00,0.02,rain,26.69,2020-10-19 13:24:00,12.9,2020-10-20 05:42:00,26.41,2020-10-19 13:24:00,13.17,2020-10-20 05:42:00,5.53,0.45,1011.6,1.29,2.92,1603062060,44,0.2,8,1603088400,16.093,257.6,12.51,2020-10-19 05:38:00,26.69,2020-10-19 13:24:00,12.78,2020-10-19 05:38:00,26.41,2020-10-19 13:24:00,
Bajhang,Rayal,29.464595000000003,80.95405,2020-10-19 00:00:00,Clear throughout the day.,clear-day,2020-10-19 06:27:00,2020-10-19 17:48:00,0.11,0.0057,0.0457,2020-10-19 22:54:00,0.02,rain,29.38,2020-10-19 13:46:00,15.47,2020-10-20 05:41:00,29.1,2020-10-19 13:46:00,15.74,2020-10-20 05:41:00,8.63,0.49,1011.2,1.12,2.2,1603062480,68,0.21,8,1603088220,16.093,257.8,14.36,2020-10-19 05:38:00,29.38,2020-10-19 13:46:00,14.63,2020-10-19 05:38:00,29.1,2020-10-19 13:46:00,
Bajura,Bajura (Martadi),29.45697889,81.48038389,2020-10-19 00:00:00,Clear throughout the day.,clear-day,2020-10-19 06:24:00,2020-10-19 17:46:00,0.11,0.0019,0.0078,2020-10-19 19:42:00,0.03,rain,23.4,2020-10-19 12:55:00,11.54,2020-10-20 05:40:00,23.12,2020-10-19 12:55:00,11.81,2020-10-20 05:40:00,5.89,0.54,1012.7,1.57,3.59,1603061760,33,0.13,8,1603088940,16.093,256.1,11.17,2020-10-19 05:30:00,23.4,2020-10-19 12:55:00,11.44,2020-10-19 05:30:00,23.12,2020-10-19 12:55:00,
Bajura,Kailasmandu,29.35291694,81.33385889,2020-10-19 00:00:00,Clear throughout the day.,clear-day,2020-10-19 06:25:00,2020-10-19 17:46:00,0.11,0.0031,0.0328,2020-10-19 19:45:00,0.02,rain,26.27,2020-10-19 13:11:00,14.49,2020-10-20 05:26:00,25.99,2020-10-19 13:11:00,14.76,2020-10-20 05:26:00,7.75,0.51,1011.9,1.45,3.32,1603062660,42,0.13,8,1603088460,16.093,257.6,14.16,2020-10-19 05:09:00,26.27,2020-10-19 13:11:00,14.43,2020-10-19 05:09:00,25.99,2020-10-19 13:11:00,
Bajura,Kolti,29.50348694,81.66617611,2020-10-19 00:00:00,Clear throughout the day.,clear-day,2020-10-19 06:24:00,2020-10-19 17:45:00,0.11,0.0015,0.0051,2020-10-19 17:45:00,0.03,rain,24.56,2020-10-19 13:30:00,8.92,2020-10-20 05:35:00,24.28,2020-10-19 13:30:00,9.19,2020-10-20 05:35:00,5.93,0.57,1012.9,1.11,3.39,1603098000,311,0.14,8,1603088520,16.093,256.2,8.51,2020-10-19 05:17:00,24.56,2020-10-19 13:30:00,8.78,2020-10-19 05:17:00,24.28,2020-10-19 13:30:00,
Banke,Amlekhganj,27.94748333,81.78569444,2020-10-19 00:15:00,Clear throughout the day.,clear-day,2020-10-19 06:22:00,2020-10-19 17:46:00,0.11,0.0016,0.0051,2020-10-19 17:45:00,0.02,rain,32.78,2020-10-19 13:56:00,17.37,2020-10-20 05:25:00,32.5,2020-10-19 13:56:00,17.72,2020-10-20 05:23:00,15.83,0.63,1007.5,1.44,2.24,1603096680,55,0.05,8,1603088160,16.093,264.2,17.76,2020-10-19 05:27:00,32.78,2020-10-19 13:56:00,18.36,2020-10-19 05:27:00,32.5,2020-10-19 13:56:00,
Banke,Dhakeri,28.10055556,81.66824722,2020-10-19 00:15:00,Clear throughout the day.,clear-day,2020-10-19 06:22:00,2020-10-19 17:46:00,0.11,0.0016,0.0051,2020-10-19 17:45:00,0.02,rain,32.52,2020-10-19 14:03:00,18.26,2020-10-20 05:17:00,32.24,2020-10-19 14:03:00,18.61,2020-10-20 05:15:00,16.11,0.63,1007.8,1.46,2.06,1603091580,72,0.02,8,1603088220,16.093,263.6,18.07,2020-10-19 05:26:00,32.52,2020-10-19 14:03:00,18.61,2020-10-19 05:25:00,32.24,2020-10-19 14:03:00,
Banke,Khajura (Nepalganj),28.11368333,81.59030556,2020-10-19 00:15:00,Clear throughout the day.,clear-day,2020-10-19 06:23:00,2020-10-19 17:47:00,0.11,0.0016,0.0051,2020-10-19 17:45:00,0.02,rain,32.39,2020-10-19 14:04:00,18.28,2020-10-20 05:21:00,32.11,2020-10-19 14:04:00,18.66,2020-10-20 05:19:00,16.25,0.63,1007.7,1.44,2.02,1603091040,76,0.02,8,1603088220,16.093,263.6,18.05,2020-10-19 05:28:00,32.39,2020-10-19 14:04:00,18.6,2020-10-19 05:28:00,32.11,2020-10-19 14:04:00,
Banke,Naubasta,28.230225,81.65270278,2020-10-19 00:00:00,Clear throughout the day.,clear-day,2020-10-19 06:23:00,2020-10-19 17:46:00,0.11,0.0015,0.0051,2020-10-19 17:45:00,0.02,rain,32.5,2020-10-19 14:18:00,19.73,2020-10-20 05:16:00,32.22,2020-10-19 14:18:00,20.03,2020-10-20 05:16:00,16.27,0.61,1008.0,1.48,2.14,1603044900,63,0.01,8,1603088220,16.093,262.9,18.98,2020-10-19 05:18:00,32.5,2020-10-19 14:18:00,19.43,2020-10-19 05:18:00,32.22,2020-10-19 14:18:00,
Banke,Nepalgunj Airport,28.051994399999995,81.6228389,2020-10-19 00:15:00,Clear throughout the day.,clear-day,2020-10-19 06:23:00,2020-10-19 17:46:00,0.11,0.0016,0.0051,2020-10-19 17:45:00,0.02,rain,32.32,2020-10-19 14:01:00,17.84,2020-10-20 05:23:00,32.04,2020-10-19 14:01:00,18.21,2020-10-20 05:22:00,15.96,0.63,1007.6,1.44,2.05,1603092360,84,0.03,8,1603088220,16.093,263.8,17.77,2020-10-19 05:32:00,32.32,2020-10-19 14:01:00,18.33,2020-10-19 05:33:00,32.04,2020-10-19 14:01:00,
Bara,Gulariya,27.164166700000003,84.98,2020-10-19 00:00:00,Clear throughout the day.,clear-day,2020-10-19 06:08:00,2020-10-19 17:34:00,0.11,0.0068,0.0452,2020-10-19 09:55:00,0.03,rain,33.14,2020-10-19 14:09:00,22.02,2020-10-20 05:28:00,35.45,2020-10-19 13:41:00,22.73,2020-10-20 05:28:00,20.88,0.7,1007.7,1.65,2.92,1603102140,71,0.17,7,1603087320,16.093,262.5,22.34,2020-10-19 05:20:00,33.14,2020-10-19 14:09:00,23.25,2020-10-19 05:20:00,35.45,2020-10-19 13:41:00,
Bara,Kalaiya,27.079,84.9329,2020-10-19 00:00:00,Humid throughout the day.,clear-day,2020-10-19 06:09:00,2020-10-19 17:34:00,0.11,0.008,0.0467,2020-10-19 14:45:00,0.04,rain,33.32,2020-10-19 14:03:00,21.83,2020-10-20 05:31:00,35.7,2020-10-19 13:06:00,22.66,2020-10-20 05:32:00,20.94,0.7,1007.4,1.68,3.01,1603107000,72,0.11,8,1603087260,16.093,262.6,22.16,2020-10-19 05:24:00,33.32,2020-10-19 14:03:00,23.15,2020-10-19 05:24:00,35.7,2020-10-19 13:06:00,
Bara,Nijgadh,27.16416667,84.98,2020-10-19 00:00:00,Clear throughout the day.,clear-day,2020-10-19 06:08:00,2020-10-19 17:34:00,0.11,0.0068,0.0452,2020-10-19 09:55:00,0.03,rain,33.14,2020-10-19 14:09:00,22.02,2020-10-20 05:28:00,35.45,2020-10-19 13:41:00,22.73,2020-10-20 05:28:00,20.88,0.7,1007.7,1.65,2.92,1603102140,71,0.17,7,1603087320,16.093,262.5,22.34,2020-10-19 05:20:00,33.14,2020-10-19 14:09:00,23.25,2020-10-19 05:20:00,35.45,2020-10-19 13:41:00,
Bara,Parwanipur,27.20300556,85.170475,2020-10-19 00:00:00,Clear throughout the day.,clear-day,2020-10-19 06:08:00,2020-10-19 17:33:00,0.11,0.0061,0.022,2020-10-19 12:42:00,0.04,rain,32.73,2020-10-19 14:06:00,21.8,2020-10-20 05:32:00,35.22,2020-10-19 14:05:00,22.54,2020-10-20 05:32:00,21.09,0.72,1008.0,1.59,2.59,1603099140,58,0.2,7,1603087320,16.093,262.3,22.15,2020-10-19 05:21:00,32.73,2020-10-19 14:06:00,23.03,2020-10-19 05:21:00,35.22,2020-10-19 14:05:00,
Bara,Simara Airport,27.2813,84.9919,2020-10-19 00:00:00,Partly cloudy throughout the day.,partly-cloudy-day,2020-10-19 06:08:00,2020-10-19 17:34:00,0.11,0.0093,0.0629,2020-10-19 09:55:00,0.03,rain,31.27,2020-10-19 13:44:00,21.72,2020-10-20 05:32:00,32.91,2020-10-19 13:19:00,22.23,2020-10-20 05:30:00,20.14,0.71,1008.2,1.53,2.98,1603098720,62,0.24,7,1603087080,16.093,262.0,22.1,2020-10-19 05:18:00,31.27,2020-10-19 13:44:00,22.9,2020-10-19 05:17:00,32.91,2020-10-19 13:19:00,
Bardiya,Chisapani(Karnali),28.21278611,81.34521111,2020-10-19 00:00:00,Clear throughout the day.,clear-day,2020-10-19 06:24:00,2020-10-19 17:47:00,0.11,0.0015,0.0051,2020-10-19 17:45:00,0.02,rain,32.19,2020-10-19 14:17:00,18.15,2020-10-20 05:19:00,31.91,2020-10-19 14:19:00,18.62,2020-10-20 05:18:00,16.54,0.65,1007.8,1.33,2.07,1603088160,104,0.01,8,1603088280,16.093,263.3,18.1,2020-10-19 05:18:00,32.19,2020-10-19 14:17:00,18.66,2020-10-19 05:20:00,31.91,2020-10-19 14:19:00,
Bardiya,Kumalgaun,28.33735833,81.33784167,2020-10-19 00:00:00,Clear throughout the day.,clear-day,2020-10-19 06:24:00,2020-10-19 17:47:00,0.11,0.0015,0.0051,2020-10-19 17:45:00,0.02,rain,32.29,2020-10-19 14:15:00,18.48,2020-10-20 05:14:00,32.01,2020-10-19 14:17:00,18.93,2020-10-20 05:12:00,16.8,0.65,1008.0,1.34,2.1,1603088100,98,0.01,8,1603088280,16.093,262.9,18.25,2020-10-19 05:10:00,32.29,2020-10-19 14:15:00,18.8,2020-10-19 05:12:00,32.01,2020-10-19 14:17:00,
Bardiya,Manpur,28.36353889,81.41428333,2020-10-19 00:00:00,Clear throughout the day.,clear-day,2020-10-19 06:24:00,2020-10-19 17:47:00,0.11,0.0015,0.0051,2020-10-19 17:45:00,0.02,rain,32.37,2020-10-19 14:21:00,18.88,2020-10-20 05:13:00,32.09,2020-10-19 14:21:00,19.27,2020-10-20 05:11:00,16.77,0.64,1008.1,1.36,2.02,1603088580,90,0.01,8,1603088280,16.093,262.6,18.4,2020-10-19 05:13:00,32.37,2020-10-19 14:21:00,18.91,2020-10-19 05:13:00,32.09,2020-10-19 14:21:00,
Bardiya,Rajapur,28.64721944,81.28542778,2020-10-19 00:00:00,Clear throughout the day.,clear-day,2020-10-19 06:24:00,2020-10-19 17:47:00,0.11,0.0015,0.0051,2020-10-19 17:45:00,0.02,rain,31.69,2020-10-19 14:07:00,19.13,2020-10-20 05:18:00,31.41,2020-10-19 14:07:00,19.4,2020-10-20 05:18:00,15.82,0.61,1008.6,1.33,2.04,1603046940,73,0.02,8,1603088340,16.093,262.0,18.75,2020-10-19 05:11:00,31.69,2020-10-19 14:07:00,19.08,2020-10-19 05:12:00,31.41,2020-10-19 14:07:00,
Bardiya,Rambhapur,28.307825,81.27586389,2020-10-19 00:00:00,Clear throughout the day.,clear-day,2020-10-19 06:24:00,2020-10-19 17:48:00,0.11,0.0015,0.0051,2020-10-19 17:45:00,0.02,rain,32.14,2020-10-19 14:19:00,18.19,2020-10-20 05:16:00,31.86,2020-10-19 14:22:00,18.65,2020-10-20 05:16:00,16.62,0.66,1007.9,1.31,2.15,1603087800,108,0.01,8,1603088280,16.093,263.1,18.15,2020-10-19 05:07:00,32.14,2020-10-19 14:19:00,18.71,2020-10-19 05:11:00,31.86,2020-10-19 14:22:00,
Bardiya,Rani Jaruwa Nursery,28.42588611,81.33803611,2020-10-19 00:00:00,Clear throughout the day.,clear-day,2020-10-19 06:24:00,2020-10-19 17:47:00,0.11,0.0015,0.0051,2020-10-19 17:45:00,0.02,rain,32.39,2020-10-19 14:19:00,18.81,2020-10-20 05:13:00,32.11,2020-10-19 14:20:00,19.21,2020-10-20 05:11:00,16.81,0.65,1008.1,1.38,2.08,1603088400,93,0.01,8,1603088340,16.093,262.6,18.33,2020-10-19 05:11:00,32.39,2020-10-19 14:19:00,18.85,2020-10-19 05:11:00,32.11,2020-10-19 14:20:00,
Bhaktapur,Bhaktapur,27.63333333,85.43333333,2020-10-19 00:00:00,Partly cloudy throughout the day.,partly-cloudy-day,2020-10-19 06:07:00,2020-10-19 17:32:00,0.11,0.0841,0.2096,2020-10-19 02:27:00,0.24,rain,23.61,2020-10-19 13:08:00,14.62,2020-10-20 05:33:00,23.54,2020-10-19 13:11:00,15.04,2020-10-20 05:31:00,16.9,0.94,1010.6,0.82,2.06,1603097820,39,0.46,7,1603087080,16.093,258.9,14.57,2020-10-19 05:27:00,23.61,2020-10-19 13:08:00,15.2,2020-10-19 05:23:00,23.54,2020-10-19 13:11:00,
Bhaktapur,Changu Narayan,27.67668056,85.42396944,2020-10-19 00:00:00,Partly cloudy throughout the day.,partly-cloudy-day,2020-10-19 06:07:00,2020-10-19 17:32:00,0.11,0.097,0.281,2020-10-19 02:23:00,0.27,rain,25.45,2020-10-19 13:23:00,15.47,2020-10-20 06:13:00,25.46,2020-10-19 13:26:00,15.83,2020-10-20 06:09:00,18.0,0.91,1010.8,0.77,2.08,1603098480,45,0.45,7,1603087200,16.093,258.9,15.65,2020-10-19 05:45:00,25.45,2020-10-19 13:23:00,16.23,2020-10-19 05:42:00,25.46,2020-10-19 13:26:00,
Bhaktapur,Nagarkot,27.645725,85.4615833,2020-10-19 00:00:00,Partly cloudy throughout the day.,partly-cloudy-day,2020-10-19 06:07:00,2020-10-19 17:31:00,0.11,0.0848,0.2223,2020-10-19 02:34:00,0.25,rain,24.8,2020-10-19 13:15:00,15.15,2020-10-20 06:05:00,24.76,2020-10-19 13:17:00,15.53,2020-10-20 05:59:00,17.51,0.92,1010.7,0.78,2.06,1603098300,36,0.46,7,1603087200,16.093,258.9,15.13,2020-10-19 05:42:00,24.8,2020-10-19 13:15:00,15.72,2020-10-19 05:39:00,24.76,2020-10-19 13:17:00,
Bhaktapur,Sanga,27.71605833,85.42675556,2020-10-19 00:00:00,Partly cloudy throughout the day.,partly-cloudy-day,2020-10-19 06:07:00,2020-10-19 17:32:00,0.11,0.1075,0.3424,2020-10-19 02:24:00,0.28,rain,24.77,2020-10-19 13:32:00,14.8,2020-10-20 06:11:00,24.7,2020-10-19 13:33:00,15.09,2020-10-20 06:07:00,17.28,0.91,1010.8,0.71,2.11,1603100220,48,0.44,7,1603087260,16.093,258.9,15.05,2020-10-19 05:45:00,24.77,2020-10-19 13:32:00,15.6,2020-10-19 05:43:00,24.7,2020-10-19 13:33:00,
Bhojpur,Dingla,27.1944798,87.04862659999999,2020-10-19 00:00:00,Partly cloudy throughout the day.,partly-cloudy-day,2020-10-19 06:00:00,2020-10-19 17:26:00,0.11,0.16,0.4635,2020-10-19 14:02:00,0.33,rain,22.43,2020-10-19 12:50:00,13.75,2020-10-20 05:14:00,22.22,2020-10-19 12:54:00,14.41,2020-10-20 04:56:00,15.96,0.94,1010.4,0.8,2.35,1603096860,223,0.45,7,1603086420,16.093,256.9,14.08,2020-10-19 04:59:00,22.43,2020-10-19 12:50:00,14.71,2020-10-19 04:57:00,22.22,2020-10-19 12:54:00,
Bhojpur,Rampur,27.5282716,87.2177064,2020-10-19 00:00:00,Partly cloudy throughout the day.,partly-cloudy-day,2020-10-19 06:00:00,2020-10-19 17:25:00,0.11,0.1627,0.7442,2020-10-19 03:10:00,0.34,rain,22.53,2020-10-19 12:41:00,15.13,2020-10-20 05:34:00,22.25,2020-10-19 12:41:00,15.4,2020-10-20 05:34:00,14.2,0.79,1011.8,0.91,2.35,1603090500,4,0.68,7,1603086840,16.062,256.4,15.15,2020-10-19 05:11:00,22.53,2020-10-19 12:41:00,15.42,2020-10-19 05:11:00,22.25,2020-10-19 12:41:00,
Chitawan,Bharatpur,27.5909,84.5223,2020-10-19 00:00:00,Humid throughout the day.,clear-day,2020-10-19 06:11:00,2020-10-19 17:35:00,0.11,0.0262,0.3018,2020-10-19 00:00:00,0.11,rain,33.26,2020-10-19 13:53:00,20.55,2020-10-20 05:26:00,36.44,2020-10-19 13:53:00,21.23,2020-10-20 05:25:00,21.38,0.74,1008.6,1.13,2.19,1603107900,7,0.3,7,1603087080,16.093,261.5,22.06,2020-10-19 05:23:00,33.26,2020-10-19 13:53:00,23.08,2020-10-19 05:22:00,36.44,2020-10-19 13:53:00,
Chitawan,Bharatpur,27.72113611,84.58525556,2020-10-19 00:00:00,Humid and partly cloudy throughout the day.,partly-cloudy-day,2020-10-19 06:10:00,2020-10-19 17:35:00,0.11,0.0598,0.6364,2020-10-19 00:00:00,0.25,rain,31.82,2020-10-19 13:48:00,20.19,2020-10-20 05:35:00,34.43,2020-10-19 14:02:00,20.82,2020-10-20 05:35:00,21.17,0.77,1009.1,1.08,1.96,1603120020,26,0.31,7,1603087020,16.093,260.9,21.69,2020-10-19 05:35:00,31.82,2020-10-19 13:48:00,22.68,2020-10-19 05:33:00,34.43,2020-10-19 14:02:00,
Chitawan,Jhuwani,27.654025,84.3507944,2020-10-19 00:00:00,Humid throughout the day.,clear-day,2020-10-19 06:11:00,2020-10-19 17:36:00,0.11,0.0435,0.6724,2020-10-19 00:00:00,0.18,rain,33.36,2020-10-19 13:59:00,20.57,2020-10-20 05:30:00,36.33,2020-10-19 13:56:00,21.3,2020-10-20 05:30:00,21.61,0.75,1008.6,1.19,2.14,1603105920,11,0.23,7,1603087320,16.093,261.6,22.39,2020-10-19 05:29:00,33.36,2020-10-19 13:59:00,23.45,2020-10-19 05:27:00,36.33,2020-10-19 13:56:00,
Chitwan,Gobindabasti,27.423171500000002,84.30374090000001,2020-10-19 00:00:00,Humid throughout the day.,clear-day,2020-10-19 06:11:00,2020-10-19 17:36:00,0.11,0.0014,0.0051,2020-10-19 17:44:00,0.02,rain,32.44,2020-10-19 13:53:00,20.25,2020-10-20 05:10:00,34.26,2020-10-19 13:33:00,20.71,2020-10-20 05:07:00,20.1,0.72,1008.0,1.48,3.23,1603102080,13,0.17,7,1603086900,16.093,262.2,21.43,2020-10-19 05:13:00,32.44,2020-10-19 13:53:00,22.36,2020-10-19 05:03:00,34.26,2020-10-19 13:33:00,
Chitwan,Madi Kalyanpur,27.580483299999997,84.2242222,2020-10-19 00:00:00,Humid throughout the day.,clear-day,2020-10-19 06:12:00,2020-10-19 17:36:00,0.11,0.0216,0.368,2020-10-19 00:00:00,0.11,rain,33.41,2020-10-19 14:03:00,20.01,2020-10-20 05:20:00,36.16,2020-10-19 13:53:00,20.73,2020-10-20 05:20:00,21.46,0.76,1008.4,1.35,2.65,1603103100,11,0.19,8,1603087260,16.093,261.9,22.02,2020-10-19 05:23:00,33.41,2020-10-19 14:03:00,23.09,2020-10-19 05:21:00,36.16,2020-10-19 13:53:00,
Chitwan,Meghauli,27.67303333,84.42227222,2020-10-19 00:00:00,Humid throughout the day.,clear-day,2020-10-19 06:11:00,2020-10-19 17:36:00,0.11,0.0485,0.6823,2020-10-19 00:00:00,0.19,rain,33.23,2020-10-19 13:59:00,20.78,2020-10-20 05:32:00,36.19,2020-10-19 14:00:00,21.49,2020-10-20 05:32:00,21.51,0.75,1008.7,1.15,1.96,1603107720,13,0.25,7,1603087260,16.093,261.5,22.49,2020-10-19 05:29:00,33.23,2020-10-19 13:59:00,23.53,2020-10-19 05:27:00,36.19,2020-10-19 14:00:00,
Dadeldhura,Dadeldhura,29.301352,80.58775194,2020-10-19 00:00:00,Clear throughout the day.,clear-day,2020-10-19 06:28:00,2020-10-19 17:49:00,0.11,0.0015,0.0044,2020-10-19 17:45:00,0.03,rain,23.98,2020-10-19 12:58:00,12.34,2020-10-20 04:56:00,23.7,2020-10-19 12:58:00,12.61,2020-10-20 04:56:00,11.67,0.77,1010.3,1.1,1.99,1603061640,160,0.18,7,1603087440,16.093,258.9,12.25,2020-10-19 05:01:00,23.98,2020-10-19 12:58:00,12.52,2020-10-19 05:01:00,23.7,2020-10-19 12:58:00,
Dadeldhura,Dailekh,29.12785778,80.34740778,2020-10-19 00:00:00,Clear throughout the day.,clear-day,2020-10-19 06:29:00,2020-10-19 17:51:00,0.11,0.0018,0.0052,2020-10-19 17:38:00,0.03,rain,30.64,2020-10-19 13:23:00,18.33,2020-10-20 05:27:00,31.43,2020-10-19 13:14:00,18.6,2020-10-20 05:27:00,18.2,0.73,1009.6,1.49,2.61,1603060680,41,0.09,7,1603088280,16.093,260.7,18.06,2020-10-19 05:22:00,30.64,2020-10-19 13:23:00,18.51,2020-10-19 05:25:00,31.43,2020-10-19 13:14:00,
Dadeldhura,Sahukharka,29.288393100000004,80.37301500000001,2020-10-19 00:00:00,Clear throughout the day.,clear-day,2020-10-19 06:29:00,2020-10-19 17:50:00,0.11,0.0019,0.0057,2020-10-19 17:36:00,0.04,rain,25.02,2020-10-19 13:03:00,14.05,2020-10-20 05:18:00,24.74,2020-10-19 13:03:00,14.32,2020-10-20 05:18:00,14.08,0.8,1010.0,1.35,2.62,1603060920,42,0.17,7,1603088100,16.093,259.7,14.01,2020-10-19 05:17:00,25.02,2020-10-19 13:03:00,14.29,2020-10-19 05:21:00,24.74,2020-10-19 13:03:00,
Dailekh,Bale Budha (Tallo Dhungeshwor),28.83811111,81.70848333,2020-10-19 00:00:00,Clear throughout the day.,clear-day,2020-10-19 06:23:00,2020-10-19 17:45:00,0.11,0.0015,0.0051,2020-10-19 17:45:00,0.02,rain,27.32,2020-10-19 13:00:00,15.94,2020-10-20 05:38:00,27.04,2020-10-19 13:00:00,16.21,2020-10-20 05:38:00,12.71,0.63,1010.6,1.37,2.23,1603062780,122,0.13,7,1603087860,16.093,258.9,15.7,2020-10-19 05:26:00,27.32,2020-10-19 13:00:00,15.97,2020-10-19 05:26:00,27.04,2020-10-19 13:00:00,
Dailekh,Katti,28.92202778,81.62608333,2020-10-19 00:00:00,Clear throughout the day.,clear-day,2020-10-19 06:23:00,2020-10-19 17:46:00,0.11,0.0015,0.0051,2020-10-19 17:45:00,0.03,rain,27.0,2020-10-19 13:19:00,15.6,2020-10-20 05:36:00,26.72,2020-10-19 13:19:00,15.87,2020-10-20 05:36:00,11.7,0.59,1010.6,1.46,2.81,1603062600,97,0.08,8,1603087620,16.093,259.1,15.53,2020-10-19 05:26:00,27.0,2020-10-19 13:19:00,15.8,2020-10-19 05:26:00,26.72,2020-10-19 13:19:00,
Dailekh,Nayabasti (Dang),28.78022222,81.82144444,2020-10-19 00:00:00,Clear throughout the day.,clear-day,2020-10-19 06:22:00,2020-10-19 17:45:00,0.11,0.0016,0.0055,2020-10-19 17:44:00,0.02,rain,27.74,2020-10-19 12:59:00,16.63,2020-10-20 05:41:00,27.45,2020-10-19 12:57:00,16.9,2020-10-20 05:41:00,13.81,0.65,1010.8,1.27,1.99,1603095000,143,0.16,7,1603088100,16.093,258.7,16.26,2020-10-19 05:23:00,27.74,2020-10-19 12:59:00,16.53,2020-10-19 05:23:00,27.45,2020-10-19 12:57:00,
Dailekh,Ranimatta,28.90711111,81.75019167,2020-10-19 00:00:00,Clear throughout the day.,clear-day,2020-10-19 06:23:00,2020-10-19 17:45:00,0.11,0.0015,0.0051,2020-10-19 17:45:00,0.03,rain,24.78,2020-10-19 13:07:00,14.52,2020-10-20 05:30:00,24.5,2020-10-19 13:07:00,14.79,2020-10-20 05:30:00,11.15,0.64,1010.8,1.47,2.55,1603062660,124,0.13,8,1603087620,16.093,258.1,14.13,2020-10-19 05:11:00,24.78,2020-10-19 13:07:00,14.4,2020-10-19 05:11:00,24.5,2020-10-19 13:07:00,
Dang,Ghorahi (Masina),28.13174722,82.30278333,2020-10-19 00:00:00,Clear throughout the day.,clear-day,2020-10-19 06:20:00,2020-10-19 17:44:00,0.11,0.0017,0.0051,2020-10-19 17:45:00,0.02,rain,28.92,2020-10-19 13:46:00,17.51,2020-10-20 05:31:00,28.64,2020-10-19 13:46:00,17.78,2020-10-20 05:31:00,13.59,0.6,1009.5,1.58,2.28,1603094040,74,0.1,8,1603087680,16.093,261.1,17.5,2020-10-19 05:26:00,28.92,2020-10-19 13:46:00,17.81,2020-10-19 05:26:00,28.64,2020-10-19 13:46:00,
Dang,Ghorai (Dang),27.69233306,82.52512694,2020-10-19 00:00:00,Clear throughout the day.,clear-day,2020-10-19 06:19:00,2020-10-19 17:43:00,0.11,0.0015,0.0051,2020-10-19 17:45:00,0.02,rain,32.47,2020-10-19 13:44:00,18.78,2020-10-20 04:56:00,32.19,2020-10-19 13:44:00,19.05,2020-10-20 04:56:00,13.96,0.54,1007.6,1.72,3.67,1603097820,351,0.14,8,1603087620,16.093,263.2,18.86,2020-10-19 05:01:00,32.47,2020-10-19 13:44:00,19.21,2020-10-19 05:03:00,32.19,2020-10-19 13:44:00,
Dang,Koilabas,28.05,82.5,2020-10-19 00:00:00,Clear throughout the day.,clear-day,2020-10-19 06:19:00,2020-10-19 17:43:00,0.11,0.0018,0.0051,2020-10-19 17:45:00,0.02,rain,30.03,2020-10-19 13:41:00,18.81,2020-10-20 05:30:00,29.75,2020-10-19 13:41:00,19.08,2020-10-20 05:30:00,13.37,0.56,1009.2,1.58,2.29,1603093260,35,0.1,8,1603087800,16.093,261.1,18.62,2020-10-19 05:32:00,30.03,2020-10-19 13:41:00,18.95,2020-10-19 05:33:00,29.75,2020-10-19 13:41:00,
Dang,Lalmatiya,27.87055556,82.53666667,2020-10-19 00:00:00,Clear throughout the day.,clear-day,2020-10-19 06:19:00,2020-10-19 17:43:00,0.11,0.0015,0.0051,2020-10-19 17:45:00,0.02,rain,32.91,2020-10-19 13:57:00,18.91,2020-10-20 05:12:00,32.63,2020-10-19 13:57:00,19.18,2020-10-20 05:12:00,15.29,0.58,1008.2,1.64,2.89,1603096800,4,0.11,8,1603087800,16.093,262.3,18.95,2020-10-19 05:18:00,32.91,2020-10-19 13:57:00,19.39,2020-10-19 05:20:00,32.63,2020-10-19 13:57:00,
Dang,Lamahi,27.88486889,82.33509611,2020-10-19 00:00:00,Clear throughout the day.,clear-day,2020-10-19 06:20:00,2020-10-19 17:44:00,0.11,0.0015,0.0051,2020-10-19 17:45:00,0.02,rain,33.27,2020-10-19 14:01:00,18.83,2020-10-20 05:06:00,32.99,2020-10-19 14:01:00,19.1,2020-10-20 05:06:00,15.4,0.59,1008.0,1.71,2.84,1603097100,19,0.1,8,1603087740,16.093,262.8,18.52,2020-10-19 05:11:00,33.27,2020-10-19 14:01:00,19.03,2020-10-19 05:12:00,32.99,2020-10-19 14:01:00,
Dang,Padhampur,28.03719889,82.484156,2020-10-19 00:00:00,Clear throughout the day.,clear-day,2020-10-19 06:19:00,2020-10-19 17:43:00,0.11,0.0017,0.0051,2020-10-19 17:45:00,0.02,rain,30.07,2020-10-19 13:42:00,18.94,2020-10-20 05:31:00,29.79,2020-10-19 13:42:00,19.21,2020-10-20 05:31:00,13.3,0.56,1009.0,1.6,2.3,1603093740,33,0.09,8,1603087800,16.093,261.3,18.66,2020-10-19 05:32:00,30.07,2020-10-19 13:42:00,18.97,2020-10-19 05:32:00,29.79,2020-10-19 13:42:00,
Dang,Tulsipur,28.201323,82.1393939,2020-10-19 00:00:00,Clear throughout the day.,clear-day,2020-10-19 06:21:00,2020-10-19 17:44:00,0.11,0.0015,0.0051,2020-10-19 17:45:00,0.02,rain,28.88,2020-10-19 13:35:00,17.85,2020-10-20 05:36:00,28.6,2020-10-19 13:35:00,18.12,2020-10-20 05:36:00,13.36,0.59,1009.2,1.51,2.14,1603091700,87,0.06,8,1603087740,16.093,261.1,17.63,2020-10-19 05:26:00,28.88,2020-10-19 13:35:00,17.9,2020-10-19 05:26:00,28.6,2020-10-19 13:35:00,
Darchula,Darchula New,29.666666999999997,80.55,2020-10-19 00:15:00,Clear throughout the day.,clear-day,2020-10-19 06:28:00,2020-10-19 17:49:00,0.11,0.0015,0.0041,2020-10-19 23:45:00,0.01,rain,30.13,2020-10-19 14:19:00,15.72,2020-10-20 05:19:00,29.85,2020-10-19 14:19:00,15.99,2020-10-20 05:19:00,9.29,0.49,1011.2,1.18,2.15,1603061640,204,0.11,7,1603088220,16.093,258.6,14.98,2020-10-19 05:01:00,30.13,2020-10-19 14:19:00,15.25,2020-10-19 05:01:00,29.85,2020-10-19 14:19:00,
Darchula,Dhaulatiya (Dallekhdhar),29.78255194,80.82215806,2020-10-19 00:00:00,Clear throughout the day.,clear-day,2020-10-19 06:27:00,2020-10-19 17:48:00,0.11,0.0015,0.0051,2020-10-19 17:45:00,0.01,rain,21.25,2020-10-19 13:42:00,10.8,2020-10-20 05:54:00,20.97,2020-10-19 13:42:00,11.07,2020-10-20 05:54:00,-0.46,0.38,1013.1,1.58,2.86,1603121640,196,0.12,8,1603088520,16.093,255.3,10.72,2020-10-19 05:30:00,21.25,2020-10-19 13:42:00,10.99,2020-10-19 05:30:00,20.97,2020-10-19 13:42:00,
Darchula,Gokuleshwar,29.84287806,80.53884806,2020-10-19 00:15:00,Clear throughout the day.,clear-day,2020-10-19 06:29:00,2020-10-19 17:49:00,0.11,0.0018,0.0109,2020-10-19 17:45:00,0.01,rain,26.81,2020-10-19 14:04:00,14.71,2020-10-20 05:31:00,26.53,2020-10-19 14:04:00,14.98,2020-10-20 05:31:00,3.11,0.36,1011.8,1.34,2.5,1603123440,326,0.09,8,1603088580,16.093,256.7,13.82,2020-10-19 05:02:00,26.81,2020-10-19 14:04:00,14.09,2020-10-19 05:02:00,26.53,2020-10-19 14:04:00,
Darchula,Lumpthi,29.84496194,80.54539389,2020-10-19 00:15:00,Clear throughout the day.,clear-day,2020-10-19 06:29:00,2020-10-19 17:49:00,0.11,0.0018,0.0108,2020-10-19 17:45:00,0.01,rain,26.61,2020-10-19 14:01:00,14.58,2020-10-20 05:33:00,26.33,2020-10-19 14:01:00,14.85,2020-10-20 05:33:00,2.96,0.36,1011.9,1.35,2.52,1603123380,342,0.09,8,1603088580,16.093,256.6,13.72,2020-10-19 05:03:00,26.61,2020-10-19 14:01:00,13.99,2020-10-19 05:03:00,26.33,2020-10-19 14:01:00,
Dhading,Dhading,28.05,84.82,2020-10-19 00:00:00,Partly cloudy throughout the day.,partly-cloudy-day,2020-10-19 06:10:00,2020-10-19 17:34:00,0.11,0.1144,0.3982,2020-10-19 00:34:00,0.34,rain,27.43,2020-10-19 14:21:00,17.6,2020-10-20 05:37:00,28.87,2020-10-19 14:29:00,17.87,2020-10-20 05:37:00,19.02,0.83,1011.0,0.92,2.1,1603131300,94,0.41,7,1603087440,16.093,259.2,18.68,2020-10-19 05:38:00,27.43,2020-10-19 14:21:00,19.3,2020-10-19 05:37:00,28.87,2020-10-19 14:29:00,
Dhading,Dhunibesi,27.912505600000003,84.8961333,2020-10-19 00:00:00,Humid and partly cloudy throughout the day.,rain,2020-10-19 06:09:00,2020-10-19 17:33:00,0.11,0.1328,0.4658,2020-10-19 00:00:00,0.39,rain,28.13,2020-10-19 14:23:00,18.1,2020-10-20 05:41:00,30.02,2020-10-19 14:35:00,18.46,2020-10-20 05:41:00,20.61,0.86,1010.6,0.87,1.8,1603131300,97,0.41,7,1603087140,16.093,259.6,19.43,2020-10-19 05:39:00,28.13,2020-10-19 14:23:00,20.26,2020-10-19 05:39:00,30.02,2020-10-19 14:35:00,
Dhading,Gajuri,27.8053359,84.7055012,2020-10-19 00:00:00,Humid and partly cloudy throughout the day.,partly-cloudy-day,2020-10-19 06:10:00,2020-10-19 17:34:00,0.11,0.0739,0.497,2020-10-19 00:00:00,0.32,rain,30.45,2020-10-19 13:08:00,18.64,2020-10-20 05:34:00,32.74,2020-10-19 13:12:00,19.2,2020-10-20 05:34:00,21.16,0.82,1009.9,0.97,1.77,1603131300,46,0.37,7,1603086960,16.093,260.3,20.23,2020-10-19 05:32:00,30.45,2020-10-19 13:08:00,21.19,2020-10-19 05:31:00,32.74,2020-10-19 13:12:00,
Dhading,Majhimtar,27.72311667,85.1642,2020-10-19 00:00:00,Humid and partly cloudy throughout the day.,partly-cloudy-day,2020-10-19 06:08:00,2020-10-19 17:33:00,0.11,0.1224,0.413,2020-10-19 01:28:00,0.35,rain,27.59,2020-10-19 12:51:00,17.07,2020-10-20 05:39:00,29.06,2020-10-19 12:56:00,17.53,2020-10-20 05:40:00,20.16,0.91,1010.5,0.84,1.98,1603097460,78,0.4,7,1603086960,16.093,258.8,17.81,2020-10-19 05:38:00,27.59,2020-10-19 12:51:00,18.54,2020-10-19 05:33:00,29.06,2020-10-19 12:56:00,
Dhading,Pakhribas,27.802707399999996,84.8797782,2020-10-19 00:00:00,Humid and partly cloudy throughout the day.,partly-cloudy-day,2020-10-19 06:09:00,2020-10-19 17:34:00,0.11,0.0995,0.4199,2020-10-19 00:00:00,0.37,rain,29.91,2020-10-19 13:02:00,18.54,2020-10-20 05:35:00,32.81,2020-10-19 14:29:00,19.1,2020-10-20 05:36:00,21.66,0.88,1010.2,0.89,1.63,1603131300,61,0.39,7,1603086900,16.093,259.5,19.59,2020-10-19 05:36:00,29.91,2020-10-19 13:02:00,20.56,2020-10-19 05:35:00,32.81,2020-10-19 14:29:00,
Dhankuta,Barahkshetra,26.91424278,87.15986,2020-10-19 00:00:00,Humid throughout the day.,clear-day,2020-10-19 05:59:00,2020-10-19 17:25:00,0.11,0.0288,0.0723,2020-10-19 17:56:00,0.14,rain,31.59,2020-10-19 13:26:00,21.24,2020-10-20 05:36:00,34.18,2020-10-19 13:58:00,22.03,2020-10-20 05:35:00,21.53,0.77,1009.0,1.3,2.33,1603131300,8,0.28,7,1603086840,16.093,258.3,21.66,2020-10-19 05:20:00,31.59,2020-10-19 13:26:00,22.49,2020-10-19 05:20:00,34.18,2020-10-19 13:58:00,
Dhankuta,Dhankuta,26.93805556,87.15472222,2020-10-19 00:00:00,Humid throughout the day.,clear-day,2020-10-19 05:59:00,2020-10-19 17:25:00,0.11,0.031,0.0831,2020-10-19 17:57:00,0.14,rain,31.34,2020-10-19 13:21:00,20.85,2020-10-20 05:39:00,33.93,2020-10-19 14:21:00,21.61,2020-10-20 05:38:00,21.38,0.78,1009.2,1.28,2.32,1603131300,4,0.29,7,1603086900,16.093,258.1,21.28,2020-10-19 05:24:00,31.34,2020-10-19 13:21:00,22.07,2020-10-19 05:24:00,33.93,2020-10-19 14:21:00,
Dhankuta,Dhankuta,27.0500025,87.24444444,2020-10-19 00:00:00,Partly cloudy throughout the day.,partly-cloudy-day,2020-10-19 05:59:00,2020-10-19 17:25:00,0.11,0.0487,0.1664,2020-10-19 20:43:00,0.17,rain,24.66,2020-10-19 13:00:00,15.16,2020-10-20 05:10:00,24.38,2020-10-19 13:00:00,15.54,2020-10-20 05:03:00,16.05,0.85,1009.8,1.19,2.39,1603064160,311,0.38,7,1603085820,16.093,257.9,15.86,2020-10-19 05:03:00,24.66,2020-10-19 13:00:00,16.3,2020-10-19 05:01:00,24.38,2020-10-19 13:00:00,
Dhankuta,Leguwa Ghat,27.04633889,87.2925,2020-10-19 00:00:00,Partly cloudy throughout the day.,partly-cloudy-day,2020-10-19 05:59:00,2020-10-19 17:25:00,0.11,0.0499,0.1634,2020-10-19 20:44:00,0.17,rain,24.52,2020-10-19 13:05:00,14.22,2020-10-20 05:41:00,24.24,2020-10-19 13:06:00,14.69,2020-10-20 05:40:00,16.24,0.88,1009.9,1.17,2.35,1603064280,301,0.38,8,1603086060,16.093,257.7,14.96,2020-10-19 05:28:00,24.52,2020-10-19 13:05:00,15.48,2020-10-19 05:27:00,24.24,2020-10-19 13:06:00,
Dhankuta,Muga,27.15338889,87.28919444,2020-10-19 00:00:00,Partly cloudy throughout the day.,partly-cloudy-day,2020-10-19 05:59:00,2020-10-19 17:25:00,0.11,0.0805,0.3121,2020-10-19 21:05:00,0.21,rain,29.73,2020-10-19 13:38:00,18.11,2020-10-20 05:39:00,30.76,2020-10-19 14:13:00,18.71,2020-10-20 05:38:00,19.41,0.79,1010.0,0.94,2.3,1603097220,241,0.42,7,1603084980,16.093,257.8,18.8,2020-10-19 05:30:00,29.73,2020-10-19 13:38:00,19.43,2020-10-19 05:31:00,30.76,2020-10-19 14:13:00,
Dhankuta,Mul Ghat,26.98321944,87.34595556,2020-10-19 00:00:00,Partly cloudy throughout the day.,partly-cloudy-day,2020-10-19 05:59:00,2020-10-19 17:25:00,0.11,0.0326,0.1129,2020-10-19 20:39:00,0.13,rain,25.53,2020-10-19 13:22:00,16.14,2020-10-20 04:54:00,25.28,2020-10-19 13:25:00,16.58,2020-10-20 04:51:00,16.7,0.84,1009.7,1.24,2.46,1603063980,350,0.35,8,1603086600,16.093,257.5,16.6,2020-10-19 05:01:00,25.53,2020-10-19 13:22:00,17.13,2020-10-19 04:59:00,25.28,2020-10-19 13:25:00,
Dhankuta,Mul Ghat,26.98321944,87.34595556,2020-10-19 00:00:00,Partly cloudy throughout the day.,partly-cloudy-day,2020-10-19 05:59:00,2020-10-19 17:25:00,0.11,0.0326,0.1129,2020-10-19 20:39:00,0.13,rain,25.53,2020-10-19 13:22:00,16.14,2020-10-20 04:54:00,25.28,2020-10-19 13:25:00,16.58,2020-10-20 04:51:00,16.7,0.84,1009.7,1.24,2.46,1603063980,350,0.35,8,1603086600,16.093,257.5,16.6,2020-10-19 05:01:00,25.53,2020-10-19 13:22:00,17.13,2020-10-19 04:59:00,25.28,2020-10-19 13:25:00,
Dhanusa,Chisapani Bazar,27.01295556,85.92089722,2020-10-19 00:00:00,Clear throughout the day.,clear-day,2020-10-19 06:04:00,2020-10-19 17:30:00,0.11,0.0113,0.0474,2020-10-19 20:57:00,0.06,rain,32.3,2020-10-19 13:49:00,22.22,2020-10-20 05:35:00,34.27,2020-10-19 13:39:00,23.0,2020-10-20 05:33:00,20.41,0.7,1008.0,1.69,2.47,1603089720,85,0.17,8,1603087320,16.093,261.5,21.99,2020-10-19 05:09:00,32.3,2020-10-19 13:49:00,22.77,2020-10-19 05:06:00,34.27,2020-10-19 13:39:00,
Dhanusa,Janakpur Airport,26.8,85.9833333,2020-10-19 00:00:00,Humid throughout the day.,clear-day,2020-10-19 06:04:00,2020-10-19 17:30:00,0.11,0.0076,0.0407,2020-10-19 20:42:00,0.04,rain,32.79,2020-10-19 14:39:00,22.34,2020-10-20 05:39:00,35.41,2020-10-19 13:57:00,23.25,2020-10-20 05:39:00,21.38,0.71,1007.5,1.8,2.67,1603087980,116,0.26,7,1603086720,16.093,261.7,22.76,2020-10-19 03:58:00,32.79,2020-10-19 14:39:00,23.76,2020-10-19 03:59:00,35.41,2020-10-19 13:57:00,
Dhanusa,Tulsi,26.71666667,85.96666667,2020-10-19 00:00:00,Humid throughout the day.,clear-day,2020-10-19 06:04:00,2020-10-19 17:30:00,0.11,0.0065,0.0399,2020-10-19 20:39:00,0.04,rain,32.8,2020-10-19 15:02:00,22.26,2020-10-20 05:38:00,35.31,2020-10-19 13:39:00,23.15,2020-10-20 05:38:00,21.31,0.71,1007.4,1.84,2.69,1603087320,118,0.29,7,1603086360,16.093,261.7,22.77,2020-10-19 03:53:00,32.8,2020-10-19 15:02:00,23.77,2020-10-19 03:53:00,35.31,2020-10-19 13:39:00,
Dolakha,Charikot,27.67633111,86.10399389,2020-10-19 00:00:00,Partly cloudy throughout the day.,rain,2020-10-19 06:04:00,2020-10-19 17:29:00,0.11,0.2132,0.6341,2020-10-19 01:59:00,0.48,rain,23.59,2020-10-19 14:02:00,15.41,2020-10-20 05:33:00,23.75,2020-10-19 14:11:00,15.68,2020-10-20 05:33:00,17.6,0.93,1011.5,0.96,2.17,1603064160,231,0.57,7,1603086660,16.093,257.3,15.82,2020-10-19 05:12:00,23.59,2020-10-19 14:02:00,16.34,2020-10-19 05:12:00,23.75,2020-10-19 14:11:00,
Dolakha,Dunai,27.63333333,86.13333333,2020-10-19 00:00:00,Partly cloudy throughout the day.,rain,2020-10-19 06:04:00,2020-10-19 17:29:00,0.11,0.2004,0.5465,2020-10-19 01:54:00,0.47,rain,23.0,2020-10-19 13:42:00,13.74,2020-10-20 05:34:00,23.19,2020-10-19 13:45:00,14.01,2020-10-20 05:34:00,17.46,0.97,1011.4,0.98,2.27,1603064160,229,0.56,7,1603086660,16.093,257.4,14.38,2020-10-19 05:24:00,23.0,2020-10-19 13:42:00,14.87,2020-10-19 05:24:00,23.19,2020-10-19 13:45:00,
Dolakha,Jiri,27.6666667,86.05,2020-10-19 00:00:00,Partly cloudy throughout the day.,rain,2020-10-19 06:05:00,2020-10-19 17:29:00,0.11,0.2035,0.6603,2020-10-19 01:52:00,0.47,rain,20.77,2020-10-19 13:43:00,12.23,2020-10-20 05:21:00,20.87,2020-10-19 13:45:00,12.5,2020-10-20 05:21:00,15.32,0.98,1011.5,0.92,2.08,1603063800,248,0.56,7,1603086540,16.093,257.6,12.52,2020-10-19 05:04:00,20.77,2020-10-19 13:43:00,13.14,2020-10-19 05:02:00,20.87,2020-10-19 13:45:00,
Dolakha,Nagdaha,27.616666700000003,86.35,2020-10-19 00:00:00,Partly cloudy throughout the day.,rain,2020-10-19 06:03:00,2020-10-19 17:28:00,0.11,0.1756,0.3823,2020-10-19 02:52:00,0.52,rain,14.8,2020-10-19 13:30:00,8.21,2020-10-20 04:26:00,15.44,2020-10-19 13:33:00,7.98,2020-10-20 05:11:00,10.86,1.0,1012.1,1.05,2.45,1603093260,234,0.56,7,1603086660,16.002,255.6,8.58,2020-10-19 05:05:00,14.8,2020-10-19 13:30:00,8.92,2020-10-20 00:00:00,15.44,2020-10-19 13:33:00,
Dolpa,Kaigaun,29.03154722,82.76287778,2020-10-19 00:00:00,Clear throughout the day.,clear-day,2020-10-19 06:19:00,2020-10-19 17:41:00,0.11,0.0015,0.0051,2020-10-19 17:45:00,0.07,rain,16.83,2020-10-19 12:43:00,5.07,2020-10-20 05:44:00,16.55,2020-10-19 12:43:00,5.34,2020-10-20 05:44:00,5.54,0.81,1014.3,1.19,3.3,1603096440,19,0.16,9,1603087980,16.093,252.1,4.68,2020-10-19 05:25:00,16.83,2020-10-19 12:43:00,4.95,2020-10-19 05:25:00,16.55,2020-10-19 12:43:00,
Dolpa,Silgadhi Doti,28.98363333,82.82074444,2020-10-19 00:00:00,Clear throughout the day.,clear-day,2020-10-19 06:19:00,2020-10-19 17:41:00,0.11,0.0017,0.0061,2020-10-19 17:45:00,0.07,rain,16.68,2020-10-19 12:44:00,5.05,2020-10-20 05:44:00,16.4,2020-10-19 12:44:00,5.32,2020-10-20 05:44:00,5.66,0.82,1014.2,1.21,3.17,1603096200,38,0.13,9,1603087860,16.093,252.2,4.69,2020-10-19 05:23:00,16.68,2020-10-19 12:44:00,4.96,2020-10-19 05:23:00,16.4,2020-10-19 12:44:00,
Doti,Dipayal (Doti),29.12015194,80.70944778,2020-10-19 00:00:00,Clear throughout the day.,clear-day,2020-10-19 06:27:00,2020-10-19 17:49:00,0.11,0.0015,0.0051,2020-10-19 17:45:00,0.03,rain,26.1,2020-10-19 13:07:00,14.45,2020-10-20 05:32:00,25.82,2020-10-19 13:07:00,14.72,2020-10-20 05:32:00,13.16,0.72,1010.2,1.04,1.72,1603096980,176,0.15,8,1603087440,16.093,258.9,14.08,2020-10-19 05:22:00,26.1,2020-10-19 13:07:00,14.35,2020-10-19 05:22:00,25.82,2020-10-19 13:07:00,
Doti,Dumrakot,29.16385278,80.600738,2020-10-19 00:00:00,Clear throughout the day.,clear-day,2020-10-19 06:28:00,2020-10-19 17:50:00,0.11,0.0015,0.0051,2020-10-19 17:45:00,0.03,rain,24.02,2020-10-19 13:01:00,13.13,2020-10-20 04:55:00,23.74,2020-10-19 13:01:00,13.4,2020-10-20 04:55:00,11.97,0.75,1009.8,1.17,2.04,1603061640,99,0.15,8,1603087560,16.093,259.2,12.88,2020-10-19 04:56:00,24.02,2020-10-19 13:01:00,13.15,2020-10-19 04:56:00,23.74,2020-10-19 13:01:00,
Doti,Gaira,29.34106083,81.045105,2020-10-19 00:00:00,Clear throughout the day.,clear-day,2020-10-19 06:26:00,2020-10-19 17:48:00,0.11,0.0068,0.0543,2020-10-19 17:46:00,0.03,rain,23.31,2020-10-19 13:37:00,11.34,2020-10-19 23:16:00,23.03,2020-10-19 13:37:00,11.61,2020-10-19 23:16:00,5.11,0.54,1010.8,1.14,2.52,1603063380,45,0.16,8,1603087860,16.093,258.4,10.87,2020-10-19 04:53:00,23.31,2020-10-19 13:37:00,11.14,2020-10-19 04:53:00,23.03,2020-10-19 13:37:00,
Doti,Jhingrana,29.26209694,80.93690083,2020-10-19 00:00:00,Clear throughout the day.,clear-day,2020-10-19 06:26:00,2020-10-19 17:48:00,0.11,0.0064,0.0722,2020-10-19 17:46:00,0.05,rain,29.77,2020-10-19 13:36:00,15.61,2020-10-20 05:32:00,29.49,2020-10-19 13:36:00,15.88,2020-10-20 05:32:00,12.42,0.61,1011.0,0.96,2.04,1603064400,308,0.16,8,1603087500,16.093,258.7,14.97,2020-10-19 05:08:00,29.77,2020-10-19 13:36:00,15.24,2020-10-19 05:08:00,29.49,2020-10-19 13:36:00,
Doti,Khaptad,29.0,81.13333333,2020-10-19 00:00:00,Clear throughout the day.,clear-day,2020-10-19 06:25:00,2020-10-19 17:48:00,0.11,0.0015,0.0051,2020-10-19 17:45:00,0.03,rain,27.06,2020-10-19 13:30:00,16.04,2020-10-20 05:11:00,26.78,2020-10-19 13:30:00,16.31,2020-10-20 05:11:00,12.3,0.62,1009.8,1.21,2.23,1603062840,2,0.07,8,1603087680,16.093,260.0,15.61,2020-10-19 05:05:00,27.06,2020-10-19 13:30:00,15.88,2020-10-19 05:05:00,26.78,2020-10-19 13:30:00,
Doti,Kola Gaun,29.38804889,81.14630111,2020-10-19 00:00:00,Clear throughout the day.,clear-day,2020-10-19 06:26:00,2020-10-19 17:47:00,0.11,0.0057,0.0431,2020-10-19 19:44:00,0.02,rain,22.15,2020-10-19 13:28:00,9.73,2020-10-20 05:31:00,21.87,2020-10-19 13:28:00,10.0,2020-10-20 05:31:00,4.09,0.56,1011.2,1.26,2.8,1603062780,45,0.17,9,1603088220,16.093,258.0,9.3,2020-10-19 05:14:00,22.15,2020-10-19 13:28:00,8.92,2020-10-19 05:12:00,21.87,2020-10-19 13:28:00,
Gorkha,Barpak,28.2,84.73333333,2020-10-18 21:45:00,Partly cloudy throughout the day.,partly-cloudy-day,2020-10-19 06:10:00,2020-10-19 17:34:00,0.11,0.0796,0.1734,2020-10-19 15:03:00,0.26,rain,22.28,2020-10-19 12:14:00,15.49,2020-10-20 05:03:00,22.08,2020-10-19 12:18:00,15.76,2020-10-20 05:03:00,15.01,0.82,1011.8,1.09,2.59,1603087680,11,0.39,7,1603087200,14.115,256.7,15.61,2020-10-19 05:45:00,22.28,2020-10-19 12:14:00,15.88,2020-10-19 05:45:00,22.08,2020-10-19 12:18:00,
Gorkha,Chhekampar,27.97138889,84.58944444,2020-10-19 00:00:00,Clear throughout the day.,clear-day,2020-10-19 06:11:00,2020-10-19 17:35:00,0.11,0.1096,0.5343,2020-10-19 00:00:00,0.36,rain,29.01,2020-10-19 14:30:00,17.53,2020-10-20 05:44:00,30.44,2020-10-19 14:34:00,17.8,2020-10-20 05:51:00,19.82,0.81,1010.1,0.84,1.7,1603131300,101,0.33,7,1603087380,16.093,261.0,19.72,2020-10-19 05:54:00,29.01,2020-10-19 14:30:00,20.54,2020-10-19 05:45:00,30.44,2020-10-19 14:34:00,
Gorkha,Chumchet,28.48333333,85.0,2020-10-18 21:45:00,Foggy until evening.,rain,2020-10-19 06:09:00,2020-10-19 17:33:00,0.11,0.0431,0.1199,2020-10-19 14:39:00,0.38,rain,8.68,2020-10-19 12:55:00,3.05,2020-10-20 02:05:00,7.67,2020-10-19 13:04:00,3.32,2020-10-20 02:05:00,5.24,1.0,1014.9,0.97,2.97,1603089240,120,0.58,8,1603087680,8.952,251.3,2.93,2020-10-19 04:44:00,8.68,2020-10-19 12:55:00,3.2,2020-10-19 04:44:00,7.67,2020-10-19 13:04:00,
Gorkha,Gorkha,28.66666667,84.61666667,2020-10-18 21:45:00,Foggy in the morning.,fog,2020-10-19 06:11:00,2020-10-19 17:34:00,0.11,0.0187,0.0496,2020-10-19 14:46:00,0.26,rain,2.81,2020-10-19 13:20:00,-4.91,2020-10-20 04:47:00,0.82,2020-10-19 16:45:00,-4.64,2020-10-20 04:47:00,-0.61,1.0,1015.7,1.22,2.91,1603090860,221,0.44,9,1603087020,11.4,248.8,-3.5,2020-10-19 04:56:00,2.81,2020-10-19 13:20:00,-3.23,2020-10-19 04:56:00,0.82,2020-10-19 16:49:00,
Gorkha,Laprak,28.2,84.75,2020-10-18 21:45:00,Partly cloudy throughout the day.,partly-cloudy-day,2020-10-19 06:10:00,2020-10-19 17:34:00,0.11,0.0774,0.175,2020-10-19 15:00:00,0.26,rain,20.84,2020-10-19 12:02:00,13.48,2020-10-20 05:11:00,20.72,2020-10-19 12:06:00,13.75,2020-10-20 05:11:00,15.14,0.92,1011.8,1.08,2.63,1603087680,8,0.39,7,1603087200,13.995,256.6,13.61,2020-10-19 05:45:00,20.84,2020-10-19 12:02:00,13.88,2020-10-19 05:45:00,20.72,2020-10-19 12:06:00,
Gorkha,Sama Gaun,28.42693611,84.90264444,2020-10-18 21:45:00,Foggy in the afternoon and evening.,fog,2020-10-19 06:10:00,2020-10-19 17:33:00,0.11,0.0491,0.1362,2020-10-19 14:44:00,0.34,rain,11.93,2020-10-19 12:12:00,5.51,2020-10-20 05:45:00,11.65,2020-10-19 12:12:00,5.78,2020-10-20 05:45:00,7.83,0.99,1014.4,0.96,2.8,1603088400,80,0.52,7,1603087020,10.311,252.0,5.57,2020-10-19 04:52:00,11.93,2020-10-19 12:12:00,5.84,2020-10-19 04:52:00,11.65,2020-10-19 12:12:00,
Gulmi,Darma,27.9365,83.33811667,2020-10-19 00:00:00,Partly cloudy throughout the day.,partly-cloudy-day,2020-10-19 06:16:00,2020-10-19 17:40:00,0.11,0.0252,0.1076,2020-10-19 00:00:00,0.09,rain,27.75,2020-10-19 13:48:00,16.16,2020-10-20 05:38:00,27.47,2020-10-19 13:48:00,16.43,2020-10-20 05:38:00,12.84,0.59,1009.8,1.17,1.88,1603097340,38,0.44,7,1603088400,16.093,260.1,17.33,2020-10-19 05:34:00,27.75,2020-10-19 13:48:00,17.6,2020-10-19 05:34:00,27.47,2020-10-19 13:48:00,
Gulmi,Musikot,27.93856667,83.44315278,2020-10-19 00:00:00,Partly cloudy throughout the day.,partly-cloudy-day,2020-10-19 06:15:00,2020-10-19 17:39:00,0.11,0.0402,0.1786,2020-10-19 00:00:00,0.14,rain,30.1,2020-10-19 14:08:00,17.71,2020-10-20 05:31:00,29.96,2020-10-19 14:19:00,17.98,2020-10-20 05:31:00,15.58,0.62,1009.8,1.1,1.71,1603097220,36,0.44,7,1603088280,16.093,260.0,18.67,2020-10-19 05:27:00,30.1,2020-10-19 14:08:00,18.95,2020-10-19 05:31:00,29.96,2020-10-19 14:19:00,
Gulmi,Tamghas,28.16998056,83.26802778,2020-10-19 00:00:00,Partly cloudy throughout the day.,partly-cloudy-day,2020-10-19 06:16:00,2020-10-19 17:40:00,0.11,0.0497,0.1059,2020-10-19 14:57:00,0.16,rain,25.0,2020-10-19 13:42:00,13.37,2020-10-20 05:40:00,24.72,2020-10-19 13:42:00,13.64,2020-10-20 05:40:00,11.26,0.64,1011.1,1.22,1.87,1603131300,17,0.55,6,1603086060,16.093,258.1,14.35,2020-10-19 05:35:00,25.0,2020-10-19 13:42:00,14.62,2020-10-19 05:35:00,24.72,2020-10-19 13:42:00,
Humla,Simikot,29.73056889,82.07185,2020-10-19 00:00:00,Clear throughout the day.,clear-day,2020-10-19 06:22:00,2020-10-19 17:43:00,0.11,0.0016,0.0051,2020-10-19 17:45:00,0.03,rain,21.33,2020-10-19 13:50:00,7.72,2020-10-20 05:43:00,21.05,2020-10-19 13:50:00,7.99,2020-10-20 05:43:00,-0.28,0.44,1014.0,1.01,3.88,1603096920,154,0.08,8,1603088160,16.093,254.6,7.39,2020-10-19 05:21:00,21.33,2020-10-19 13:50:00,7.66,2020-10-19 05:21:00,21.05,2020-10-19 13:50:00,
Humla,Simikot Airport,29.77827806,81.95264499999999,2020-10-19 00:00:00,Clear throughout the day.,clear-day,2020-10-19 06:23:00,2020-10-19 17:44:00,0.11,0.0017,0.0052,2020-10-19 18:05:00,0.02,rain,22.38,2020-10-19 13:53:00,8.25,2020-10-20 05:59:00,22.1,2020-10-19 13:53:00,8.52,2020-10-20 05:59:00,-1.64,0.38,1013.9,0.97,3.37,1603097220,176,0.13,8,1603087800,16.093,254.8,7.72,2020-10-19 05:22:00,22.38,2020-10-19 13:53:00,7.99,2020-10-19 05:22:00,22.1,2020-10-19 13:53:00,
Humla,Thali,29.91966194,81.87920194,2020-10-19 00:00:00,Clear throughout the day.,clear-day,2020-10-19 06:23:00,2020-10-19 17:44:00,0.11,0.0016,0.0052,2020-10-19 18:02:00,0.02,rain,15.67,2020-10-19 13:46:00,3.43,2020-10-20 05:53:00,15.39,2020-10-19 13:46:00,3.7,2020-10-20 05:53:00,-3.68,0.47,1015.3,1.11,3.61,1603095720,119,0.15,8,1603087800,16.093,252.3,3.51,2020-10-19 05:23:00,15.67,2020-10-19 13:46:00,3.78,2020-10-19 05:23:00,15.39,2020-10-19 13:46:00,
Ilam,Himali Gaun,26.90963889,87.92308333,2020-10-19 00:00:00,Humid and partly cloudy throughout the day.,partly-cloudy-day,2020-10-19 05:56:00,2020-10-19 17:22:00,0.11,0.1252,0.3807,2020-10-19 14:47:00,0.33,rain,26.58,2020-10-19 12:08:00,17.43,2020-10-20 05:42:00,27.56,2020-10-19 12:42:00,18.01,2020-10-20 05:41:00,19.9,0.93,1010.0,1.1,2.19,1603096560,82,0.4,7,1603086600,16.093,256.6,17.82,2020-10-19 05:31:00,26.58,2020-10-19 12:08:00,18.64,2020-10-19 05:30:00,27.56,2020-10-19 12:42:00,
Ilam,Ilam Tea Estate,27.06666667,88.0,2020-10-19 00:00:00,Partly cloudy throughout the day.,rain,2020-10-19 05:56:00,2020-10-19 17:22:00,0.11,0.2167,0.6441,2020-10-19 14:48:00,0.53,rain,19.0,2020-10-19 11:43:00,11.16,2020-10-20 06:19:00,19.29,2020-10-19 11:45:00,12.09,2020-10-20 06:10:00,13.79,1.0,1011.3,0.78,2.08,1603096920,159,0.53,7,1603086480,16.093,254.4,11.19,2020-10-19 05:14:00,19.0,2020-10-19 11:43:00,12.39,2020-10-19 05:11:00,19.29,2020-10-19 11:45:00,
Ilam,Kanyam Tea Estate,26.8,87.9,2020-10-19 00:00:00,Humid throughout the day.,clear-day,2020-10-19 05:56:00,2020-10-19 17:22:00,0.11,0.0653,0.1833,2020-10-19 14:49:00,0.2,rain,31.05,2020-10-19 12:56:00,21.4,2020-10-20 05:43:00,34.67,2020-10-19 12:57:00,22.05,2020-10-20 05:43:00,21.89,0.79,1009.0,1.33,2.36,1603122120,22,0.31,7,1603086660,16.093,258.3,22.28,2020-10-19 05:35:00,31.05,2020-10-19 12:56:00,23.14,2020-10-19 05:33:00,34.67,2020-10-19 12:57:00,
Ilam,Soktim Tea E,26.88652778,88.02738889,2020-10-19 00:00:00,Partly cloudy throughout the day.,partly-cloudy-day,2020-10-19 05:56:00,2020-10-19 17:22:00,0.11,0.1382,0.4428,2020-10-19 14:48:00,0.34,rain,23.74,2020-10-19 11:51:00,15.98,2020-10-20 04:59:00,23.75,2020-10-19 11:52:00,16.44,2020-10-20 04:57:00,18.05,0.95,1009.9,1.11,2.1,1603096140,41,0.4,7,1603086840,16.093,256.8,16.27,2020-10-19 05:05:00,23.74,2020-10-19 11:51:00,16.96,2020-10-19 05:03:00,23.75,2020-10-19 11:52:00,
Jajarkot,Bhanu Thana,28.961315000000003,82.268888,2020-10-19 00:00:00,Clear throughout the day.,clear-day,2020-10-19 06:21:00,2020-10-19 17:43:00,0.11,0.0037,0.0155,2020-10-19 17:30:00,0.09,rain,20.68,2020-10-19 12:47:00,9.25,2020-10-20 05:38:00,20.4,2020-10-19 12:47:00,8.91,2020-10-20 05:34:00,9.04,0.76,1012.9,1.52,2.94,1603092540,147,0.26,8,1603087020,15.119,254.8,8.87,2020-10-19 05:12:00,20.68,2020-10-19 12:47:00,8.6,2020-10-19 05:13:00,20.4,2020-10-19 12:47:00,
Jajarkot,Maina Gaun (D.Bas),28.69860389,82.200792,2020-10-19 00:00:00,Clear throughout the day.,clear-day,2020-10-19 06:21:00,2020-10-19 17:44:00,0.11,0.0015,0.0051,2020-10-19 17:45:00,0.03,rain,28.58,2020-10-19 13:49:00,16.62,2020-10-20 06:02:00,28.3,2020-10-19 13:49:00,16.89,2020-10-20 06:02:00,13.62,0.61,1010.8,1.09,2.0,1603095360,186,0.14,7,1603088160,16.093,259.0,17.42,2020-10-19 05:49:00,28.58,2020-10-19 13:49:00,17.69,2020-10-19 05:49:00,28.3,2020-10-19 13:49:00,
Jhapa,Anarmani Birta,26.6706658,87.7004293,2020-10-19 00:00:00,Humid throughout the day.,clear-day,2020-10-19 05:57:00,2020-10-19 17:23:00,0.11,0.0245,0.1379,2020-10-19 23:45:00,0.14,rain,33.33,2020-10-19 13:57:00,23.06,2020-10-20 05:35:00,37.9,2020-10-19 13:53:00,23.88,2020-10-20 05:35:00,22.55,0.74,1007.9,1.51,2.82,1603097040,47,0.24,8,1603086120,16.093,259.1,23.94,2020-10-19 05:26:00,33.33,2020-10-19 13:57:00,24.95,2020-10-19 05:24:00,37.9,2020-10-19 13:53:00,
Jhapa,Chnadra Gadhi,26.39616667,88.00375,2020-10-19 00:00:00,Humid throughout the day.,clear-day,2020-10-19 05:56:00,2020-10-19 17:22:00,0.11,0.0214,0.0882,2020-10-19 20:43:00,0.13,rain,32.64,2020-10-19 14:04:00,21.96,2020-10-20 05:36:00,35.56,2020-10-19 13:21:00,22.88,2020-10-20 05:36:00,22.01,0.74,1007.7,1.46,3.16,1603098060,85,0.27,8,1603086960,16.093,259.4,23.53,2020-10-19 05:26:00,32.64,2020-10-19 14:04:00,24.72,2020-10-19 05:25:00,35.56,2020-10-19 13:21:00,
Jhapa,Gaida (Kankai),26.68972222,87.98861111,2020-10-19 00:00:00,Humid throughout the day.,clear-day,2020-10-19 05:56:00,2020-10-19 17:22:00,0.11,0.0422,0.1272,2020-10-19 14:51:00,0.13,rain,32.13,2020-10-19 13:35:00,22.55,2020-10-20 05:37:00,36.38,2020-10-19 13:38:00,23.33,2020-10-20 05:37:00,22.55,0.77,1008.5,1.38,2.35,1603095480,18,0.29,7,1603087080,16.093,259.2,23.67,2020-10-19 05:27:00,32.13,2020-10-19 13:35:00,24.69,2020-10-19 05:25:00,36.38,2020-10-19 13:38:00,
Jhapa,Jumla,26.5647011,88.0614307,2020-10-19 00:00:00,Humid throughout the day.,clear-day,2020-10-19 05:56:00,2020-10-19 17:22:00,0.11,0.0156,0.0685,2020-10-19 23:40:00,0.07,rain,32.44,2020-10-19 14:19:00,22.06,2020-10-20 05:34:00,35.75,2020-10-19 13:08:00,22.9,2020-10-20 05:35:00,21.99,0.75,1008.0,1.45,2.82,1603098000,68,0.3,7,1603086840,16.093,259.4,23.33,2020-10-19 05:27:00,32.44,2020-10-19 14:19:00,24.38,2020-10-19 05:25:00,35.75,2020-10-19 13:08:00,
Jhapa,Kechana,26.65688889,87.86072222,2020-10-19 00:00:00,Humid throughout the day.,clear-day,2020-10-19 05:56:00,2020-10-19 17:23:00,0.11,0.0293,0.1209,2020-10-19 23:41:00,0.12,rain,32.77,2020-10-19 13:50:00,22.71,2020-10-20 05:36:00,37.07,2020-10-19 13:45:00,23.53,2020-10-20 05:36:00,22.51,0.76,1008.1,1.44,2.69,1603096800,39,0.27,7,1603086600,16.093,259.2,23.82,2020-10-19 05:27:00,32.77,2020-10-19 13:50:00,24.85,2020-10-19 05:24:00,37.07,2020-10-19 13:45:00,
Jhapa,Sanischare,26.625063899999997,87.98858059999999,2020-10-19 00:00:00,Humid throughout the day.,clear-day,2020-10-19 05:56:00,2020-10-19 17:22:00,0.11,0.03,0.0948,2020-10-19 23:38:00,0.1,rain,32.39,2020-10-19 13:44:00,22.5,2020-10-20 05:37:00,36.28,2020-10-19 13:32:00,23.33,2020-10-20 05:37:00,22.39,0.76,1008.2,1.38,2.63,1603097040,34,0.29,7,1603087020,16.093,259.3,23.75,2020-10-19 05:23:00,32.39,2020-10-19 13:44:00,24.8,2020-10-19 05:20:00,36.28,2020-10-19 13:32:00,
Jumla,Dipal Gaun,29.23088056,82.33041944,2020-10-19 00:00:00,Clear throughout the day.,clear-day,2020-10-19 06:21:00,2020-10-19 17:43:00,0.11,0.0044,0.0233,2020-10-19 17:47:00,0.06,rain,18.65,2020-10-19 12:51:00,2.95,2020-10-20 06:01:00,18.37,2020-10-19 12:51:00,2.09,2020-10-20 05:38:00,2.52,0.66,1013.7,1.28,3.44,1603096380,86,0.15,9,1603087920,16.093,252.7,4.14,2020-10-19 05:37:00,18.65,2020-10-19 12:51:00,3.81,2020-10-19 04:47:00,18.37,2020-10-19 12:51:00,
Jumla,Jacha,29.43111111,82.10744444,2020-10-19 00:00:00,Clear throughout the day.,clear-day,2020-10-19 06:22:00,2020-10-19 17:43:00,0.11,0.0019,0.0077,2020-10-19 17:47:00,0.03,rain,18.12,2020-10-19 13:09:00,3.57,2020-10-20 05:12:00,17.84,2020-10-19 13:09:00,2.39,2020-10-20 05:15:00,1.41,0.63,1013.4,1.47,3.7,1603096320,70,0.1,9,1603088160,16.093,254.7,4.11,2020-10-19 05:05:00,18.12,2020-10-19 13:09:00,3.05,2020-10-19 05:09:00,17.84,2020-10-19 13:09:00,
Jumla,Jumla,29.26385556,82.22301111,2020-10-19 00:00:00,Clear throughout the day.,clear-day,2020-10-19 06:21:00,2020-10-19 17:43:00,0.11,0.0042,0.0239,2020-10-19 17:53:00,0.05,rain,20.28,2020-10-19 12:55:00,3.56,2020-10-20 06:13:00,20.0,2020-10-19 12:55:00,2.68,2020-10-20 05:36:00,3.06,0.64,1013.6,1.34,3.38,1603097040,76,0.17,9,1603088100,16.093,253.6,4.92,2020-10-19 05:32:00,20.28,2020-10-19 12:55:00,4.02,2020-10-19 05:24:00,20.0,2020-10-19 12:55:00,
Jumla,Tatopani,29.316667,82.283333,2020-10-19 00:00:00,Clear throughout the day.,clear-day,2020-10-19 06:21:00,2020-10-19 17:43:00,0.11,0.0038,0.0203,2020-10-19 17:50:00,0.05,rain,17.29,2020-10-19 13:11:00,1.74,2020-10-20 06:07:00,17.01,2020-10-19 13:11:00,0.43,2020-10-20 05:30:00,1.61,0.68,1013.7,1.39,3.65,1603096320,72,0.14,9,1603088100,16.093,253.1,2.74,2020-10-19 05:16:00,17.29,2020-10-19 13:11:00,1.47,2020-10-19 05:15:00,17.01,2020-10-19 13:11:00,
Kabhre,Budal (Banepa),27.61611667,85.56550278,2020-10-19 00:00:00,Partly cloudy throughout the day.,partly-cloudy-day,2020-10-19 06:06:00,2020-10-19 17:31:00,0.11,0.0858,0.1733,2020-10-19 02:43:00,0.24,rain,24.69,2020-10-19 13:29:00,14.97,2020-10-20 05:47:00,24.6,2020-10-19 13:30:00,15.3,2020-10-20 05:45:00,17.16,0.92,1010.7,0.82,1.94,1603098540,21,0.46,7,1603087380,16.093,259.0,14.99,2020-10-19 05:39:00,24.69,2020-10-19 13:29:00,15.55,2020-10-19 05:37:00,24.6,2020-10-19 13:30:00,
Kabhre,Dhulikhel,27.63882194,85.70498083,2020-10-19 00:00:00,Partly cloudy throughout the day.,partly-cloudy-day,2020-10-19 06:06:00,2020-10-19 17:31:00,0.11,0.1199,0.3261,2020-10-19 23:48:00,0.27,rain,28.62,2020-10-19 14:34:00,16.61,2020-10-20 05:42:00,29.5,2020-10-19 14:39:00,16.9,2020-10-20 05:42:00,18.49,0.83,1010.8,0.83,1.69,1603102320,3,0.43,7,1603087620,16.093,259.3,16.9,2020-10-19 05:39:00,28.62,2020-10-19 14:34:00,17.47,2020-10-19 05:39:00,29.5,2020-10-19 14:39:00,
Kabhre,Dolal Ghat,27.69382389,85.635637,2020-10-19 00:00:00,Partly cloudy throughout the day.,partly-cloudy-day,2020-10-19 06:06:00,2020-10-19 17:31:00,0.11,0.1258,0.3156,2020-10-19 03:34:00,0.28,rain,27.05,2020-10-19 14:09:00,15.64,2020-10-20 06:03:00,27.75,2020-10-19 14:11:00,15.91,2020-10-20 06:03:00,17.18,0.83,1010.9,0.75,1.81,1603101300,15,0.44,7,1603087860,16.093,259.2,15.95,2020-10-19 05:39:00,27.05,2020-10-19 14:09:00,16.36,2020-10-19 05:37:00,27.75,2020-10-19 14:11:00,
Kabhre,Panchkhal,27.63333333,85.51666667,2020-10-19 00:00:00,Partly cloudy throughout the day.,partly-cloudy-day,2020-10-19 06:07:00,2020-10-19 17:31:00,0.11,0.0815,0.1972,2020-10-19 02:40:00,0.24,rain,24.82,2020-10-19 13:21:00,15.03,2020-10-20 06:03:00,24.75,2020-10-19 13:22:00,15.39,2020-10-20 05:56:00,17.28,0.92,1010.7,0.79,2.03,1603098660,28,0.46,7,1603087380,16.093,259.0,14.96,2020-10-19 05:40:00,24.82,2020-10-19 13:21:00,15.54,2020-10-19 05:38:00,24.75,2020-10-19 13:22:00,
Kailali,Dhangadhi,28.68333333,80.6,2020-10-19 00:00:00,Clear throughout the day.,clear-day,2020-10-19 06:27:00,2020-10-19 17:50:00,0.11,0.0015,0.0051,2020-10-19 17:45:00,0.02,rain,31.77,2020-10-19 14:18:00,18.73,2020-10-20 05:21:00,32.53,2020-10-19 13:49:00,19.28,2020-10-20 05:20:00,18.69,0.73,1008.0,1.21,2.03,1603120560,72,0.03,8,1603088640,16.093,262.8,18.57,2020-10-19 05:36:00,31.77,2020-10-19 14:18:00,19.2,2020-10-19 05:36:00,32.53,2020-10-19 13:49:00,
Kailali,Godavari(West),28.554054999999998,80.831765,2020-10-19 00:00:00,Clear throughout the day.,clear-day,2020-10-19 06:26:00,2020-10-19 17:49:00,0.11,0.0015,0.0051,2020-10-19 17:45:00,0.02,rain,31.94,2020-10-19 14:31:00,18.48,2020-10-20 05:37:00,32.31,2020-10-19 14:02:00,19.07,2020-10-20 05:38:00,18.37,0.71,1008.0,1.29,2.41,1603054020,70,0.02,8,1603088580,16.093,263.2,18.76,2020-10-19 05:14:00,31.94,2020-10-19 14:31:00,19.41,2020-10-19 05:15:00,32.31,2020-10-19 14:02:00,
Kailali,Malakheti,28.83333333,80.56666667,2020-10-19 00:00:00,Clear throughout the day.,clear-day,2020-10-19 06:28:00,2020-10-19 17:50:00,0.11,0.0015,0.0051,2020-10-19 17:45:00,0.02,rain,31.97,2020-10-19 14:11:00,18.68,2020-10-20 05:22:00,33.21,2020-10-19 14:03:00,19.08,2020-10-20 05:20:00,18.96,0.73,1008.5,1.27,2.22,1603120560,67,0.03,7,1603088400,16.093,261.8,18.43,2020-10-19 05:29:00,31.97,2020-10-19 14:11:00,19.04,2020-10-19 05:31:00,33.21,2020-10-19 14:03:00,
Kailali,Sitapur,28.66417611,80.97850889,2020-10-19 00:00:00,Clear throughout the day.,clear-day,2020-10-19 06:26:00,2020-10-19 17:48:00,0.11,0.0015,0.0051,2020-10-19 17:45:00,0.03,rain,32.21,2020-10-19 14:30:00,20.06,2020-10-20 05:17:00,32.31,2020-10-19 14:32:00,20.44,2020-10-20 05:20:00,17.7,0.65,1008.3,1.38,2.4,1603053360,64,0.03,8,1603088400,16.093,262.6,19.67,2020-10-19 05:07:00,32.21,2020-10-19 14:30:00,20.17,2020-10-19 05:11:00,32.31,2020-10-19 14:32:00,
Kailali,Teghari,28.87623,80.57918889,2020-10-19 00:00:00,Clear throughout the day.,clear-day,2020-10-19 06:28:00,2020-10-19 17:50:00,0.11,0.0015,0.0051,2020-10-19 17:45:00,0.02,rain,31.38,2020-10-19 14:04:00,18.79,2020-10-20 05:22:00,32.27,2020-10-19 14:02:00,19.05,2020-10-20 05:22:00,18.0,0.7,1008.8,1.31,2.23,1603120920,61,0.05,7,1603088280,16.093,261.3,18.36,2020-10-19 05:28:00,31.38,2020-10-19 14:04:00,18.76,2020-10-19 05:31:00,32.27,2020-10-19 14:02:00,
Kalikot,Mahendra Nagar,29.09644444,81.70052778,2020-10-19 00:00:00,Clear throughout the day.,clear-day,2020-10-19 06:23:00,2020-10-19 17:45:00,0.11,0.0015,0.0051,2020-10-19 17:45:00,0.04,rain,25.14,2020-10-19 12:55:00,13.4,2020-10-20 05:40:00,24.86,2020-10-19 12:55:00,13.67,2020-10-20 05:40:00,9.12,0.58,1011.6,1.57,3.08,1603062840,71,0.08,8,1603087680,16.093,257.4,13.47,2020-10-19 05:32:00,25.14,2020-10-19 12:55:00,13.74,2020-10-19 05:32:00,24.86,2020-10-19 12:55:00,
Kalikot,Manma,29.2495,81.63913889,2020-10-19 00:00:00,Clear throughout the day.,clear-day,2020-10-19 06:24:00,2020-10-19 17:45:00,0.11,0.0015,0.0051,2020-10-19 17:45:00,0.04,rain,24.17,2020-10-19 12:51:00,11.08,2020-10-20 05:38:00,23.89,2020-10-19 12:51:00,11.35,2020-10-20 05:38:00,7.4,0.59,1012.2,1.6,3.37,1603063440,40,0.09,8,1603088160,16.093,256.8,11.24,2020-10-19 05:25:00,24.17,2020-10-19 12:51:00,11.51,2020-10-19 05:25:00,23.89,2020-10-19 12:51:00,
Kalikot,Nagma,29.12995833,81.58836111,2020-10-19 00:00:00,Clear throughout the day.,clear-day,2020-10-19 06:24:00,2020-10-19 17:46:00,0.11,0.0015,0.0051,2020-10-19 17:45:00,0.04,rain,26.13,2020-10-19 12:58:00,15.03,2020-10-20 05:36:00,25.85,2020-10-19 12:58:00,15.3,2020-10-20 05:36:00,10.42,0.58,1011.7,1.6,3.52,1603063020,52,0.09,8,1603087680,16.093,258.0,15.02,2020-10-19 05:14:00,26.13,2020-10-19 12:58:00,15.29,2020-10-19 05:14:00,25.85,2020-10-19 12:58:00,
Kanchanpur,Dodhara,28.86185889,80.44044194,2020-10-19 00:00:00,Clear throughout the day.,clear-day,2020-10-19 06:28:00,2020-10-19 17:50:00,0.11,0.0015,0.0051,2020-10-19 17:45:00,0.03,rain,31.79,2020-10-19 14:24:00,18.77,2020-10-20 05:15:00,33.08,2020-10-19 14:22:00,19.13,2020-10-20 05:13:00,19.01,0.74,1008.5,1.31,2.26,1603120200,67,0.04,7,1603088520,16.093,261.9,18.48,2020-10-19 05:23:00,31.79,2020-10-19 14:24:00,19.11,2020-10-19 05:25:00,33.08,2020-10-19 14:22:00,
Kanchanpur,Hanmannagar,28.698575,80.37540389,2020-10-19 00:00:00,Clear throughout the day.,clear-day,2020-10-19 06:28:00,2020-10-19 17:51:00,0.11,0.0015,0.0051,2020-10-19 17:45:00,0.02,rain,31.22,2020-10-19 14:32:00,18.18,2020-10-20 05:13:00,31.88,2020-10-19 13:53:00,18.79,2020-10-20 05:14:00,18.75,0.75,1008.3,1.16,1.85,1603087860,82,0.06,8,1603088700,16.093,262.8,17.98,2020-10-19 05:33:00,31.22,2020-10-19 14:32:00,18.67,2020-10-19 05:32:00,31.88,2020-10-19 13:53:00,
Kanchanpur,Taulihawa,28.89702,80.36996389,2020-10-19 00:00:00,Clear throughout the day.,clear-day,2020-10-19 06:28:00,2020-10-19 17:51:00,0.11,0.0015,0.0051,2020-10-19 17:45:00,0.03,rain,31.8,2020-10-19 14:25:00,19.11,2020-10-20 05:10:00,33.17,2020-10-19 14:25:00,19.45,2020-10-20 05:09:00,18.96,0.73,1008.5,1.39,2.43,1603120140,62,0.04,7,1603088460,16.093,261.9,18.81,2020-10-19 05:18:00,31.8,2020-10-19 14:25:00,19.41,2020-10-19 05:21:00,33.17,2020-10-19 14:25:00,
Kapilbastu,Banganga,27.669936100000005,82.7911917,2020-10-19 00:00:00,Clear throughout the day.,clear-day,2020-10-19 06:18:00,2020-10-19 17:42:00,0.11,0.0015,0.0051,2020-10-19 17:45:00,0.02,rain,33.86,2020-10-19 14:02:00,18.97,2020-10-20 04:58:00,33.58,2020-10-19 14:02:00,19.24,2020-10-20 04:58:00,15.35,0.55,1007.5,1.76,3.83,1603097580,350,0.14,8,1603087920,16.093,263.1,19.45,2020-10-19 05:01:00,33.86,2020-10-19 14:02:00,19.9,2020-10-19 05:03:00,33.58,2020-10-19 14:02:00,
Kapilvastu,Bahadur Ganj,27.693294399999996,83.1612556,2020-10-19 00:00:00,Clear throughout the day.,clear-day,2020-10-19 06:16:00,2020-10-19 17:41:00,0.11,0.0112,0.0739,2020-10-19 12:30:00,0.05,rain,33.21,2020-10-19 14:05:00,20.63,2020-10-20 05:26:00,33.17,2020-10-19 14:03:00,20.9,2020-10-20 05:26:00,16.56,0.56,1008.1,1.64,3.58,1603097760,14,0.3,7,1603088160,16.093,262.4,21.4,2020-10-19 05:26:00,33.21,2020-10-19 14:05:00,21.89,2020-10-19 05:32:00,33.17,2020-10-19 14:03:00,
Kapilvastu,Sallyan (Kaski),27.55,83.85,2020-10-19 00:00:00,Clear throughout the day.,clear-day,2020-10-19 06:13:00,2020-10-19 17:38:00,0.11,0.0053,0.0353,2020-10-19 00:00:00,0.06,rain,30.83,2020-10-19 13:57:00,20.2,2020-10-20 05:34:00,31.15,2020-10-19 13:35:00,20.55,2020-10-20 05:34:00,18.6,0.7,1008.1,1.51,4.04,1603099320,15,0.2,8,1603087020,16.093,262.3,21.13,2020-10-19 05:33:00,30.83,2020-10-19 13:57:00,21.91,2020-10-20 00:00:00,31.15,2020-10-19 13:35:00,
Kaski,Begnas,28.212011100000005,83.8915417,2020-10-19 00:00:00,Partly cloudy throughout the day.,partly-cloudy-day,2020-10-19 06:14:00,2020-10-19 17:37:00,0.11,0.124,0.3817,2020-10-19 02:45:00,0.27,rain,24.59,2020-10-19 13:50:00,15.05,2020-10-20 05:27:00,24.38,2020-10-19 13:51:00,15.32,2020-10-20 05:27:00,14.85,0.78,1010.9,1.02,2.07,1603088160,205,0.48,7,1603087740,16.027,259.2,15.97,2020-10-20 00:00:00,24.59,2020-10-19 13:50:00,16.24,2020-10-20 00:00:00,24.38,2020-10-19 13:51:00,
Kaski,Begnas Tal,28.35805556,84.105175,2020-10-19 00:00:00,Partly cloudy throughout the day.,partly-cloudy-day,2020-10-19 06:13:00,2020-10-19 17:36:00,0.11,0.0873,0.2388,2020-10-19 02:33:00,0.24,rain,20.55,2020-10-19 13:29:00,10.81,2020-10-20 05:36:00,20.33,2020-10-19 13:35:00,11.08,2020-10-20 05:36:00,12.68,0.84,1012.2,1.23,2.4,1603087800,21,0.4,8,1603086960,15.016,255.8,11.96,2020-10-19 05:14:00,20.55,2020-10-19 13:29:00,12.23,2020-10-19 05:14:00,20.33,2020-10-19 13:35:00,
Kaski,Bhadaure Deurali,28.21849444,83.9742,2020-10-19 00:00:00,Partly cloudy throughout the day.,partly-cloudy-day,2020-10-19 06:13:00,2020-10-19 17:37:00,0.11,0.1412,0.5225,2020-10-19 02:44:00,0.29,rain,28.19,2020-10-19 14:02:00,16.48,2020-10-20 05:44:00,28.81,2020-10-19 14:10:00,16.75,2020-10-20 05:44:00,16.89,0.73,1010.7,1.06,2.22,1603087680,195,0.46,7,1603087740,16.079,259.4,18.33,2020-10-19 05:59:00,28.19,2020-10-19 14:02:00,18.6,2020-10-19 05:59:00,28.81,2020-10-19 14:10:00,
Kaski,Ghandruk,28.26168056,83.96873333,2020-10-19 00:00:00,Partly cloudy throughout the day.,partly-cloudy-day,2020-10-19 06:13:00,2020-10-19 17:37:00,0.11,0.1453,0.5359,2020-10-19 02:46:00,0.3,rain,27.16,2020-10-19 13:54:00,16.04,2020-10-20 05:42:00,27.75,2020-10-19 14:08:00,16.31,2020-10-20 05:42:00,16.04,0.72,1011.0,1.09,2.29,1603087620,187,0.46,7,1603087620,15.924,258.8,17.57,2020-10-19 05:47:00,27.16,2020-10-19 13:54:00,17.84,2020-10-19 05:47:00,27.75,2020-10-19 14:08:00,
Kaski,Lamachaur,28.29653889,83.81791111,2020-10-19 00:00:00,Partly cloudy throughout the day.,partly-cloudy-day,2020-10-19 06:14:00,2020-10-19 17:37:00,0.11,0.0962,0.2648,2020-10-19 16:20:00,0.24,rain,22.1,2020-10-19 13:44:00,13.25,2020-10-20 05:32:00,21.83,2020-10-19 13:46:00,13.52,2020-10-20 05:32:00,13.14,0.8,1011.6,1.08,2.11,1603088580,198,0.51,7,1603087380,15.718,257.5,13.56,2020-10-19 04:59:00,22.1,2020-10-19 13:44:00,13.83,2020-10-19 04:59:00,21.83,2020-10-19 13:46:00,
Kaski,Lumle,28.26555556,83.82211944,2020-10-19 00:00:00,Partly cloudy throughout the day.,partly-cloudy-day,2020-10-19 06:14:00,2020-10-19 17:37:00,0.11,0.108,0.289,2020-10-19 16:21:00,0.25,rain,23.13,2020-10-19 13:43:00,14.03,2020-10-20 05:30:00,22.9,2020-10-19 13:44:00,14.3,2020-10-20 05:30:00,13.71,0.79,1011.4,1.06,2.05,1603088640,200,0.51,7,1603087620,15.772,258.3,14.44,2020-10-19 05:00:00,23.13,2020-10-19 13:43:00,14.71,2020-10-19 05:00:00,22.9,2020-10-19 13:44:00,
Kaski,Pokhara Airport,28.23333333,84.0,2020-10-19 00:00:00,Clear throughout the day.,clear-day,2020-10-19 06:13:00,2020-10-19 17:37:00,0.11,0.1524,0.5958,2020-10-19 02:44:00,0.3,rain,27.97,2020-10-19 13:57:00,16.19,2020-10-20 05:43:00,28.59,2020-10-19 14:10:00,16.46,2020-10-20 05:43:00,16.69,0.73,1010.7,1.08,2.3,1603087560,188,0.45,7,1603087740,16.023,259.4,18.07,2020-10-19 05:55:00,27.97,2020-10-19 13:57:00,18.34,2020-10-19 05:55:00,28.59,2020-10-19 14:10:00,
Kaski,Pokhara Airport,28.22,84.0,2020-10-19 00:00:00,Partly cloudy throughout the day.,partly-cloudy-day,2020-10-19 06:13:00,2020-10-19 17:37:00,0.11,0.1468,0.5688,2020-10-19 02:43:00,0.3,rain,28.28,2020-10-19 14:02:00,16.37,2020-10-20 05:44:00,28.9,2020-10-19 14:09:00,16.64,2020-10-20 05:44:00,16.98,0.73,1010.7,1.07,2.27,1603087620,193,0.45,7,1603087740,16.069,259.5,18.36,2020-10-19 05:58:00,28.28,2020-10-19 14:02:00,18.63,2020-10-19 05:58:00,28.9,2020-10-19 14:09:00,
Kathmandu,Budhanilakan,27.78333333,85.31666667,2020-10-19 00:00:00,Partly cloudy throughout the day.,partly-cloudy-day,2020-10-19 06:08:00,2020-10-19 17:32:00,0.11,0.1419,0.5317,2020-10-19 01:45:00,0.34,rain,24.52,2020-10-19 13:08:00,15.02,2020-10-20 05:45:00,24.54,2020-10-19 13:09:00,15.29,2020-10-20 05:45:00,17.7,0.94,1010.9,0.8,2.06,1603096920,87,0.43,7,1603087140,16.093,258.5,15.31,2020-10-19 05:45:00,24.52,2020-10-19 13:08:00,15.87,2020-10-19 05:43:00,24.54,2020-10-19 13:09:00,
Kathmandu,Kathmandu Airport,27.703825,85.35624722,2020-10-19 00:00:00,Partly cloudy throughout the day.,partly-cloudy-day,2020-10-19 06:07:00,2020-10-19 17:32:00,0.11,0.1136,0.3713,2020-10-19 01:28:00,0.3,rain,25.16,2020-10-19 14:08:00,15.45,2020-10-20 05:49:00,25.22,2020-10-19 14:14:00,15.82,2020-10-20 05:48:00,18.34,0.87,1010.7,0.78,2.09,1603098120,86,0.37,7,1603087140,13.673,258.8,16.58,2020-10-19 05:50:00,25.16,2020-10-19 14:08:00,17.21,2020-10-19 05:49:00,25.22,2020-10-19 14:14:00,
Kathmandu,Naikap,27.7726953,85.4277003,2020-10-19 00:00:00,Partly cloudy throughout the day.,partly-cloudy-day,2020-10-19 06:07:00,2020-10-19 17:31:00,0.11,0.1173,0.401,2020-10-19 02:25:00,0.3,rain,22.59,2020-10-19 13:35:00,13.35,2020-10-20 05:07:00,22.38,2020-10-19 13:36:00,13.62,2020-10-20 05:07:00,15.58,0.93,1010.9,0.7,2.08,1603100700,47,0.45,7,1603087320,16.093,258.6,13.28,2020-10-19 05:11:00,22.59,2020-10-19 13:35:00,13.75,2020-10-19 05:07:00,22.38,2020-10-19 13:36:00,
Kathmandu,Pharping,27.76666667,85.31666667,2020-10-19 00:00:00,Partly cloudy throughout the day.,partly-cloudy-day,2020-10-19 06:08:00,2020-10-19 17:32:00,0.11,0.1385,0.5116,2020-10-19 01:40:00,0.34,rain,24.84,2020-10-19 13:07:00,15.21,2020-10-20 05:49:00,24.88,2020-10-19 13:08:00,15.5,2020-10-20 05:47:00,17.99,0.93,1010.8,0.78,2.08,1603097820,82,0.43,7,1603087140,16.093,258.6,15.6,2020-10-19 05:49:00,24.84,2020-10-19 13:07:00,16.18,2020-10-19 05:44:00,24.88,2020-10-19 13:08:00,
Kathmandu,Sankhu,27.73333333,85.33333333,2020-10-19 00:00:00,Partly cloudy throughout the day.,partly-cloudy-day,2020-10-19 06:07:00,2020-10-19 17:32:00,0.11,0.1267,0.4455,2020-10-19 01:31:00,0.32,rain,24.81,2020-10-19 13:12:00,15.27,2020-10-20 05:56:00,24.84,2020-10-19 13:14:00,15.63,2020-10-20 05:52:00,18.08,0.93,1010.8,0.76,2.1,1603098480,73,0.42,7,1603087140,16.093,258.8,15.74,2020-10-19 05:50:00,24.81,2020-10-19 13:12:00,16.35,2020-10-19 05:46:00,24.84,2020-10-19 13:14:00,
Kathmandu,Sankhu,27.73333333,85.33333333,2020-10-19 00:00:00,Partly cloudy throughout the day.,partly-cloudy-day,2020-10-19 06:07:00,2020-10-19 17:32:00,0.11,0.1267,0.4455,2020-10-19 01:31:00,0.32,rain,24.81,2020-10-19 13:12:00,15.27,2020-10-20 05:56:00,24.84,2020-10-19 13:14:00,15.63,2020-10-20 05:52:00,18.08,0.93,1010.8,0.76,2.1,1603098480,73,0.42,7,1603087140,16.093,258.8,15.74,2020-10-19 05:50:00,24.81,2020-10-19 13:12:00,16.35,2020-10-19 05:46:00,24.84,2020-10-19 13:14:00,
Kathmandu,Sivapuri,27.75,85.43333333,2020-10-19 00:00:00,Partly cloudy throughout the day.,partly-cloudy-day,2020-10-19 06:07:00,2020-10-19 17:31:00,0.11,0.1158,0.393,2020-10-19 02:27:00,0.29,rain,24.83,2020-10-19 13:39:00,14.51,2020-10-20 06:16:00,24.73,2020-10-19 13:39:00,14.78,2020-10-20 06:16:00,16.94,0.9,1010.9,0.66,2.16,1603102380,49,0.44,7,1603087320,16.093,258.9,14.83,2020-10-19 05:47:00,24.83,2020-10-19 13:39:00,15.33,2020-10-19 05:43:00,24.73,2020-10-19 13:39:00,
Kathmandu,Sundarijal,27.8,85.43333333,2020-10-19 00:00:00,Partly cloudy throughout the day.,partly-cloudy-day,2020-10-19 06:07:00,2020-10-19 17:31:00,0.11,0.1166,0.4012,2020-10-19 02:27:00,0.3,rain,20.88,2020-10-19 13:33:00,11.92,2020-10-20 06:27:00,20.61,2020-10-19 13:34:00,12.19,2020-10-20 06:27:00,14.2,0.95,1011.0,0.75,2.03,1603094940,40,0.45,7,1603087320,16.093,258.3,11.72,2020-10-19 04:56:00,20.88,2020-10-19 13:33:00,12.12,2020-10-19 04:53:00,20.61,2020-10-19 13:34:00,
Kathmandu,Tarebhir,27.78419167,85.29049444,2020-10-19 00:00:00,Partly cloudy throughout the day.,partly-cloudy-day,2020-10-19 06:08:00,2020-10-19 17:32:00,0.11,0.1478,0.5665,2020-10-19 01:44:00,0.35,rain,23.55,2020-10-19 13:04:00,14.67,2020-10-20 05:31:00,23.56,2020-10-19 13:05:00,14.94,2020-10-20 05:30:00,17.16,0.95,1010.8,0.82,2.07,1603096800,98,0.43,7,1603087140,16.093,258.5,14.95,2020-10-19 05:36:00,23.55,2020-10-19 13:04:00,15.54,2020-10-19 05:33:00,23.56,2020-10-19 13:05:00,
Kathmandu,Tokha,27.7972222,85.3577778,2020-10-19 00:00:00,Partly cloudy throughout the day.,partly-cloudy-day,2020-10-19 06:07:00,2020-10-19 17:32:00,0.11,0.1348,0.4923,2020-10-19 01:57:00,0.32,rain,21.13,2020-10-19 13:23:00,12.67,2020-10-20 06:18:00,20.96,2020-10-19 13:25:00,12.94,2020-10-20 06:18:00,14.96,0.96,1010.9,0.79,2.04,1603095900,71,0.44,7,1603087200,16.093,258.4,12.68,2020-10-19 05:01:00,21.13,2020-10-19 13:23:00,13.18,2020-10-19 04:57:00,20.96,2020-10-19 13:25:00,
Khotang,Diktel,27.02930083,86.84337278,2020-10-19 00:00:00,Partly cloudy throughout the day.,partly-cloudy-day,2020-10-19 06:01:00,2020-10-19 17:26:00,0.11,0.034,0.099,2020-10-20 00:00:00,0.15,rain,27.59,2020-10-19 12:50:00,17.48,2020-10-20 05:38:00,28.27,2020-10-19 13:02:00,18.13,2020-10-20 05:36:00,19.01,0.87,1009.4,1.11,2.19,1603063800,43,0.3,8,1603086960,16.093,258.0,17.64,2020-10-19 05:25:00,27.59,2020-10-19 12:50:00,18.32,2020-10-19 05:25:00,28.27,2020-10-19 13:02:00,
Khotang,Dwarpa,27.359795000000002,86.7486619,2020-10-19 00:00:00,Partly cloudy throughout the day.,partly-cloudy-day,2020-10-19 06:01:00,2020-10-19 17:27:00,0.11,0.1146,0.2847,2020-10-20 00:00:00,0.34,rain,19.73,2020-10-19 12:11:00,11.99,2020-10-20 03:44:00,19.55,2020-10-19 12:15:00,12.26,2020-10-20 03:44:00,14.44,0.97,1011.0,1.04,2.38,1603064640,24,0.5,7,1603086120,15.883,256.9,12.24,2020-10-19 04:57:00,19.73,2020-10-19 12:11:00,12.59,2020-10-19 04:55:00,19.55,2020-10-19 12:15:00,
Khotang,Khotang Bazar,27.1408985,86.4317585,2020-10-19 00:00:00,Clear throughout the day.,clear-day,2020-10-19 06:03:00,2020-10-19 17:28:00,0.11,0.0387,0.2625,2020-10-19 23:00:00,0.14,rain,30.57,2020-10-19 13:02:00,20.3,2020-10-20 05:42:00,32.23,2020-10-19 13:05:00,21.14,2020-10-20 05:42:00,20.81,0.8,1009.5,1.21,2.04,1603095480,57,0.3,7,1603087200,16.093,259.2,20.08,2020-10-19 05:30:00,30.57,2020-10-19 13:02:00,20.83,2020-10-19 05:30:00,32.23,2020-10-19 13:05:00,
Khotang,Kurle Ghat,27.21666667,86.85,2020-10-19 00:00:00,Partly cloudy throughout the day.,partly-cloudy-day,2020-10-19 06:01:00,2020-10-19 17:26:00,0.11,0.1247,0.3319,2020-10-19 23:54:00,0.32,rain,22.15,2020-10-19 12:46:00,13.65,2020-10-20 04:55:00,21.97,2020-10-19 12:48:00,14.15,2020-10-20 04:52:00,15.89,0.95,1010.5,0.92,2.06,1603094940,216,0.41,7,1603086240,16.093,257.4,13.93,2020-10-19 04:57:00,22.15,2020-10-19 12:46:00,14.54,2020-10-19 04:56:00,21.97,2020-10-19 12:48:00,
Lalitpur,Chapa Gaun,27.566666700000003,85.3166667,2020-10-19 00:00:00,Partly cloudy throughout the day.,partly-cloudy-day,2020-10-19 06:07:00,2020-10-19 17:32:00,0.11,0.0709,0.2,2020-10-19 17:41:00,0.21,rain,23.29,2020-10-19 12:32:00,15.28,2020-10-20 05:07:00,23.28,2020-10-19 12:41:00,15.83,2020-10-20 05:04:00,17.42,0.95,1010.4,0.95,2.05,1603096800,47,0.44,7,1603086480,16.093,259.0,15.17,2020-10-19 05:20:00,23.29,2020-10-19 12:32:00,15.89,2020-10-19 05:16:00,23.28,2020-10-19 12:41:00,
Lalitpur,Godavari,27.68333333,85.3,2020-10-19 00:00:00,Partly cloudy throughout the day.,partly-cloudy-day,2020-10-19 06:08:00,2020-10-19 17:32:00,0.11,0.1138,0.3735,2020-10-19 01:33:00,0.3,rain,25.04,2020-10-19 12:55:00,15.8,2020-10-20 05:48:00,25.14,2020-10-19 12:58:00,16.24,2020-10-20 05:46:00,18.59,0.94,1010.6,0.84,2.08,1603097400,71,0.43,7,1603087020,16.093,258.8,16.14,2020-10-19 05:47:00,25.04,2020-10-19 12:55:00,16.8,2020-10-19 05:44:00,25.14,2020-10-19 12:58:00,
Lalitpur,Khokana,27.65,85.38333333,2020-10-19 00:00:00,Partly cloudy throughout the day.,partly-cloudy-day,2020-10-19 06:07:00,2020-10-19 17:32:00,0.11,0.0935,0.258,2020-10-19 01:21:00,0.26,rain,25.16,2020-10-19 13:07:00,15.71,2020-10-20 06:00:00,25.2,2020-10-19 13:10:00,16.12,2020-10-20 05:55:00,18.32,0.93,1010.6,0.82,2.07,1603097640,50,0.44,7,1603087020,16.093,258.9,15.86,2020-10-19 05:45:00,25.16,2020-10-19 13:07:00,16.49,2020-10-19 05:43:00,25.2,2020-10-19 13:10:00,
Lalitpur,Khumaltar,27.5929167,85.3788333,2020-10-19 00:00:00,Partly cloudy throughout the day.,partly-cloudy-day,2020-10-19 06:07:00,2020-10-19 17:32:00,0.11,0.0764,0.1877,2020-10-19 17:43:00,0.23,rain,23.47,2020-10-19 12:51:00,14.99,2020-10-20 05:20:00,23.44,2020-10-19 12:55:00,15.49,2020-10-20 05:17:00,17.23,0.95,1010.5,0.9,2.05,1603097160,42,0.45,7,1603086780,16.093,258.9,14.9,2020-10-19 05:23:00,23.47,2020-10-19 12:51:00,15.59,2020-10-19 05:19:00,23.44,2020-10-19 12:55:00,
Lalitpur,Kritipur (Bagban),27.68333333,85.33333333,2020-10-19 00:00:00,Partly cloudy throughout the day.,partly-cloudy-day,2020-10-19 06:07:00,2020-10-19 17:32:00,0.11,0.1098,0.35,2020-10-19 01:31:00,0.29,rain,25.14,2020-10-19 13:14:00,15.73,2020-10-20 05:52:00,25.22,2020-10-19 13:18:00,16.14,2020-10-20 05:49:00,18.6,0.92,1010.7,0.82,2.08,1603097580,71,0.41,7,1603087020,16.093,258.8,16.27,2020-10-19 05:49:00,25.14,2020-10-19 13:14:00,16.91,2020-10-19 05:46:00,25.22,2020-10-19 13:18:00,
Lalitpur,Lalitpur (Kopundol),27.659325,85.3697083,2020-10-19 00:00:00,Partly cloudy throughout the day.,partly-cloudy-day,2020-10-19 06:07:00,2020-10-19 17:32:00,0.11,0.0978,0.2821,2020-10-19 01:25:00,0.27,rain,25.23,2020-10-19 13:11:00,15.75,2020-10-20 05:59:00,25.28,2020-10-19 13:14:00,16.16,2020-10-20 05:55:00,18.46,0.92,1010.7,0.82,2.07,1603097640,55,0.43,7,1603087020,16.093,258.9,16.03,2020-10-19 05:47:00,25.23,2020-10-19 13:11:00,16.66,2020-10-19 05:44:00,25.28,2020-10-19 13:14:00,
Lalitpur,Lubhu,27.60325833,85.32656389,2020-10-19 00:00:00,Partly cloudy throughout the day.,partly-cloudy-day,2020-10-19 06:07:00,2020-10-19 17:32:00,0.11,0.0831,0.1999,2020-10-19 01:31:00,0.24,rain,23.92,2020-10-19 12:42:00,15.53,2020-10-20 05:38:00,23.93,2020-10-19 12:48:00,16.05,2020-10-20 05:37:00,17.79,0.95,1010.5,0.91,2.06,1603096980,51,0.44,7,1603086720,16.093,258.9,15.5,2020-10-19 05:35:00,23.92,2020-10-19 12:42:00,16.2,2020-10-19 05:33:00,23.93,2020-10-19 12:48:00,
Lalitpur,Tikathali,27.576825,85.3540444,2020-10-19 00:00:00,Partly cloudy throughout the day.,partly-cloudy-day,2020-10-19 06:07:00,2020-10-19 17:32:00,0.11,0.0726,0.1952,2020-10-19 17:42:00,0.22,rain,22.8,2020-10-19 12:44:00,14.7,2020-10-20 05:04:00,22.76,2020-10-19 12:51:00,15.24,2020-10-20 05:01:00,16.92,0.95,1010.4,0.93,2.05,1603096980,44,0.45,7,1603086600,16.093,258.9,14.58,2020-10-19 05:13:00,22.8,2020-10-19 12:44:00,15.29,2020-10-19 05:09:00,22.76,2020-10-19 12:51:00,
Lamiung,Khudi Bazar,28.12677778,84.34494167,2020-10-19 00:00:00,Clear throughout the day.,clear-day,2020-10-19 06:12:00,2020-10-19 17:36:00,0.11,0.0972,0.3574,2020-10-19 00:39:00,0.29,rain,28.55,2020-10-19 14:01:00,16.52,2020-10-20 05:45:00,29.25,2020-10-19 14:06:00,16.79,2020-10-20 05:45:00,17.41,0.73,1010.5,1.0,1.81,1603088280,29,0.35,7,1603087200,16.093,260.2,18.46,2020-10-19 05:38:00,28.55,2020-10-19 14:01:00,18.83,2020-10-19 05:37:00,29.25,2020-10-19 14:06:00,
Lamjung,Besishahar,28.25596667,84.47929722,2020-10-18 21:45:00,Partly cloudy throughout the day.,partly-cloudy-day,2020-10-19 06:11:00,2020-10-19 17:35:00,0.11,0.087,0.2423,2020-10-19 16:35:00,0.25,rain,24.22,2020-10-19 14:05:00,16.22,2020-10-20 05:05:00,24.13,2020-10-19 14:07:00,16.49,2020-10-20 05:05:00,14.55,0.75,1011.6,1.29,2.23,1603087800,34,0.46,6,1603086600,14.29,257.8,15.84,2020-10-19 05:06:00,24.22,2020-10-19 14:05:00,16.11,2020-10-19 05:06:00,24.13,2020-10-19 14:07:00,
Lamjung,Bhorletar,28.21813889,84.24153889,2020-10-19 00:00:00,Clear throughout the day.,clear-day,2020-10-19 06:12:00,2020-10-19 17:36:00,0.11,0.1031,0.3146,2020-10-19 00:49:00,0.24,rain,26.08,2020-10-19 14:10:00,15.49,2020-10-20 05:32:00,25.85,2020-10-19 14:15:00,15.76,2020-10-20 05:32:00,13.95,0.7,1010.7,1.23,2.31,1603131300,9,0.37,7,1603087800,15.943,259.7,15.96,2020-10-19 05:05:00,26.08,2020-10-19 14:10:00,16.23,2020-10-19 05:05:00,25.85,2020-10-19 14:15:00,
Lamjung,Faleni,28.30964722,84.26600278,2020-10-19 00:00:00,Clear throughout the day.,clear-day,2020-10-19 06:12:00,2020-10-19 17:36:00,0.11,0.0845,0.2088,2020-10-19 00:51:00,0.23,rain,23.62,2020-10-19 13:48:00,13.68,2020-10-20 05:46:00,23.4,2020-10-19 13:57:00,13.95,2020-10-20 05:46:00,13.18,0.72,1011.7,1.33,2.38,1603123680,16,0.38,7,1603087140,15.288,257.5,14.34,2020-10-19 05:21:00,23.62,2020-10-19 13:48:00,14.61,2020-10-19 05:21:00,23.4,2020-10-19 13:57:00,
Lamjung,Gausala,28.07621667,84.47669444,2020-10-19 00:00:00,Partly cloudy throughout the day.,partly-cloudy-day,2020-10-19 06:11:00,2020-10-19 17:35:00,0.11,0.1102,0.4128,2020-10-19 02:27:00,0.34,rain,29.0,2020-10-19 14:41:00,17.71,2020-10-20 05:43:00,30.23,2020-10-19 14:47:00,17.98,2020-10-20 05:43:00,19.45,0.78,1010.4,0.93,1.63,1603063200,76,0.34,7,1603087080,16.093,260.5,19.69,2020-10-19 06:00:00,29.0,2020-10-19 14:41:00,20.35,2020-10-19 05:54:00,30.23,2020-10-19 14:47:00,
Lamjung,Gharedhunga,28.282208299999997,84.3454164,2020-10-19 00:00:00,Partly cloudy throughout the day.,partly-cloudy-day,2020-10-19 06:12:00,2020-10-19 17:35:00,0.11,0.0885,0.2108,2020-10-19 16:06:00,0.24,rain,24.96,2020-10-19 13:48:00,16.19,2020-10-20 05:43:00,24.76,2020-10-19 13:50:00,16.46,2020-10-20 05:43:00,14.29,0.71,1011.5,1.31,2.22,1603087920,19,0.41,7,1603087140,15.037,258.0,16.33,2020-10-19 05:15:00,24.96,2020-10-19 13:48:00,16.6,2020-10-19 05:15:00,24.76,2020-10-19 13:50:00,
Mahottari,Chisapani Gadhi,26.65224722,85.807275,2020-10-19 00:00:00,Humid throughout the day.,clear-day,2020-10-19 06:05:00,2020-10-19 17:31:00,0.11,0.0063,0.0385,2020-10-19 20:43:00,0.04,rain,32.99,2020-10-19 14:07:00,22.21,2020-10-20 05:30:00,35.6,2020-10-19 12:57:00,23.09,2020-10-20 05:30:00,21.2,0.7,1007.3,1.88,2.57,1603086300,110,0.27,8,1603087200,16.093,261.7,22.73,2020-10-19 03:52:00,32.99,2020-10-19 14:07:00,23.73,2020-10-19 03:51:00,35.6,2020-10-19 12:57:00,
Mahottari,Jalesore,26.88333333,85.78333333,2020-10-19 00:00:00,Humid throughout the day.,clear-day,2020-10-19 06:05:00,2020-10-19 17:31:00,0.11,0.0094,0.0631,2020-10-19 20:44:00,0.05,rain,33.22,2020-10-19 14:12:00,22.4,2020-10-20 05:41:00,35.87,2020-10-19 13:09:00,23.25,2020-10-20 05:41:00,21.13,0.7,1007.5,1.83,2.66,1603088040,97,0.25,8,1603087380,16.093,261.9,22.55,2020-10-19 05:22:00,33.22,2020-10-19 14:12:00,23.48,2020-10-19 05:22:00,35.87,2020-10-19 13:09:00,
Makwanpur,Daman,27.5599456,85.1386067,2020-10-19 00:00:00,Partly cloudy throughout the day.,partly-cloudy-day,2020-10-19 06:08:00,2020-10-19 17:33:00,0.11,0.0594,0.1588,2020-10-19 15:33:00,0.19,rain,22.99,2020-10-19 11:57:00,15.14,2020-10-20 04:53:00,22.89,2020-10-19 11:58:00,15.51,2020-10-20 04:50:00,16.96,0.95,1010.0,0.99,2.04,1603096920,57,0.39,7,1603086660,16.093,259.3,15.0,2020-10-19 04:58:00,22.99,2020-10-19 11:57:00,15.67,2020-10-19 04:55:00,22.89,2020-10-19 11:58:00,
Makwanpur,Hetanuda(Ind. Dist),27.619,85.1496,2020-10-19 00:00:00,Partly cloudy throughout the day.,partly-cloudy-day,2020-10-19 06:08:00,2020-10-19 17:33:00,0.11,0.0821,0.2127,2020-10-19 01:26:00,0.25,rain,22.93,2020-10-19 12:10:00,15.02,2020-10-20 04:49:00,22.85,2020-10-19 12:13:00,15.41,2020-10-20 04:49:00,17.06,0.95,1010.2,0.93,2.01,1603096980,63,0.4,7,1603086780,16.093,259.1,15.05,2020-10-19 05:00:00,22.93,2020-10-19 12:10:00,15.73,2020-10-19 04:58:00,22.85,2020-10-19 12:13:00,
Makwanpur,Makwanpur Gadhi,27.43333333,85.03333333,2020-10-19 00:00:00,Partly cloudy throughout the day.,partly-cloudy-day,2020-10-19 06:08:00,2020-10-19 17:33:00,0.11,0.0229,0.0848,2020-10-19 17:37:00,0.08,rain,29.76,2020-10-19 12:16:00,20.49,2020-10-20 05:42:00,31.54,2020-10-19 12:50:00,20.98,2020-10-20 05:43:00,20.52,0.78,1009.2,1.18,2.34,1603097580,57,0.31,7,1603086900,16.093,260.5,20.83,2020-10-19 05:26:00,29.76,2020-10-19 12:16:00,21.55,2020-10-19 05:27:00,31.54,2020-10-19 12:50:00,
Makwanpur,Manang Bhot,27.635081899999996,84.7416103,2020-10-19 00:00:00,Partly cloudy throughout the day.,partly-cloudy-day,2020-10-19 06:10:00,2020-10-19 17:34:00,0.11,0.0364,0.2401,2020-10-19 00:00:00,0.21,rain,28.7,2020-10-19 12:46:00,18.85,2020-10-20 05:39:00,29.82,2020-10-19 12:43:00,19.27,2020-10-20 05:38:00,19.55,0.81,1009.3,1.04,1.89,1603131300,31,0.33,7,1603086900,16.093,260.6,19.83,2020-10-19 05:32:00,28.7,2020-10-19 12:46:00,20.75,2020-10-19 05:29:00,29.82,2020-10-19 12:43:00,
Makwanpur,Markhu Gaun,27.4227,85.0279,2020-10-19 00:00:00,Humid and partly cloudy throughout the day.,partly-cloudy-day,2020-10-19 06:08:00,2020-10-19 17:33:00,0.11,0.0216,0.0782,2020-10-19 17:37:00,0.07,rain,29.85,2020-10-19 12:29:00,20.54,2020-10-20 05:43:00,31.73,2020-10-19 13:01:00,21.01,2020-10-20 05:43:00,20.5,0.77,1009.1,1.21,2.39,1603097640,57,0.31,7,1603086900,16.093,260.6,20.92,2020-10-19 05:27:00,29.85,2020-10-19 12:29:00,21.64,2020-10-19 05:28:00,31.73,2020-10-19 13:01:00,
Manang,Goga,28.63989694,84.08811583,2020-10-19 00:00:00,Clear throughout the day.,clear-day,2020-10-19 06:13:00,2020-10-19 17:36:00,0.11,0.0153,0.0689,2020-10-19 14:56:00,0.18,rain,9.69,2020-10-19 12:17:00,-0.57,2020-10-20 05:34:00,8.57,2020-10-19 12:18:00,-2.19,2020-10-20 05:30:00,4.29,1.0,1015.0,1.2,2.81,1603089120,166,0.26,9,1603086960,14.732,249.6,1.02,2020-10-20 00:00:00,9.69,2020-10-19 12:17:00,1.29,2020-10-20 00:00:00,8.57,2020-10-19 12:18:00,
Manang,Humde,28.66627083,84.02257194,2020-10-19 00:00:00,Clear throughout the day.,clear-day,2020-10-19 06:14:00,2020-10-19 17:36:00,0.11,0.0105,0.0399,2020-10-19 15:06:00,0.17,rain,9.75,2020-10-19 12:27:00,-1.54,2020-10-20 05:33:00,8.68,2020-10-19 12:30:00,-1.27,2020-10-20 05:33:00,4.01,1.0,1015.0,1.21,2.8,1603089180,194,0.21,9,1603087080,15.571,249.4,0.73,2020-10-20 00:00:00,9.75,2020-10-19 12:27:00,1.0,2020-10-20 00:00:00,8.68,2020-10-19 12:30:00,
Manang,Naar,28.76666667,84.28333333,2020-10-19 00:00:00,Foggy in the afternoon.,fog,2020-10-19 06:13:00,2020-10-19 17:35:00,0.11,0.0186,0.1196,2020-10-19 14:54:00,0.21,rain,5.07,2020-10-19 12:47:00,-7.25,2020-10-20 06:25:00,3.13,2020-10-19 12:43:00,-9.41,2020-10-20 05:45:00,-1.1,1.0,1016.3,1.14,3.37,1603093440,137,0.3,10,1603087260,11.353,247.8,-5.23,2020-10-19 06:22:00,5.07,2020-10-19 12:47:00,-4.96,2020-10-19 06:22:00,3.13,2020-10-19 12:43:00,
Manang,Phu Gaun,28.55,84.2333333,2020-10-19 00:00:00,Partly cloudy throughout the day.,partly-cloudy-day,2020-10-19 06:13:00,2020-10-19 17:36:00,0.11,0.0225,0.1064,2020-10-19 14:46:00,0.2,rain,10.79,2020-10-19 11:53:00,2.78,2020-10-20 05:40:00,10.69,2020-10-19 12:08:00,0.81,2020-10-20 05:39:00,6.35,1.0,1014.8,1.26,2.73,1603088100,44,0.35,9,1603086600,13.888,250.7,3.31,2020-10-19 23:46:00,10.79,2020-10-19 11:53:00,2.44,2020-10-19 23:44:00,10.69,2020-10-19 12:08:00,
Morang,Biratnagar,29.2160678,83.983333,2020-10-18 21:45:00,Clear throughout the day.,clear-day,2020-10-19 06:14:00,2020-10-19 17:36:00,0.11,0.0014,0.0051,2020-10-19 17:43:00,0.07,rain,13.66,2020-10-19 13:27:00,-7.31,2020-10-20 05:33:00,13.38,2020-10-19 13:27:00,-7.04,2020-10-20 05:33:00,-5.52,0.64,1015.6,2.5,8.97,1603097580,216,0.11,9,1603087680,16.093,250.1,-5.33,2020-10-19 05:21:00,13.66,2020-10-19 13:27:00,-7.68,2020-10-19 05:12:00,13.38,2020-10-19 13:27:00,
Morang,Biratnagar Airport,26.61000889,87.37074778,2020-10-19 00:00:00,Humid throughout the day.,clear-day,2020-10-19 05:58:00,2020-10-19 17:25:00,0.11,0.0177,0.0742,2020-10-19 23:55:00,0.11,rain,33.32,2020-10-19 14:13:00,23.12,2020-10-20 05:29:00,37.17,2020-10-19 14:03:00,23.95,2020-10-20 05:28:00,22.25,0.73,1007.7,1.51,2.98,1603097400,67,0.2,8,1603086720,16.093,259.4,23.93,2020-10-19 05:21:00,33.32,2020-10-19 14:13:00,24.95,2020-10-19 05:19:00,37.17,2020-10-19 14:03:00,
Morang,Gam Shree Nagar,26.73416667,87.50166667,2020-10-19 00:00:00,Humid throughout the day.,clear-day,2020-10-19 05:58:00,2020-10-19 17:24:00,0.11,0.0296,0.1256,2020-10-19 05:42:00,0.14,rain,32.97,2020-10-19 13:53:00,23.56,2020-10-20 05:50:00,36.74,2020-10-19 14:10:00,24.33,2020-10-20 05:48:00,22.09,0.73,1008.2,1.59,2.87,1603127160,36,0.21,7,1603086540,16.093,258.7,23.55,2020-10-19 05:27:00,32.97,2020-10-19 13:53:00,24.46,2020-10-19 05:27:00,36.74,2020-10-19 14:10:00,
Morang,Haraincha,28.46717,84.37307390000001,2020-10-19 00:00:00,Foggy in the morning and afternoon.,fog,2020-10-19 06:12:00,2020-10-19 17:35:00,0.11,0.0325,0.1022,2020-10-19 14:46:00,0.25,rain,12.7,2020-10-19 11:57:00,5.79,2020-10-20 06:02:00,12.42,2020-10-19 11:57:00,4.83,2020-10-20 05:56:00,7.55,0.92,1014.1,1.26,2.42,1603087920,35,0.41,7,1603086720,13.202,252.2,5.99,2020-10-19 23:46:00,12.7,2020-10-19 11:57:00,5.52,2020-10-19 23:39:00,12.42,2020-10-19 11:57:00,
Morang,Letang,26.46666667,87.28333333,2020-10-19 00:00:00,Humid throughout the day.,clear-day,2020-10-19 05:59:00,2020-10-19 17:25:00,0.11,0.0081,0.024,2020-10-19 02:43:00,0.09,rain,32.81,2020-10-19 14:07:00,21.84,2020-10-20 05:31:00,35.77,2020-10-19 13:29:00,22.68,2020-10-20 05:31:00,21.84,0.73,1007.7,1.5,3.21,1603097040,123,0.21,8,1603086600,16.093,259.6,23.53,2020-10-19 05:28:00,32.81,2020-10-19 14:07:00,24.61,2020-10-19 05:27:00,35.77,2020-10-19 13:29:00,
Morang,Mugu,26.483967,87.26700600000001,2020-10-19 00:00:00,Humid throughout the day.,clear-day,2020-10-19 05:59:00,2020-10-19 17:25:00,0.11,0.0069,0.0269,2020-10-19 02:40:00,0.09,rain,32.85,2020-10-19 14:07:00,21.84,2020-10-20 05:32:00,35.86,2020-10-19 13:28:00,22.69,2020-10-20 05:32:00,21.88,0.73,1007.7,1.49,3.22,1603096800,123,0.21,8,1603086540,16.093,259.7,23.57,2020-10-19 05:26:00,32.85,2020-10-19 14:07:00,24.65,2020-10-19 05:25:00,35.86,2020-10-19 13:28:00,
Mugu,Jomsom,29.50867889,81.89267389,2020-10-19 00:00:00,Clear throughout the day.,clear-day,2020-10-19 06:23:00,2020-10-19 17:44:00,0.11,0.0015,0.0051,2020-10-19 17:46:00,0.02,rain,24.57,2020-10-19 13:42:00,7.96,2020-10-20 05:37:00,24.29,2020-10-19 13:42:00,8.23,2020-10-20 05:37:00,4.73,0.55,1013.3,1.15,3.55,1603097700,148,0.09,8,1603088160,16.093,256.1,8.02,2020-10-19 05:24:00,24.57,2020-10-19 13:42:00,8.29,2020-10-19 05:24:00,24.29,2020-10-19 13:42:00,
Mugu,Mangri,29.540125,82.081825,2020-10-19 00:00:00,Clear throughout the day.,clear-day,2020-10-19 06:22:00,2020-10-19 17:43:00,0.11,0.0015,0.0051,2020-10-19 17:45:00,0.02,rain,17.84,2020-10-19 13:29:00,4.31,2020-10-20 05:00:00,17.56,2020-10-19 13:29:00,3.47,2020-10-20 05:12:00,0.38,0.59,1013.5,1.39,3.8,1603096260,77,0.07,9,1603088160,16.093,255.0,4.55,2020-10-19 05:03:00,17.84,2020-10-19 13:29:00,3.79,2020-10-19 05:07:00,17.56,2020-10-19 13:29:00,
Mugu,Rara,29.75,82.55,2020-10-19 00:00:00,Clear throughout the day.,clear-day,2020-10-19 06:20:00,2020-10-19 17:41:00,0.11,0.0015,0.0051,2020-10-19 17:45:00,0.06,snow,3.41,2020-10-19 12:47:00,-7.54,2020-10-20 05:25:00,0.32,2020-10-19 12:43:00,-7.27,2020-10-20 05:25:00,-4.71,0.9,1016.6,1.65,7.63,1603092540,175,0.05,10,1603088040,16.093,249.8,-6.78,2020-10-19 05:29:00,3.41,2020-10-19 12:47:00,-6.51,2020-10-19 05:29:00,0.32,2020-10-19 12:43:00,0.0
Mugu,Seroge,29.58904306,82.30580306,2020-10-19 00:00:00,Clear throughout the day.,clear-day,2020-10-19 06:21:00,2020-10-19 17:42:00,0.11,0.0015,0.0051,2020-10-19 17:45:00,0.04,rain,14.96,2020-10-19 13:00:00,3.17,2020-10-20 05:43:00,14.68,2020-10-19 13:00:00,2.01,2020-10-20 05:39:00,-0.08,0.63,1015.3,1.54,5.01,1603093560,75,0.07,9,1603088100,16.093,252.6,3.16,2020-10-19 04:58:00,14.96,2020-10-19 13:00:00,2.09,2020-10-19 05:06:00,14.68,2020-10-19 13:00:00,
Mustang,Lete,28.78401111,83.72981667,2020-10-19 00:00:00,Clear throughout the day.,clear-day,2020-10-19 06:15:00,2020-10-19 17:37:00,0.11,0.0051,0.0161,2020-10-19 17:23:00,0.23,rain,8.02,2020-10-19 12:34:00,0.72,2020-10-20 04:54:00,5.44,2020-10-19 12:38:00,0.0,2020-10-20 01:27:00,4.01,0.99,1015.4,2.14,6.27,1603089420,245,0.15,9,1603087500,15.693,250.8,1.38,2020-10-19 05:10:00,8.02,2020-10-19 12:34:00,-0.12,2020-10-19 05:19:00,5.44,2020-10-19 12:38:00,
Mustang,Mustang(Lomangthang),28.81555556,83.86222222,2020-10-19 00:00:00,Clear throughout the day.,clear-day,2020-10-19 06:14:00,2020-10-19 17:37:00,0.11,0.0034,0.0101,2020-10-19 17:19:00,0.17,rain,9.29,2020-10-19 12:42:00,-1.47,2020-10-20 05:33:00,7.39,2020-10-19 12:42:00,-1.95,2020-10-20 02:32:00,3.44,0.97,1015.4,1.88,5.18,1603090980,229,0.12,9,1603087620,16.082,250.1,0.4,2020-10-19 05:09:00,9.29,2020-10-19 12:42:00,-1.17,2020-10-19 05:14:00,7.39,2020-10-19 12:42:00,
Mustang,Ranipauwa (M.Nath),28.73887222,83.68183333,2020-10-19 00:00:00,Clear throughout the day.,clear-day,2020-10-19 06:15:00,2020-10-19 17:38:00,0.11,0.0078,0.0231,2020-10-19 17:03:00,0.25,rain,7.62,2020-10-19 12:35:00,0.46,2020-10-20 04:49:00,5.11,2020-10-19 12:42:00,-0.43,2020-10-20 01:29:00,3.47,0.98,1015.2,1.99,5.65,1603089000,253,0.16,9,1603087440,14.684,250.9,0.9,2020-10-19 05:08:00,7.62,2020-10-19 12:35:00,-0.58,2020-10-19 05:17:00,5.11,2020-10-19 12:42:00,
Mustang,Tatopani,28.9,83.68333333,2020-10-19 00:00:00,Clear throughout the day.,clear-day,2020-10-19 06:15:00,2020-10-19 17:37:00,0.11,0.0035,0.0109,2020-10-19 17:31:00,0.14,rain,8.74,2020-10-19 12:45:00,-3.29,2020-10-20 05:29:00,6.42,2020-10-19 12:43:00,-4.47,2020-10-20 03:32:00,1.13,0.91,1015.7,2.3,6.93,1603092480,249,0.15,10,1603087620,16.093,249.8,-1.22,2020-10-19 05:21:00,8.74,2020-10-19 12:45:00,-3.25,2020-10-19 05:22:00,6.42,2020-10-19 12:43:00,
Myagdi,Bega,28.4,83.73333333,2020-10-19 00:00:00,Partly cloudy throughout the day.,partly-cloudy-day,2020-10-19 06:14:00,2020-10-19 17:38:00,0.11,0.0556,0.1921,2020-10-19 16:20:00,0.2,rain,16.75,2020-10-19 12:48:00,8.12,2020-10-19 21:45:00,16.47,2020-10-19 12:48:00,8.11,2020-10-20 01:45:00,9.59,0.9,1012.1,1.16,2.29,1603088220,205,0.56,7,1603087200,15.73,255.3,8.12,2020-10-19 21:45:00,16.75,2020-10-19 12:48:00,8.39,2020-10-19 21:45:00,16.47,2020-10-19 12:48:00,
Myagdi,Beni Bazar,29.22713194,83.979815,2020-10-18 21:45:00,Clear throughout the day.,clear-day,2020-10-19 06:14:00,2020-10-19 17:36:00,0.11,0.0014,0.0051,2020-10-19 17:43:00,0.07,rain,13.53,2020-10-19 13:28:00,-7.71,2020-10-20 05:34:00,13.25,2020-10-19 13:28:00,-7.44,2020-10-20 05:34:00,-5.88,0.64,1015.7,2.52,9.21,1603097520,218,0.11,9,1603087680,16.093,250.1,-5.74,2020-10-19 05:25:00,13.53,2020-10-19 13:28:00,-8.14,2020-10-19 05:15:00,13.25,2020-10-19 13:28:00,
Myagdi,Dumkauli,28.56666667,83.38333333,2020-10-19 00:00:00,Foggy in the afternoon.,fog,2020-10-19 06:16:00,2020-10-19 17:39:00,0.11,0.0519,0.1745,2020-10-19 00:49:00,0.24,rain,14.64,2020-10-19 12:10:00,6.0,2020-10-20 06:20:00,14.36,2020-10-19 12:10:00,4.59,2020-10-20 05:29:00,6.25,0.78,1013.5,1.88,3.0,1603088040,352,0.52,7,1603087140,13.803,253.7,7.2,2020-10-20 00:00:00,14.64,2020-10-19 12:10:00,6.15,2020-10-20 00:00:00,14.36,2020-10-19 12:10:00,
Myagdi,Ghorepani,28.35083333,83.56666667,2020-10-19 00:00:00,Partly cloudy throughout the day.,partly-cloudy-day,2020-10-19 06:15:00,2020-10-19 17:38:00,0.11,0.0849,0.209,2020-10-19 16:31:00,0.23,rain,22.34,2020-10-19 12:46:00,13.74,2020-10-20 06:12:00,22.06,2020-10-19 12:46:00,14.01,2020-10-20 06:12:00,10.55,0.65,1012.0,1.32,2.11,1603088340,330,0.63,6,1603087380,15.586,256.7,14.35,2020-10-20 00:00:00,22.34,2020-10-19 12:46:00,14.62,2020-10-20 00:00:00,22.06,2020-10-19 12:46:00,
Myagdi,Muna,28.44271389,83.576185,2020-10-19 00:00:00,Partly cloudy throughout the day.,partly-cloudy-day,2020-10-19 06:15:00,2020-10-19 17:38:00,0.11,0.0672,0.1768,2020-10-19 00:52:00,0.23,rain,19.71,2020-10-19 12:29:00,12.11,2020-10-20 05:41:00,19.43,2020-10-19 12:29:00,12.38,2020-10-20 05:41:00,9.76,0.69,1012.4,1.5,2.32,1603087620,339,0.65,7,1603087080,15.188,255.6,12.8,2020-10-20 00:00:00,19.71,2020-10-19 12:29:00,13.07,2020-10-20 00:00:00,19.43,2020-10-19 12:29:00,
Nawalparasi,Bara Ghat,27.680675,84.22854170000001,2020-10-19 00:00:00,Humid throughout the day.,clear-day,2020-10-19 06:12:00,2020-10-19 17:36:00,0.11,0.0477,0.8379,2020-10-19 00:00:00,0.22,rain,33.27,2020-10-19 14:00:00,20.31,2020-10-20 05:32:00,36.14,2020-10-19 13:56:00,21.03,2020-10-20 05:33:00,21.77,0.77,1008.7,1.2,2.18,1603103640,9,0.2,7,1603087500,16.093,261.6,22.37,2020-10-19 05:35:00,33.27,2020-10-19 14:00:00,23.45,2020-10-19 05:34:00,36.14,2020-10-19 13:56:00,
Nawalparasi,Dumkibas,27.51925,83.66218333,2020-10-19 00:00:00,Clear throughout the day.,clear-day,2020-10-19 06:14:00,2020-10-19 17:39:00,0.11,0.0031,0.0087,2020-10-19 00:00:00,0.04,rain,33.25,2020-10-19 14:18:00,20.48,2020-10-20 05:28:00,34.7,2020-10-19 13:39:00,20.84,2020-10-20 05:27:00,19.58,0.67,1007.7,1.55,4.79,1603099500,16,0.17,8,1603087140,16.093,262.8,21.49,2020-10-19 05:39:00,33.25,2020-10-19 14:18:00,22.45,2020-10-19 05:42:00,34.7,2020-10-19 13:39:00,
Nawalparasi,Parasi,27.67488333,84.07438333,2020-10-19 00:00:00,Humid throughout the day.,clear-day,2020-10-19 06:12:00,2020-10-19 17:37:00,0.11,0.022,0.4036,2020-10-19 00:00:00,0.17,rain,32.55,2020-10-19 13:58:00,19.32,2020-10-20 05:30:00,34.99,2020-10-19 13:56:00,19.9,2020-10-20 05:33:00,21.18,0.77,1008.8,1.29,2.39,1603099500,6,0.23,7,1603087680,16.093,261.6,21.4,2020-10-19 05:35:00,32.55,2020-10-19 13:58:00,22.4,2020-10-19 05:34:00,34.99,2020-10-19 13:56:00,
Nawalparasi,Rambas,27.56666667,82.95,2020-10-19 00:00:00,Clear throughout the day.,clear-day,2020-10-19 06:17:00,2020-10-19 17:42:00,0.11,0.0015,0.0051,2020-10-19 17:45:00,0.02,rain,33.94,2020-10-19 13:59:00,19.02,2020-10-20 05:24:00,33.66,2020-10-19 13:59:00,19.29,2020-10-20 05:24:00,16.19,0.57,1007.4,1.74,4.26,1603098600,349,0.14,8,1603087980,16.093,263.3,19.75,2020-10-19 05:01:00,33.94,2020-10-19 13:59:00,20.42,2020-10-19 05:03:00,33.66,2020-10-19 13:59:00,
Nawalparasi,Trisuli,27.68333333,84.13333333,2020-10-19 00:00:00,Humid throughout the day.,clear-day,2020-10-19 06:12:00,2020-10-19 17:37:00,0.11,0.0327,0.5864,2020-10-19 00:00:00,0.2,rain,32.54,2020-10-19 13:59:00,19.64,2020-10-20 05:33:00,34.95,2020-10-19 13:58:00,20.22,2020-10-20 05:34:00,21.22,0.77,1008.8,1.24,2.25,1603100400,7,0.22,7,1603087620,16.093,261.6,21.72,2020-10-19 05:35:00,32.54,2020-10-19 13:59:00,22.74,2020-10-19 05:33:00,34.95,2020-10-19 13:58:00,
