district,formal_name,lat,long,time,summary,icon,sunriseTime,sunsetTime,moonPhase,precipIntensity,precipIntensityMax,precipIntensityMaxTime,precipProbability,precipType,temperatureHigh,temperatureHighTime,temperatureLow,temperatureLowTime,apparentTemperatureHigh,apparentTemperatureHighTime,apparentTemperatureLow,apparentTemperatureLowTime,dewPoint,humidity,pressure,windSpeed,windGust,windGustTime,windBearing,cloudCover,uvIndex,uvIndexTime,visibility,ozone,temperatureMin,temperatureMinTime,temperatureMax,temperatureMaxTime,apparentTemperatureMin,apparentTemperatureMinTime,apparentTemperatureMax,apparentTemperatureMaxTime,precipAccumulation
Achham,Asara Ghat,28.95029444,81.44431944,2020-10-16 00:00:00,Clear throughout the day.,clear-day,2020-10-16 06:22:00,2020-10-16 17:49:00,0.99,0.0012,0.0051,2020-10-16 02:45:00,0.01,rain,31.27,2020-10-16 13:48:00,18.79,2020-10-17 05:42:00,30.99,2020-10-16 13:48:00,19.06,2020-10-17 05:42:00,14.0,0.57,1010.1,1.48,3.42,1602803640,46,0.03,8,1602828600,16.093,251.3,17.93,2020-10-16 05:39:00,31.27,2020-10-16 13:48:00,18.2,2020-10-16 05:39:00,30.99,2020-10-16 13:48:00,
Achham,Basti,29.03098333,81.17113333,2020-10-16 00:00:00,Clear throughout the day.,clear-day,2020-10-16 06:23:00,2020-10-16 17:50:00,0.99,0.0014,0.0051,2020-10-16 02:45:00,0.01,rain,32.63,2020-10-16 13:54:00,18.91,2020-10-17 05:42:00,32.34,2020-10-16 13:51:00,19.18,2020-10-17 05:42:00,15.63,0.61,1010.0,1.21,2.53,1602804240,15,0.09,8,1602829860,16.093,250.7,17.94,2020-10-16 05:51:00,32.63,2020-10-16 13:54:00,18.21,2020-10-16 05:51:00,32.34,2020-10-16 13:51:00,
Achham,Mangalsen,29.13611389,81.25009167,2020-10-16 00:00:00,Clear throughout the day.,clear-day,2020-10-16 06:23:00,2020-10-16 17:50:00,0.99,0.0014,0.0051,2020-10-16 02:47:00,0.01,rain,29.19,2020-10-16 13:50:00,17.5,2020-10-17 06:03:00,28.91,2020-10-16 13:50:00,17.77,2020-10-17 06:03:00,11.49,0.55,1010.4,1.27,2.68,1602804180,42,0.06,8,1602829260,16.093,250.1,16.42,2020-10-16 05:44:00,29.19,2020-10-16 13:50:00,16.69,2020-10-16 05:44:00,28.91,2020-10-16 13:50:00,
Achham,Sugali,29.17980694,81.37293889,2020-10-16 00:00:00,Clear throughout the day.,clear-day,2020-10-16 06:23:00,2020-10-16 17:50:00,0.99,0.0013,0.0051,2020-10-16 02:46:00,0.01,rain,26.43,2020-10-16 13:47:00,15.62,2020-10-17 06:18:00,26.15,2020-10-16 13:47:00,15.89,2020-10-17 06:18:00,9.64,0.58,1011.0,1.5,3.55,1602804060,45,0.11,8,1602828900,16.093,249.0,14.36,2020-10-16 05:30:00,26.43,2020-10-16 13:47:00,14.63,2020-10-16 05:30:00,26.15,2020-10-16 13:47:00,
Arghakhanchi,Rangsing,27.80330278,82.78400833,2020-10-16 00:00:00,Clear throughout the day.,clear-day,2020-10-16 06:16:00,2020-10-16 17:45:00,0.99,0.0072,0.0276,2020-10-16 12:39:00,0.02,rain,33.16,2020-10-16 14:08:00,21.92,2020-10-17 05:22:00,34.69,2020-10-16 14:25:00,22.27,2020-10-17 05:23:00,19.6,0.66,1007.7,1.6,2.8,1602839040,38,0.12,7,1602829800,16.093,258.2,21.25,2020-10-16 04:37:00,33.16,2020-10-16 14:08:00,21.76,2020-10-16 04:47:00,34.69,2020-10-16 14:25:00,
Arghakhanchi,Sandhikharka,27.96402222,83.12056944,2020-10-16 00:00:00,Partly cloudy throughout the day.,partly-cloudy-day,2020-10-16 06:15:00,2020-10-16 17:44:00,0.99,0.0202,0.0964,2020-10-16 15:56:00,0.05,rain,28.46,2020-10-16 13:39:00,18.4,2020-10-17 05:41:00,28.17,2020-10-16 13:47:00,18.67,2020-10-17 05:41:00,15.34,0.67,1009.4,1.27,2.05,1602838080,11,0.19,7,1602828840,16.093,256.1,17.31,2020-10-16 05:16:00,28.46,2020-10-16 13:39:00,17.58,2020-10-16 05:16:00,28.17,2020-10-16 13:47:00,
Arghakhanchi,Sidhara,27.7945,82.82838333,2020-10-16 00:00:00,Clear throughout the day.,clear-day,2020-10-16 06:16:00,2020-10-16 17:45:00,0.99,0.0093,0.0292,2020-10-16 08:57:00,0.02,rain,32.53,2020-10-16 14:07:00,22.12,2020-10-17 05:28:00,33.63,2020-10-16 14:25:00,22.42,2020-10-17 05:30:00,18.91,0.65,1007.6,1.6,2.74,1602838920,38,0.11,7,1602830340,16.093,258.2,21.45,2020-10-16 04:40:00,32.53,2020-10-16 14:07:00,21.89,2020-10-16 04:49:00,33.63,2020-10-16 14:25:00,
Baglung,Baglung,28.26363611,83.60032222,2020-10-16 00:00:00,Partly cloudy throughout the day.,partly-cloudy-day,2020-10-16 06:13:00,2020-10-16 17:41:00,0.99,0.0493,0.2122,2020-10-16 16:46:00,0.13,rain,26.34,2020-10-16 13:42:00,16.19,2020-10-17 06:04:00,26.06,2020-10-16 13:42:00,16.46,2020-10-17 06:04:00,13.32,0.66,1011.6,1.28,2.19,1602801480,317,0.33,7,1602828120,15.992,252.6,15.91,2020-10-16 05:55:00,26.34,2020-10-16 13:42:00,16.18,2020-10-16 05:55:00,26.06,2020-10-16 13:42:00,
Baglung,Dhorpatan,28.48333333,83.08333333,2020-10-16 00:00:00,Partly cloudy throughout the day.,partly-cloudy-day,2020-10-16 06:15:00,2020-10-16 17:43:00,0.99,0.023,0.081,2020-10-16 14:52:00,0.15,rain,16.59,2020-10-16 12:48:00,8.07,2020-10-17 06:07:00,16.31,2020-10-16 12:50:00,7.56,2020-10-17 05:56:00,10.34,0.97,1012.8,1.53,2.37,1602837000,19,0.41,8,1602827760,14.931,248.2,7.14,2020-10-16 05:55:00,16.59,2020-10-16 12:48:00,6.36,2020-10-16 05:49:00,16.31,2020-10-16 12:50:00,
Baglung,Galkot,28.21869167,83.41881111,2020-10-16 00:00:00,Partly cloudy throughout the day.,partly-cloudy-day,2020-10-16 06:14:00,2020-10-16 17:42:00,0.99,0.0516,0.2262,2020-10-16 16:44:00,0.13,rain,25.65,2020-10-16 13:41:00,14.88,2020-10-17 06:19:00,25.37,2020-10-16 13:41:00,15.15,2020-10-17 06:19:00,11.64,0.64,1011.3,1.34,2.02,1602864420,333,0.36,7,1602828120,16.093,252.9,14.42,2020-10-16 05:40:00,25.65,2020-10-16 13:41:00,14.69,2020-10-16 05:40:00,25.37,2020-10-16 13:41:00,
Baglung,Rangkhani,28.14408889,83.55824444,2020-10-16 00:00:00,Partly cloudy throughout the day.,partly-cloudy-day,2020-10-16 06:13:00,2020-10-16 17:42:00,0.99,0.0417,0.1507,2020-10-16 16:45:00,0.12,rain,23.9,2020-10-16 13:39:00,15.18,2020-10-17 05:37:00,23.62,2020-10-16 13:39:00,15.45,2020-10-17 05:37:00,12.4,0.7,1010.6,1.18,1.94,1602801960,320,0.29,7,1602828180,16.093,254.2,14.82,2020-10-16 05:31:00,23.9,2020-10-16 13:39:00,15.09,2020-10-16 05:31:00,23.62,2020-10-16 13:39:00,
Baitadi,Patan (West),29.467137,80.54575109999999,2020-10-16 00:00:00,Clear throughout the day.,clear-day,2020-10-16 06:26:00,2020-10-16 17:53:00,0.99,0.0014,0.0051,2020-10-16 02:45:00,0.01,rain,29.07,2020-10-16 13:40:00,14.09,2020-10-17 05:38:00,28.79,2020-10-16 13:40:00,14.36,2020-10-17 05:38:00,11.51,0.61,1010.8,1.14,2.38,1602838680,1,0.05,8,1602828240,16.093,249.5,14.11,2020-10-16 05:52:00,29.07,2020-10-16 13:40:00,14.38,2020-10-16 05:52:00,28.79,2020-10-16 13:40:00,
Baitadi,Satbanjh,29.4973,80.49741194,2020-10-16 00:00:00,Clear throughout the day.,clear-day,2020-10-16 06:26:00,2020-10-16 17:53:00,0.99,0.0014,0.0051,2020-10-16 02:45:00,0.01,rain,25.66,2020-10-16 13:36:00,12.62,2020-10-17 05:33:00,25.38,2020-10-16 13:36:00,12.89,2020-10-17 05:33:00,9.56,0.65,1010.5,1.17,2.59,1602838740,316,0.04,8,1602828480,16.093,249.8,12.53,2020-10-16 05:16:00,25.66,2020-10-16 13:36:00,12.8,2020-10-16 05:16:00,25.38,2020-10-16 13:36:00,
Bajhang,Chainpur (West),29.55,81.21666667,2020-10-16 00:00:00,Clear throughout the day.,clear-day,2020-10-16 06:24:00,2020-10-16 17:50:00,0.99,0.0014,0.0051,2020-10-16 02:45:00,0.01,rain,25.04,2020-10-16 13:37:00,12.32,2020-10-17 05:43:00,24.76,2020-10-16 13:37:00,12.59,2020-10-17 05:43:00,6.1,0.51,1013.0,1.32,2.81,1602804840,47,0.2,8,1602828120,16.093,246.3,11.22,2020-10-16 05:16:00,25.04,2020-10-16 13:37:00,11.49,2020-10-16 05:16:00,24.76,2020-10-16 13:37:00,
Bajhang,Chainpur Bajhang Aws Climate,29.545890000000004,81.20114000000001,2020-10-16 00:00:00,Clear throughout the day.,clear-day,2020-10-16 06:24:00,2020-10-16 17:50:00,0.99,0.0014,0.0051,2020-10-16 02:45:00,0.01,rain,25.18,2020-10-16 13:39:00,12.68,2020-10-17 05:44:00,24.9,2020-10-16 13:39:00,12.95,2020-10-17 05:44:00,6.11,0.5,1012.9,1.3,2.78,1602804780,47,0.19,8,1602828240,16.093,246.3,11.59,2020-10-16 05:28:00,25.18,2020-10-16 13:39:00,11.86,2020-10-16 05:28:00,24.9,2020-10-16 13:39:00,
Bajhang,Kalukheti,29.447359999999996,81.16838,2020-10-16 00:00:00,Clear throughout the day.,clear-day,2020-10-16 06:24:00,2020-10-16 17:50:00,0.99,0.0,0.0,2020-10-16 02:45:00,0.0,,28.1,2020-10-16 13:44:00,13.7,2020-10-17 06:10:00,27.82,2020-10-16 13:44:00,13.97,2020-10-17 06:10:00,7.11,0.47,1011.6,1.24,2.83,1602804540,48,0.16,8,1602828720,16.093,247.6,12.58,2020-10-16 05:48:00,28.1,2020-10-16 13:44:00,12.85,2020-10-16 05:48:00,27.82,2020-10-16 13:44:00,
Bajhang,Rayal,29.464595000000003,80.95405,2020-10-16 00:00:00,Clear throughout the day.,clear-day,2020-10-16 06:25:00,2020-10-16 17:51:00,0.99,0.0015,0.0051,2020-10-16 02:43:00,0.01,rain,30.4,2020-10-16 13:43:00,15.78,2020-10-17 05:38:00,30.12,2020-10-16 13:43:00,16.05,2020-10-17 05:38:00,8.69,0.47,1011.3,1.09,2.27,1602838380,41,0.11,8,1602829380,16.093,247.7,13.74,2020-10-16 06:00:00,30.4,2020-10-16 13:43:00,14.01,2020-10-16 06:00:00,30.12,2020-10-16 13:43:00,
Bajura,Bajura (Martadi),29.45697889,81.48038389,2020-10-16 00:00:00,Clear throughout the day.,clear-day,2020-10-16 06:22:00,2020-10-16 17:49:00,0.99,0.0014,0.0051,2020-10-16 02:45:00,0.02,rain,24.69,2020-10-16 13:42:00,12.41,2020-10-17 05:25:00,24.41,2020-10-16 13:42:00,12.68,2020-10-17 05:25:00,7.46,0.58,1013.0,1.48,3.78,1602805080,34,0.14,7,1602828180,16.093,246.2,10.64,2020-10-16 05:03:00,24.69,2020-10-16 13:42:00,10.91,2020-10-16 05:03:00,24.41,2020-10-16 13:42:00,
Bajura,Kailasmandu,29.35291694,81.33385889,2020-10-16 00:00:00,Clear throughout the day.,clear-day,2020-10-16 06:23:00,2020-10-16 17:50:00,0.99,0.0014,0.0051,2020-10-16 02:46:00,0.01,rain,27.6,2020-10-16 13:46:00,15.32,2020-10-17 05:41:00,27.32,2020-10-16 13:46:00,15.59,2020-10-17 05:41:00,8.98,0.53,1012.1,1.42,3.38,1602804540,46,0.14,8,1602828660,16.093,247.8,13.98,2020-10-16 05:15:00,27.6,2020-10-16 13:46:00,14.25,2020-10-16 05:15:00,27.32,2020-10-16 13:46:00,
Bajura,Kolti,29.50348694,81.66617611,2020-10-16 00:00:00,Clear throughout the day.,clear-day,2020-10-16 06:22:00,2020-10-16 17:48:00,0.99,0.0014,0.0051,2020-10-16 02:45:00,0.02,rain,25.4,2020-10-16 13:45:00,8.83,2020-10-17 06:09:00,25.12,2020-10-16 13:45:00,9.1,2020-10-17 06:09:00,6.6,0.59,1013.2,1.0,2.8,1602839700,282,0.18,8,1602828900,16.093,246.3,7.27,2020-10-16 05:59:00,25.4,2020-10-16 13:45:00,7.54,2020-10-16 05:59:00,25.12,2020-10-16 13:45:00,
Banke,Amlekhganj,27.94748333,81.78569444,2020-10-16 00:15:00,Clear throughout the day.,clear-day,2020-10-16 06:20:00,2020-10-16 17:49:00,0.99,0.0014,0.0051,2020-10-16 02:45:00,0.02,rain,34.05,2020-10-16 14:04:00,19.99,2020-10-17 05:11:00,36.01,2020-10-16 12:50:00,20.76,2020-10-17 05:12:00,20.75,0.7,1007.0,1.7,2.54,1602839280,97,0.02,8,1602829020,16.093,259.2,21.62,2020-10-16 04:47:00,34.05,2020-10-16 14:04:00,22.78,2020-10-16 04:47:00,36.01,2020-10-16 12:50:00,
Banke,Dhakeri,28.10055556,81.66824722,2020-10-16 00:15:00,Clear throughout the day.,clear-day,2020-10-16 06:21:00,2020-10-16 17:49:00,0.99,0.0014,0.0051,2020-10-16 02:45:00,0.02,rain,34.01,2020-10-16 13:57:00,20.38,2020-10-17 05:11:00,36.07,2020-10-16 12:54:00,21.06,2020-10-17 05:13:00,20.76,0.7,1007.2,1.66,2.53,1602839400,73,0.02,8,1602829200,16.093,258.2,21.59,2020-10-16 04:51:00,34.01,2020-10-16 13:57:00,22.61,2020-10-16 04:52:00,36.07,2020-10-16 12:54:00,
Banke,Khajura (Nepalganj),28.11368333,81.59030556,2020-10-16 00:15:00,Clear throughout the day.,clear-day,2020-10-16 06:21:00,2020-10-16 17:49:00,0.99,0.0014,0.0051,2020-10-16 02:45:00,0.02,rain,33.93,2020-10-16 13:59:00,20.3,2020-10-17 05:16:00,36.08,2020-10-16 12:52:00,21.02,2020-10-17 05:18:00,20.76,0.7,1007.2,1.67,2.58,1602840240,71,0.02,8,1602829200,16.093,258.1,21.58,2020-10-16 04:51:00,33.93,2020-10-16 13:59:00,22.61,2020-10-16 04:53:00,36.08,2020-10-16 12:52:00,
Banke,Naubasta,28.230225,81.65270278,2020-10-16 00:00:00,Clear throughout the day.,clear-day,2020-10-16 06:21:00,2020-10-16 17:49:00,0.99,0.0014,0.0051,2020-10-16 02:45:00,0.02,rain,34.05,2020-10-16 14:01:00,21.32,2020-10-17 05:12:00,35.82,2020-10-16 13:37:00,21.89,2020-10-17 05:13:00,20.69,0.69,1007.4,1.6,2.48,1602839280,60,0.01,8,1602829440,16.093,257.3,21.91,2020-10-16 05:06:00,34.05,2020-10-16 14:01:00,22.77,2020-10-16 05:13:00,35.82,2020-10-16 13:37:00,
Banke,Nepalgunj Airport,28.051994399999995,81.6228389,2020-10-16 00:15:00,Clear throughout the day.,clear-day,2020-10-16 06:21:00,2020-10-16 17:49:00,0.99,0.0014,0.0051,2020-10-16 02:45:00,0.02,rain,33.83,2020-10-16 14:04:00,20.1,2020-10-17 05:18:00,35.81,2020-10-16 12:51:00,20.86,2020-10-17 05:19:00,20.69,0.7,1007.1,1.69,2.59,1602839940,78,0.02,8,1602829080,16.093,258.5,21.56,2020-10-16 04:49:00,33.83,2020-10-16 14:04:00,22.65,2020-10-16 04:48:00,35.81,2020-10-16 12:51:00,
Bara,Gulariya,27.164166700000003,84.98,2020-10-16 00:00:00,Humid throughout the day.,clear-day,2020-10-16 06:07:00,2020-10-16 17:37:00,0.99,0.0056,0.0256,2020-10-16 08:43:00,0.05,rain,32.98,2020-10-16 14:23:00,22.81,2020-10-17 05:14:00,39.37,2020-10-16 14:44:00,23.93,2020-10-17 05:12:00,24.38,0.82,1007.5,1.49,3.45,1602839040,70,0.04,8,1602828180,16.093,258.9,24.1,2020-10-16 04:46:00,32.98,2020-10-16 14:23:00,25.45,2020-10-16 04:49:00,39.37,2020-10-16 14:44:00,
Bara,Kalaiya,27.079,84.9329,2020-10-16 00:00:00,Humid throughout the day.,clear-day,2020-10-16 06:07:00,2020-10-16 17:37:00,0.99,0.0078,0.0594,2020-10-16 08:43:00,0.04,rain,32.94,2020-10-16 14:35:00,22.58,2020-10-17 05:10:00,38.54,2020-10-16 14:42:00,23.71,2020-10-17 05:07:00,24.03,0.81,1007.3,1.53,3.47,1602839520,90,0.04,8,1602828060,16.093,259.4,24.14,2020-10-16 04:47:00,32.94,2020-10-16 14:35:00,25.5,2020-10-16 04:48:00,38.54,2020-10-16 14:42:00,
Bara,Nijgadh,27.16416667,84.98,2020-10-16 00:00:00,Humid throughout the day.,clear-day,2020-10-16 06:07:00,2020-10-16 17:37:00,0.99,0.0056,0.0256,2020-10-16 08:43:00,0.05,rain,32.98,2020-10-16 14:23:00,22.81,2020-10-17 05:14:00,39.37,2020-10-16 14:44:00,23.93,2020-10-17 05:12:00,24.38,0.82,1007.5,1.49,3.45,1602839040,70,0.04,8,1602828180,16.093,258.9,24.1,2020-10-16 04:46:00,32.98,2020-10-16 14:23:00,25.45,2020-10-16 04:49:00,39.37,2020-10-16 14:44:00,
Bara,Parwanipur,27.20300556,85.170475,2020-10-16 00:00:00,Humid throughout the day.,clear-day,2020-10-16 06:06:00,2020-10-16 17:36:00,0.99,0.0084,0.0293,2020-10-16 04:45:00,0.07,rain,32.7,2020-10-16 14:22:00,22.55,2020-10-17 05:20:00,39.83,2020-10-16 14:51:00,23.64,2020-10-17 05:19:00,24.48,0.84,1007.9,1.47,3.33,1602838620,27,0.03,8,1602828060,16.093,258.6,23.54,2020-10-16 04:29:00,32.7,2020-10-16 14:22:00,24.81,2020-10-16 04:38:00,39.83,2020-10-16 14:51:00,
Bara,Simara Airport,27.2813,84.9919,2020-10-16 00:00:00,Humid throughout the day.,clear-day,2020-10-16 06:07:00,2020-10-16 17:37:00,0.99,0.0061,0.0387,2020-10-16 00:00:00,0.08,rain,31.84,2020-10-16 14:02:00,22.88,2020-10-17 05:17:00,36.64,2020-10-16 14:40:00,23.96,2020-10-17 05:15:00,23.74,0.85,1008.1,1.39,3.26,1602838380,352,0.05,8,1602828120,16.093,258.0,23.27,2020-10-16 04:35:00,31.84,2020-10-16 14:02:00,24.58,2020-10-16 04:33:00,36.64,2020-10-16 14:40:00,
Bardiya,Chisapani(Karnali),28.21278611,81.34521111,2020-10-16 00:00:00,Clear throughout the day.,clear-day,2020-10-16 06:22:00,2020-10-16 17:50:00,0.99,0.0014,0.0051,2020-10-16 02:45:00,0.02,rain,33.57,2020-10-16 13:58:00,19.8,2020-10-17 05:14:00,35.68,2020-10-16 12:45:00,20.63,2020-10-17 05:16:00,20.68,0.72,1007.2,1.64,2.62,1602843180,51,0.0,8,1602829080,16.093,257.6,21.11,2020-10-16 04:48:00,33.57,2020-10-16 13:58:00,22.14,2020-10-16 04:49:00,35.68,2020-10-16 12:45:00,
Bardiya,Kumalgaun,28.33735833,81.33784167,2020-10-16 00:00:00,Clear throughout the day.,clear-day,2020-10-16 06:22:00,2020-10-16 17:50:00,0.99,0.0014,0.0051,2020-10-16 02:45:00,0.02,rain,33.7,2020-10-16 13:51:00,19.93,2020-10-17 05:08:00,35.92,2020-10-16 12:49:00,20.64,2020-10-17 05:10:00,20.53,0.71,1007.4,1.56,2.46,1602793860,59,0.0,8,1602829140,16.093,256.8,21.12,2020-10-16 04:48:00,33.7,2020-10-16 13:51:00,22.0,2020-10-16 04:51:00,35.92,2020-10-16 12:49:00,
Bardiya,Manpur,28.36353889,81.41428333,2020-10-16 00:00:00,Clear throughout the day.,clear-day,2020-10-16 06:22:00,2020-10-16 17:50:00,0.99,0.0014,0.0051,2020-10-16 02:45:00,0.02,rain,33.92,2020-10-16 13:55:00,20.34,2020-10-17 05:03:00,35.97,2020-10-16 13:02:00,20.99,2020-10-17 05:04:00,20.53,0.7,1007.5,1.52,2.35,1602793680,66,0.01,8,1602829200,16.093,256.5,21.28,2020-10-16 04:56:00,33.92,2020-10-16 13:55:00,22.07,2020-10-16 05:03:00,35.97,2020-10-16 13:02:00,
Bardiya,Rajapur,28.64721944,81.28542778,2020-10-16 00:00:00,Clear throughout the day.,clear-day,2020-10-16 06:23:00,2020-10-16 17:50:00,0.99,0.0014,0.0051,2020-10-16 02:45:00,0.01,rain,33.23,2020-10-16 13:55:00,20.61,2020-10-17 05:25:00,34.02,2020-10-16 14:00:00,20.94,2020-10-17 05:28:00,18.68,0.65,1008.2,1.38,2.34,1602798900,46,0.01,8,1602829140,16.093,254.8,21.32,2020-10-16 05:20:00,33.23,2020-10-16 13:55:00,21.79,2020-10-16 05:33:00,34.02,2020-10-16 14:00:00,
Bardiya,Rambhapur,28.307825,81.27586389,2020-10-16 00:00:00,Clear throughout the day.,clear-day,2020-10-16 06:22:00,2020-10-16 17:51:00,0.99,0.0014,0.0051,2020-10-16 02:45:00,0.02,rain,33.43,2020-10-16 13:55:00,19.71,2020-10-17 05:09:00,35.51,2020-10-16 12:46:00,20.51,2020-10-17 05:11:00,20.51,0.72,1007.3,1.6,2.54,1602793980,53,0.0,8,1602829080,16.093,257.1,20.98,2020-10-16 04:46:00,33.43,2020-10-16 13:55:00,21.97,2020-10-16 04:48:00,35.51,2020-10-16 12:46:00,
Bardiya,Rani Jaruwa Nursery,28.42588611,81.33803611,2020-10-16 00:00:00,Clear throughout the day.,clear-day,2020-10-16 06:22:00,2020-10-16 17:50:00,0.99,0.0014,0.0051,2020-10-16 02:45:00,0.02,rain,33.87,2020-10-16 13:51:00,20.2,2020-10-17 05:05:00,35.97,2020-10-16 13:04:00,20.83,2020-10-17 05:07:00,20.36,0.7,1007.5,1.51,2.46,1602794400,62,0.01,8,1602829140,16.093,256.2,21.26,2020-10-16 04:50:00,33.87,2020-10-16 13:51:00,22.04,2020-10-16 04:58:00,35.97,2020-10-16 13:04:00,
Bhaktapur,Bhaktapur,27.63333333,85.43333333,2020-10-16 00:00:00,Clear throughout the day.,clear-day,2020-10-16 06:05:00,2020-10-16 17:35:00,0.99,0.0314,0.055,2020-10-16 03:50:00,0.16,rain,25.58,2020-10-16 13:15:00,16.18,2020-10-17 06:23:00,25.53,2020-10-16 13:22:00,16.95,2020-10-17 04:59:00,17.87,0.91,1010.1,0.71,1.71,1602838020,67,0.19,8,1602827580,16.093,254.8,15.76,2020-10-16 06:09:00,25.58,2020-10-16 13:15:00,16.63,2020-10-16 06:10:00,25.53,2020-10-16 13:22:00,
Bhaktapur,Changu Narayan,27.67668056,85.42396944,2020-10-16 00:00:00,Clear throughout the day.,clear-day,2020-10-16 06:05:00,2020-10-16 17:35:00,0.99,0.031,0.0547,2020-10-16 17:18:00,0.15,rain,27.81,2020-10-16 13:43:00,16.72,2020-10-17 06:25:00,28.7,2020-10-16 14:13:00,17.27,2020-10-17 06:25:00,18.7,0.87,1010.2,0.65,1.65,1602838380,64,0.19,8,1602827820,16.093,254.9,16.5,2020-10-16 06:08:00,27.81,2020-10-16 13:43:00,17.18,2020-10-16 06:10:00,28.7,2020-10-16 14:13:00,
Bhaktapur,Nagarkot,27.645725,85.4615833,2020-10-16 00:00:00,Clear throughout the day.,clear-day,2020-10-16 06:05:00,2020-10-16 17:34:00,0.99,0.0291,0.0594,2020-10-16 17:24:00,0.15,rain,26.91,2020-10-16 13:34:00,16.54,2020-10-17 06:26:00,27.68,2020-10-16 13:44:00,17.22,2020-10-17 06:25:00,18.37,0.89,1010.2,0.67,1.62,1602838080,68,0.17,8,1602827760,16.093,254.8,16.12,2020-10-16 06:10:00,26.91,2020-10-16 13:34:00,16.87,2020-10-16 06:12:00,27.68,2020-10-16 13:44:00,
Bhaktapur,Sanga,27.71605833,85.42675556,2020-10-16 00:00:00,Clear throughout the day.,clear-day,2020-10-16 06:05:00,2020-10-16 17:34:00,0.99,0.0298,0.0568,2020-10-16 17:16:00,0.15,rain,27.15,2020-10-16 13:47:00,16.1,2020-10-17 06:22:00,27.71,2020-10-16 14:07:00,16.52,2020-10-17 06:22:00,17.66,0.85,1010.2,0.6,1.58,1602839100,63,0.18,8,1602828000,16.093,254.9,16.05,2020-10-16 06:10:00,27.15,2020-10-16 13:47:00,16.6,2020-10-16 06:12:00,27.71,2020-10-16 14:07:00,
Bhojpur,Dingla,27.1944798,87.04862659999999,2020-10-16 00:00:00,Partly cloudy throughout the day.,partly-cloudy-day,2020-10-16 05:58:00,2020-10-16 17:28:00,0.99,0.06,0.2014,2020-10-16 16:38:00,0.23,rain,23.75,2020-10-16 13:31:00,15.53,2020-10-17 05:43:00,24.13,2020-10-16 13:35:00,16.25,2020-10-17 05:42:00,17.84,0.98,1010.2,0.74,1.92,1602837000,323,0.33,8,1602827460,16.093,254.4,15.08,2020-10-16 05:14:00,23.75,2020-10-16 13:31:00,16.19,2020-10-16 05:17:00,24.13,2020-10-16 13:35:00,
Bhojpur,Rampur,27.5282716,87.2177064,2020-10-16 00:00:00,Clear throughout the day.,clear-day,2020-10-16 05:58:00,2020-10-16 17:27:00,0.99,0.0253,0.0545,2020-10-16 12:09:00,0.14,rain,24.78,2020-10-16 12:44:00,16.95,2020-10-17 00:54:00,24.5,2020-10-16 12:45:00,17.22,2020-10-17 00:54:00,14.05,0.72,1011.8,1.12,2.14,1602788040,358,0.3,7,1602827580,16.093,252.8,15.49,2020-10-16 05:13:00,24.78,2020-10-16 12:44:00,15.76,2020-10-16 05:13:00,24.5,2020-10-16 12:45:00,
Chitawan,Bharatpur,27.5909,84.5223,2020-10-16 00:00:00,Humid throughout the day.,clear-day,2020-10-16 06:09:00,2020-10-16 17:38:00,0.99,0.0403,0.2884,2020-10-16 05:54:00,0.16,rain,34.14,2020-10-16 14:14:00,22.33,2020-10-17 05:21:00,39.38,2020-10-16 14:35:00,23.31,2020-10-17 05:25:00,23.78,0.81,1008.2,1.06,2.07,1602840000,308,0.1,8,1602828540,16.093,258.1,22.85,2020-10-16 04:54:00,34.14,2020-10-16 14:14:00,24.12,2020-10-16 04:57:00,39.38,2020-10-16 14:35:00,
Chitawan,Bharatpur,27.72113611,84.58525556,2020-10-16 00:00:00,Humid throughout the day.,clear-day,2020-10-16 06:09:00,2020-10-16 17:38:00,0.99,0.0175,0.0798,2020-10-16 06:00:00,0.11,rain,33.54,2020-10-16 14:06:00,22.0,2020-10-17 05:37:00,37.57,2020-10-16 14:41:00,22.73,2020-10-17 05:40:00,23.04,0.81,1008.6,1.0,1.77,1602788340,276,0.15,7,1602828360,16.093,257.8,22.24,2020-10-16 05:02:00,33.54,2020-10-16 14:06:00,23.44,2020-10-16 05:04:00,37.57,2020-10-16 14:41:00,
Chitawan,Jhuwani,27.654025,84.3507944,2020-10-16 00:00:00,Humid throughout the day.,clear-day,2020-10-16 06:10:00,2020-10-16 17:39:00,0.99,0.0919,0.3698,2020-10-16 02:36:00,0.24,rain,34.31,2020-10-16 14:14:00,22.01,2020-10-17 05:27:00,39.77,2020-10-16 14:43:00,22.83,2020-10-17 05:33:00,23.81,0.82,1008.3,1.11,1.97,1602839880,338,0.12,7,1602829380,16.093,258.2,22.57,2020-10-16 05:01:00,34.31,2020-10-16 14:14:00,23.83,2020-10-16 05:03:00,39.77,2020-10-16 14:43:00,
Chitwan,Gobindabasti,27.423171500000002,84.30374090000001,2020-10-16 00:00:00,Humid throughout the day.,clear-day,2020-10-16 06:10:00,2020-10-16 17:39:00,0.99,0.1187,0.6641,2020-10-16 05:52:00,0.29,rain,32.36,2020-10-16 14:18:00,21.58,2020-10-17 05:15:00,36.43,2020-10-16 14:02:00,22.56,2020-10-17 05:13:00,22.95,0.83,1007.8,1.38,2.85,1602842880,358,0.08,8,1602828720,16.093,258.4,22.27,2020-10-16 03:58:00,32.36,2020-10-16 14:18:00,23.56,2020-10-16 03:59:00,36.43,2020-10-16 14:02:00,
Chitwan,Madi Kalyanpur,27.580483299999997,84.2242222,2020-10-16 00:00:00,Humid throughout the day.,clear-day,2020-10-16 06:10:00,2020-10-16 17:39:00,0.99,0.1242,0.4147,2020-10-16 05:48:00,0.31,rain,33.73,2020-10-16 14:28:00,21.32,2020-10-17 05:14:00,39.67,2020-10-16 14:49:00,22.2,2020-10-17 05:24:00,23.86,0.84,1008.1,1.24,2.36,1602843840,7,0.12,7,1602829260,16.093,258.3,22.06,2020-10-16 05:03:00,33.73,2020-10-16 14:28:00,23.35,2020-10-16 05:06:00,39.67,2020-10-16 14:49:00,
Chitwan,Meghauli,27.67303333,84.42227222,2020-10-16 00:00:00,Humid throughout the day.,clear-day,2020-10-16 06:09:00,2020-10-16 17:39:00,0.99,0.0611,0.2101,2020-10-16 02:34:00,0.18,rain,34.41,2020-10-16 14:12:00,22.36,2020-10-17 05:31:00,39.33,2020-10-16 14:41:00,23.17,2020-10-17 05:36:00,23.6,0.81,1008.4,1.08,1.86,1602839160,320,0.11,8,1602828960,16.093,258.2,22.83,2020-10-16 05:01:00,34.41,2020-10-16 14:12:00,24.08,2020-10-16 05:03:00,39.33,2020-10-16 14:41:00,
Dadeldhura,Dadeldhura,29.301352,80.58775194,2020-10-16 00:00:00,Clear throughout the day.,clear-day,2020-10-16 06:26:00,2020-10-16 17:53:00,0.99,0.0015,0.0052,2020-10-16 02:37:00,0.02,rain,25.14,2020-10-16 12:58:00,14.16,2020-10-17 05:28:00,24.86,2020-10-16 12:58:00,14.43,2020-10-17 05:28:00,12.95,0.77,1010.3,1.08,2.09,1602801480,76,0.09,8,1602827760,16.093,249.1,13.56,2020-10-16 05:41:00,25.14,2020-10-16 12:58:00,13.83,2020-10-16 05:42:00,24.86,2020-10-16 12:58:00,
Dadeldhura,Dailekh,29.12785778,80.34740778,2020-10-16 00:00:00,Humid throughout the day.,clear-day,2020-10-16 06:27:00,2020-10-16 17:54:00,0.99,0.0014,0.0051,2020-10-16 02:45:00,0.02,rain,32.28,2020-10-16 13:34:00,18.92,2020-10-17 05:41:00,33.15,2020-10-16 13:59:00,19.19,2020-10-17 05:40:00,18.98,0.7,1009.3,1.52,3.08,1602801900,27,0.04,8,1602828780,16.093,251.9,19.56,2020-10-16 05:36:00,32.28,2020-10-16 13:34:00,19.98,2020-10-16 05:39:00,33.15,2020-10-16 13:59:00,
Dadeldhura,Sahukharka,29.288393100000004,80.37301500000001,2020-10-16 00:00:00,Clear throughout the day.,clear-day,2020-10-16 06:27:00,2020-10-16 17:53:00,0.99,0.0014,0.0051,2020-10-16 02:45:00,0.02,rain,26.27,2020-10-16 13:00:00,15.21,2020-10-17 05:41:00,25.99,2020-10-16 13:00:00,15.48,2020-10-17 05:41:00,14.97,0.78,1009.8,1.35,2.79,1602802740,22,0.07,8,1602828240,16.093,250.6,15.29,2020-10-16 05:45:00,26.27,2020-10-16 13:00:00,15.6,2020-10-16 05:56:00,25.99,2020-10-16 13:00:00,
Dailekh,Bale Budha (Tallo Dhungeshwor),28.83811111,81.70848333,2020-10-16 00:00:00,Clear throughout the day.,clear-day,2020-10-16 06:21:00,2020-10-16 17:48:00,0.99,0.0047,0.0352,2020-10-16 14:49:00,0.02,rain,28.64,2020-10-16 13:32:00,17.58,2020-10-17 05:44:00,28.35,2020-10-16 13:33:00,17.85,2020-10-17 05:44:00,14.73,0.67,1010.5,1.36,2.42,1602802260,83,0.1,8,1602828120,16.093,250.7,16.56,2020-10-16 05:17:00,28.64,2020-10-16 13:32:00,16.83,2020-10-16 05:17:00,28.35,2020-10-16 13:33:00,
Dailekh,Katti,28.92202778,81.62608333,2020-10-16 00:00:00,Clear throughout the day.,clear-day,2020-10-16 06:21:00,2020-10-16 17:49:00,0.99,0.0032,0.0194,2020-10-16 14:49:00,0.01,rain,28.46,2020-10-16 13:32:00,17.46,2020-10-17 06:01:00,28.18,2020-10-16 13:32:00,17.73,2020-10-17 06:01:00,12.76,0.6,1010.5,1.49,3.05,1602802500,67,0.07,8,1602828300,16.093,250.2,16.37,2020-10-16 05:06:00,28.46,2020-10-16 13:32:00,16.64,2020-10-16 05:06:00,28.18,2020-10-16 13:32:00,
Dailekh,Nayabasti (Dang),28.78022222,81.82144444,2020-10-16 00:00:00,Clear throughout the day.,clear-day,2020-10-16 06:21:00,2020-10-16 17:48:00,0.99,0.0107,0.0841,2020-10-16 14:47:00,0.04,rain,29.08,2020-10-16 13:43:00,18.11,2020-10-17 05:55:00,28.8,2020-10-16 13:44:00,18.38,2020-10-17 05:55:00,15.97,0.7,1010.7,1.22,2.17,1602802200,94,0.12,7,1602828120,16.093,251.1,17.17,2020-10-16 05:42:00,29.08,2020-10-16 13:43:00,17.44,2020-10-16 05:42:00,28.8,2020-10-16 13:44:00,
Dailekh,Ranimatta,28.90711111,81.75019167,2020-10-16 00:00:00,Clear throughout the day.,clear-day,2020-10-16 06:21:00,2020-10-16 17:48:00,0.99,0.0052,0.0393,2020-10-16 14:49:00,0.02,rain,26.17,2020-10-16 13:18:00,16.26,2020-10-17 06:12:00,25.89,2020-10-16 13:18:00,16.53,2020-10-17 06:12:00,12.36,0.66,1010.7,1.44,2.56,1602801660,92,0.1,8,1602827880,16.093,249.3,15.01,2020-10-16 05:02:00,26.17,2020-10-16 13:18:00,15.28,2020-10-16 05:02:00,25.89,2020-10-16 13:18:00,
Dang,Ghorahi (Masina),28.13174722,82.30278333,2020-10-16 00:00:00,Clear throughout the day.,clear-day,2020-10-16 06:18:00,2020-10-16 17:47:00,0.99,0.0026,0.0113,2020-10-16 02:33:00,0.03,rain,31.15,2020-10-16 14:01:00,19.65,2020-10-17 05:28:00,31.65,2020-10-16 14:23:00,20.03,2020-10-17 05:30:00,18.98,0.73,1009.2,1.54,2.4,1602838020,35,0.11,7,1602828720,16.093,256.1,19.55,2020-10-16 05:20:00,31.15,2020-10-16 14:01:00,20.13,2020-10-16 05:28:00,31.65,2020-10-16 14:23:00,
Dang,Ghorai (Dang),27.69233306,82.52512694,2020-10-16 00:00:00,Clear throughout the day.,clear-day,2020-10-16 06:17:00,2020-10-16 17:46:00,0.99,0.004,0.0245,2020-10-16 12:25:00,0.01,rain,33.11,2020-10-16 13:57:00,22.3,2020-10-17 05:15:00,35.0,2020-10-16 13:20:00,22.83,2020-10-17 05:16:00,20.19,0.67,1007.2,1.74,3.17,1602839820,50,0.09,8,1602829080,16.093,258.9,22.24,2020-10-16 04:40:00,33.11,2020-10-16 13:57:00,23.03,2020-10-16 04:56:00,35.0,2020-10-16 13:20:00,
Dang,Koilabas,28.05,82.5,2020-10-16 00:00:00,Clear throughout the day.,clear-day,2020-10-16 06:17:00,2020-10-16 17:46:00,0.99,0.0042,0.0357,2020-10-16 11:46:00,0.02,rain,31.18,2020-10-16 14:06:00,20.77,2020-10-17 05:30:00,31.56,2020-10-16 14:22:00,21.12,2020-10-17 05:33:00,18.59,0.69,1008.9,1.59,2.58,1602838320,30,0.13,7,1602829860,16.093,256.2,20.29,2020-10-16 05:29:00,31.18,2020-10-16 14:06:00,20.74,2020-10-16 05:34:00,31.56,2020-10-16 14:22:00,
Dang,Lalmatiya,27.87055556,82.53666667,2020-10-16 00:00:00,Clear throughout the day.,clear-day,2020-10-16 06:17:00,2020-10-16 17:46:00,0.99,0.0043,0.0328,2020-10-16 11:52:00,0.01,rain,33.96,2020-10-16 14:10:00,21.68,2020-10-17 05:18:00,36.09,2020-10-16 14:18:00,22.16,2020-10-17 05:20:00,20.38,0.68,1008.0,1.64,2.91,1602839040,41,0.11,7,1602829860,16.093,257.9,21.44,2020-10-16 05:14:00,33.96,2020-10-16 14:10:00,22.09,2020-10-16 05:20:00,36.09,2020-10-16 14:18:00,
Dang,Lamahi,27.88486889,82.33509611,2020-10-16 00:00:00,Clear throughout the day.,clear-day,2020-10-16 06:18:00,2020-10-16 17:47:00,0.99,0.002,0.0128,2020-10-16 11:49:00,0.01,rain,34.22,2020-10-16 14:16:00,21.44,2020-10-17 05:13:00,36.17,2020-10-16 14:28:00,21.99,2020-10-17 05:15:00,20.67,0.68,1007.7,1.7,2.84,1602838980,57,0.08,7,1602829140,16.093,258.2,21.71,2020-10-16 05:09:00,34.22,2020-10-16 14:16:00,22.51,2020-10-16 05:17:00,36.17,2020-10-16 14:28:00,
Dang,Padhampur,28.03719889,82.484156,2020-10-16 00:00:00,Clear throughout the day.,clear-day,2020-10-16 06:17:00,2020-10-16 17:46:00,0.99,0.0037,0.0356,2020-10-16 11:46:00,0.02,rain,31.24,2020-10-16 14:11:00,20.89,2020-10-17 05:31:00,31.58,2020-10-16 14:28:00,21.23,2020-10-17 05:33:00,18.57,0.68,1008.8,1.61,2.61,1602838380,31,0.12,7,1602829860,16.093,256.4,20.44,2020-10-16 05:25:00,31.24,2020-10-16 14:11:00,20.9,2020-10-16 05:31:00,31.58,2020-10-16 14:28:00,
Dang,Tulsipur,28.201323,82.1393939,2020-10-16 00:00:00,Clear throughout the day.,clear-day,2020-10-16 06:19:00,2020-10-16 17:47:00,0.99,0.0017,0.0077,2020-10-16 02:44:00,0.02,rain,30.71,2020-10-16 14:00:00,19.78,2020-10-17 05:38:00,31.18,2020-10-16 14:28:00,20.06,2020-10-17 05:38:00,18.92,0.73,1009.0,1.5,2.4,1602838080,46,0.1,8,1602828360,16.093,256.0,19.78,2020-10-16 05:29:00,30.71,2020-10-16 14:00:00,20.35,2020-10-16 05:34:00,31.18,2020-10-16 14:28:00,
Darchula,Darchula New,29.666666999999997,80.55,2020-10-16 00:15:00,Clear throughout the day.,clear-day,2020-10-16 06:26:00,2020-10-16 17:52:00,0.99,0.0014,0.0051,2020-10-16 02:45:00,0.01,rain,30.98,2020-10-16 13:58:00,16.05,2020-10-17 05:36:00,30.7,2020-10-16 13:58:00,16.32,2020-10-17 05:36:00,8.38,0.44,1011.2,1.16,2.25,1602802440,25,0.07,8,1602828780,16.093,249.2,15.22,2020-10-16 05:30:00,30.98,2020-10-16 13:58:00,15.49,2020-10-16 05:30:00,30.7,2020-10-16 13:58:00,
Darchula,Dhaulatiya (Dallekhdhar),29.78255194,80.82215806,2020-10-16 00:00:00,Clear throughout the day.,clear-day,2020-10-16 06:25:00,2020-10-16 17:51:00,0.99,0.0014,0.0051,2020-10-16 02:45:00,0.01,rain,22.25,2020-10-16 13:28:00,12.21,2020-10-17 00:03:00,21.97,2020-10-16 13:28:00,12.48,2020-10-17 00:03:00,1.1,0.4,1013.4,1.45,2.63,1602833280,175,0.17,9,1602828180,16.093,245.4,10.8,2020-10-16 05:07:00,22.25,2020-10-16 13:28:00,11.07,2020-10-16 05:07:00,21.97,2020-10-16 13:28:00,
Darchula,Gokuleshwar,29.84287806,80.53884806,2020-10-16 00:15:00,Clear throughout the day.,clear-day,2020-10-16 06:27:00,2020-10-16 17:52:00,0.99,0.0,0.0,2020-10-16 02:45:00,0.0,,27.76,2020-10-16 13:49:00,15.38,2020-10-17 05:44:00,27.48,2020-10-16 13:49:00,15.65,2020-10-17 05:44:00,3.51,0.36,1011.9,1.26,2.25,1602803940,88,0.12,8,1602828660,16.093,247.9,13.9,2020-10-16 05:17:00,27.76,2020-10-16 13:49:00,14.17,2020-10-16 05:17:00,27.48,2020-10-16 13:49:00,
Darchula,Lumpthi,29.84496194,80.54539389,2020-10-16 00:15:00,Clear throughout the day.,clear-day,2020-10-16 06:27:00,2020-10-16 17:52:00,0.99,0.0,0.0,2020-10-16 02:45:00,0.0,,27.62,2020-10-16 13:48:00,15.28,2020-10-17 05:43:00,27.34,2020-10-16 13:48:00,15.55,2020-10-17 05:43:00,3.39,0.36,1012.0,1.27,2.27,1602804000,99,0.12,8,1602828660,16.093,247.8,13.77,2020-10-16 05:16:00,27.62,2020-10-16 13:48:00,14.04,2020-10-16 05:16:00,27.34,2020-10-16 13:48:00,
Dhading,Dhading,28.05,84.82,2020-10-16 00:00:00,Partly cloudy throughout the day.,partly-cloudy-day,2020-10-16 06:08:00,2020-10-16 17:37:00,0.99,0.0114,0.0368,2020-10-16 13:53:00,0.06,rain,29.77,2020-10-16 14:14:00,19.05,2020-10-17 05:42:00,30.31,2020-10-16 14:51:00,19.32,2020-10-17 05:42:00,16.67,0.67,1010.5,0.98,1.84,1602837840,331,0.28,7,1602828180,16.093,255.5,18.48,2020-10-16 05:34:00,29.77,2020-10-16 14:14:00,18.75,2020-10-16 05:34:00,30.31,2020-10-16 14:51:00,
Dhading,Dhunibesi,27.912505600000003,84.8961333,2020-10-16 00:00:00,Humid and partly cloudy throughout the day.,partly-cloudy-day,2020-10-16 06:08:00,2020-10-16 17:36:00,0.99,0.0109,0.0371,2020-10-16 09:46:00,0.08,rain,31.56,2020-10-16 14:04:00,19.97,2020-10-17 05:45:00,32.9,2020-10-16 14:44:00,20.24,2020-10-17 05:45:00,19.04,0.72,1010.0,0.89,1.81,1602791460,254,0.27,7,1602828420,16.093,256.2,19.66,2020-10-16 05:26:00,31.56,2020-10-16 14:04:00,20.02,2020-10-16 05:29:00,32.9,2020-10-16 14:44:00,
Dhading,Gajuri,27.8053359,84.7055012,2020-10-16 00:00:00,Humid and partly cloudy throughout the day.,partly-cloudy-day,2020-10-16 06:08:00,2020-10-16 17:37:00,0.99,0.0111,0.0317,2020-10-16 16:40:00,0.1,rain,32.62,2020-10-16 13:33:00,20.41,2020-10-17 05:28:00,36.28,2020-10-16 14:38:00,20.99,2020-10-17 05:31:00,22.29,0.83,1009.5,0.9,1.72,1602786420,187,0.22,7,1602828120,16.093,257.1,20.57,2020-10-16 04:59:00,32.62,2020-10-16 13:33:00,21.59,2020-10-16 05:02:00,36.28,2020-10-16 14:38:00,
Dhading,Majhimtar,27.72311667,85.1642,2020-10-16 00:00:00,Humid throughout the day.,clear-day,2020-10-16 06:06:00,2020-10-16 17:36:00,0.99,0.0307,0.0745,2020-10-17 00:00:00,0.17,rain,30.32,2020-10-16 13:43:00,18.66,2020-10-17 06:07:00,31.96,2020-10-16 14:11:00,19.16,2020-10-17 06:04:00,20.73,0.86,1009.9,0.82,2.11,1602838800,70,0.24,8,1602827940,16.093,255.4,18.34,2020-10-16 05:38:00,30.32,2020-10-16 13:43:00,19.31,2020-10-16 05:39:00,31.96,2020-10-16 14:11:00,
Dhading,Pakhribas,27.802707399999996,84.8797782,2020-10-16 00:00:00,Humid and partly cloudy throughout the day.,partly-cloudy-day,2020-10-16 06:08:00,2020-10-16 17:37:00,0.99,0.0121,0.0434,2020-10-16 15:49:00,0.12,rain,32.78,2020-10-16 13:58:00,20.45,2020-10-17 05:42:00,35.49,2020-10-16 14:40:00,20.97,2020-10-17 05:43:00,21.39,0.8,1009.8,0.86,1.79,1602791640,166,0.23,7,1602828360,16.093,256.4,20.26,2020-10-16 05:27:00,32.78,2020-10-16 13:58:00,21.17,2020-10-16 05:29:00,35.49,2020-10-16 14:40:00,
Dhankuta,Barahkshetra,26.91424278,87.15986,2020-10-16 00:00:00,Humid throughout the day.,clear-day,2020-10-16 05:58:00,2020-10-16 17:28:00,0.99,0.0088,0.0538,2020-10-16 00:47:00,0.11,rain,32.87,2020-10-16 13:23:00,22.18,2020-10-17 05:38:00,40.2,2020-10-16 14:45:00,22.86,2020-10-17 05:38:00,23.15,0.81,1008.8,1.27,2.19,1602795840,4,0.08,8,1602827460,16.093,257.2,22.31,2020-10-16 05:25:00,32.87,2020-10-16 13:23:00,23.17,2020-10-16 05:28:00,40.2,2020-10-16 14:45:00,
Dhankuta,Dhankuta,26.93805556,87.15472222,2020-10-16 00:00:00,Humid throughout the day.,clear-day,2020-10-16 05:58:00,2020-10-16 17:28:00,0.99,0.0095,0.053,2020-10-16 00:47:00,0.11,rain,32.57,2020-10-16 13:20:00,21.95,2020-10-17 05:42:00,39.8,2020-10-16 14:45:00,22.62,2020-10-17 05:42:00,23.04,0.82,1009.0,1.24,2.22,1602795900,5,0.09,8,1602827400,16.093,256.8,21.98,2020-10-16 05:36:00,32.57,2020-10-16 13:20:00,22.83,2020-10-16 05:38:00,39.8,2020-10-16 14:45:00,
Dhankuta,Dhankuta,27.0500025,87.24444444,2020-10-16 00:00:00,Clear throughout the day.,clear-day,2020-10-16 05:58:00,2020-10-16 17:28:00,0.99,0.0055,0.0196,2020-10-16 00:00:00,0.1,rain,25.84,2020-10-16 12:59:00,16.78,2020-10-17 05:40:00,25.87,2020-10-16 13:07:00,17.34,2020-10-17 05:41:00,18.15,0.91,1009.3,1.16,2.61,1602796440,355,0.12,8,1602827580,16.093,256.0,16.36,2020-10-16 05:39:00,25.84,2020-10-16 12:59:00,16.98,2020-10-16 05:41:00,25.87,2020-10-16 13:07:00,
Dhankuta,Leguwa Ghat,27.04633889,87.2925,2020-10-16 00:00:00,Clear throughout the day.,clear-day,2020-10-16 05:57:00,2020-10-16 17:28:00,0.99,0.0048,0.0164,2020-10-16 00:00:00,0.09,rain,25.8,2020-10-16 13:04:00,15.62,2020-10-17 05:36:00,25.83,2020-10-16 13:13:00,16.25,2020-10-17 05:37:00,17.86,0.91,1009.3,1.15,2.58,1602796680,356,0.13,8,1602827520,16.093,255.8,15.24,2020-10-16 05:36:00,25.8,2020-10-16 13:04:00,15.99,2020-10-16 05:38:00,25.83,2020-10-16 13:13:00,
Dhankuta,Muga,27.15338889,87.28919444,2020-10-16 00:00:00,Humid throughout the day.,clear-day,2020-10-16 05:57:00,2020-10-16 17:27:00,0.99,0.0089,0.0232,2020-10-16 00:00:00,0.11,rain,31.09,2020-10-16 14:02:00,18.48,2020-10-17 05:43:00,33.52,2020-10-16 14:52:00,19.07,2020-10-17 05:44:00,20.18,0.8,1010.0,0.92,2.04,1602796680,318,0.14,8,1602827760,16.093,255.6,18.85,2020-10-16 05:30:00,31.09,2020-10-16 14:02:00,19.51,2020-10-16 05:33:00,33.52,2020-10-16 14:52:00,
Dhankuta,Mul Ghat,26.98321944,87.34595556,2020-10-16 00:00:00,Clear throughout the day.,clear-day,2020-10-16 05:57:00,2020-10-16 17:27:00,0.99,0.0023,0.0094,2020-10-16 00:00:00,0.07,rain,26.81,2020-10-16 13:05:00,17.97,2020-10-17 05:42:00,27.61,2020-10-16 13:19:00,18.66,2020-10-17 05:43:00,18.79,0.89,1009.2,1.23,2.66,1602797040,8,0.13,8,1602827280,16.093,255.9,17.44,2020-10-16 05:30:00,26.81,2020-10-16 13:05:00,18.26,2020-10-16 05:35:00,27.61,2020-10-16 13:19:00,
Dhankuta,Mul Ghat,26.98321944,87.34595556,2020-10-16 00:00:00,Clear throughout the day.,clear-day,2020-10-16 05:57:00,2020-10-16 17:27:00,0.99,0.0023,0.0094,2020-10-16 00:00:00,0.07,rain,26.81,2020-10-16 13:05:00,17.97,2020-10-17 05:42:00,27.61,2020-10-16 13:19:00,18.66,2020-10-17 05:43:00,18.79,0.89,1009.2,1.23,2.66,1602797040,8,0.13,8,1602827280,16.093,255.9,17.44,2020-10-16 05:30:00,26.81,2020-10-16 13:05:00,18.26,2020-10-16 05:35:00,27.61,2020-10-16 13:19:00,
Dhanusa,Chisapani Bazar,27.01295556,85.92089722,2020-10-16 00:00:00,Humid throughout the day.,clear-day,2020-10-16 06:03:00,2020-10-16 17:33:00,0.99,0.0368,0.1646,2020-10-16 00:47:00,0.13,rain,32.35,2020-10-16 14:04:00,22.55,2020-10-17 05:16:00,37.88,2020-10-16 14:26:00,23.55,2020-10-17 05:19:00,23.9,0.84,1008.0,1.73,2.83,1602837840,354,0.04,8,1602827880,16.093,259.1,23.52,2020-10-16 04:15:00,32.35,2020-10-16 14:04:00,24.74,2020-10-16 04:19:00,37.88,2020-10-16 14:26:00,
Dhanusa,Janakpur Airport,26.8,85.9833333,2020-10-16 00:00:00,Humid throughout the day.,clear-day,2020-10-16 06:02:00,2020-10-16 17:33:00,0.99,0.0275,0.0946,2020-10-16 00:40:00,0.1,rain,32.45,2020-10-16 14:21:00,22.46,2020-10-17 05:26:00,38.73,2020-10-16 14:32:00,23.62,2020-10-17 05:26:00,24.21,0.82,1007.5,1.89,3.3,1602838560,345,0.03,8,1602827400,16.093,260.3,24.13,2020-10-16 03:47:00,32.45,2020-10-16 14:21:00,25.35,2020-10-16 03:46:00,38.73,2020-10-16 14:32:00,
Dhanusa,Tulsi,26.71666667,85.96666667,2020-10-16 00:00:00,Humid throughout the day.,clear-day,2020-10-16 06:02:00,2020-10-16 17:33:00,0.99,0.0309,0.1087,2020-10-16 08:29:00,0.09,rain,32.34,2020-10-16 14:24:00,22.51,2020-10-17 05:25:00,38.25,2020-10-16 14:27:00,23.73,2020-10-17 05:25:00,24.03,0.81,1007.3,1.91,3.36,1602838560,347,0.04,8,1602827040,16.093,260.7,24.16,2020-10-16 03:46:00,32.34,2020-10-16 14:24:00,25.38,2020-10-16 03:45:00,38.25,2020-10-16 14:27:00,
Dolakha,Charikot,27.67633111,86.10399389,2020-10-16 00:00:00,Humid throughout the day.,clear-day,2020-10-16 06:03:00,2020-10-16 17:32:00,0.99,0.0347,0.1304,2020-10-16 15:53:00,0.18,rain,26.91,2020-10-16 12:50:00,17.05,2020-10-17 01:41:00,27.55,2020-10-16 12:48:00,17.46,2020-10-17 05:34:00,17.02,0.83,1011.3,1.19,2.51,1602801780,177,0.26,8,1602827460,15.935,252.1,15.13,2020-10-16 05:12:00,26.91,2020-10-16 12:50:00,15.4,2020-10-16 05:12:00,27.55,2020-10-16 12:48:00,
Dolakha,Dunai,27.63333333,86.13333333,2020-10-16 00:00:00,Humid throughout the day.,clear-day,2020-10-16 06:02:00,2020-10-16 17:32:00,0.99,0.0357,0.1133,2020-10-16 15:54:00,0.18,rain,26.1,2020-10-16 12:49:00,16.51,2020-10-17 06:14:00,26.29,2020-10-16 12:52:00,16.93,2020-10-17 06:02:00,17.94,0.91,1010.9,1.2,2.52,1602801120,173,0.24,8,1602827640,16.093,252.2,14.38,2020-10-16 05:15:00,26.1,2020-10-16 12:49:00,14.65,2020-10-16 05:15:00,26.29,2020-10-16 12:52:00,
Dolakha,Jiri,27.6666667,86.05,2020-10-16 00:00:00,Partly cloudy throughout the day.,partly-cloudy-day,2020-10-16 06:03:00,2020-10-16 17:32:00,0.99,0.0304,0.1305,2020-10-16 15:51:00,0.17,rain,23.99,2020-10-16 12:55:00,14.8,2020-10-17 05:39:00,24.1,2020-10-16 13:00:00,15.45,2020-10-17 05:35:00,16.7,0.96,1010.9,1.11,2.34,1602801840,177,0.26,8,1602827220,15.909,252.5,12.93,2020-10-16 05:17:00,23.99,2020-10-16 12:55:00,13.25,2020-10-16 05:21:00,24.1,2020-10-16 13:00:00,
Dolakha,Nagdaha,27.616666700000003,86.35,2020-10-16 00:00:00,Partly cloudy throughout the day.,partly-cloudy-day,2020-10-16 06:02:00,2020-10-16 17:31:00,0.99,0.0647,0.1987,2020-10-16 16:01:00,0.23,rain,18.32,2020-10-16 12:30:00,10.52,2020-10-17 01:47:00,18.83,2020-10-16 12:39:00,11.01,2020-10-17 05:43:00,13.03,1.0,1011.8,1.24,2.41,1602802260,162,0.3,9,1602827040,15.56,250.2,9.17,2020-10-16 05:39:00,18.32,2020-10-16 12:30:00,9.03,2020-10-16 05:37:00,18.83,2020-10-16 12:39:00,
Dolpa,Kaigaun,29.03154722,82.76287778,2020-10-16 00:00:00,Clear throughout the day.,clear-day,2020-10-16 06:17:00,2020-10-16 17:44:00,0.99,0.0019,0.0057,2020-10-16 17:39:00,0.05,rain,17.81,2020-10-16 12:46:00,6.32,2020-10-17 06:17:00,17.53,2020-10-16 12:46:00,6.59,2020-10-17 06:17:00,7.55,0.87,1014.4,1.2,2.7,1602838500,23,0.17,9,1602828600,16.093,244.1,4.81,2020-10-16 04:55:00,17.81,2020-10-16 12:46:00,5.08,2020-10-16 04:55:00,17.53,2020-10-16 12:46:00,
Dolpa,Silgadhi Doti,28.98363333,82.82074444,2020-10-16 00:00:00,Clear throughout the day.,clear-day,2020-10-16 06:17:00,2020-10-16 17:44:00,0.99,0.0018,0.0051,2020-10-16 02:45:00,0.05,rain,17.89,2020-10-16 12:46:00,6.56,2020-10-17 01:42:00,17.61,2020-10-16 12:46:00,6.83,2020-10-17 01:42:00,7.52,0.86,1014.3,1.22,2.69,1602838320,29,0.16,9,1602828660,16.093,244.2,4.88,2020-10-16 04:57:00,17.89,2020-10-16 12:46:00,5.15,2020-10-16 04:57:00,17.61,2020-10-16 12:46:00,
Doti,Dipayal (Doti),29.12015194,80.70944778,2020-10-16 00:00:00,Clear throughout the day.,clear-day,2020-10-16 06:25:00,2020-10-16 17:52:00,0.99,0.0033,0.0339,2020-10-16 15:47:00,0.02,rain,26.23,2020-10-16 13:01:00,16.06,2020-10-17 05:29:00,25.95,2020-10-16 13:01:00,16.33,2020-10-17 05:29:00,16.02,0.79,1010.2,1.06,1.94,1602798000,53,0.11,8,1602827940,16.093,249.4,15.63,2020-10-16 05:36:00,26.23,2020-10-16 13:01:00,15.91,2020-10-16 05:40:00,25.95,2020-10-16 13:01:00,
Doti,Dumrakot,29.16385278,80.600738,2020-10-16 00:00:00,Clear throughout the day.,clear-day,2020-10-16 06:26:00,2020-10-16 17:53:00,0.99,0.0021,0.0122,2020-10-16 15:47:00,0.02,rain,25.01,2020-10-16 13:02:00,14.88,2020-10-17 06:07:00,24.73,2020-10-16 13:02:00,15.15,2020-10-17 06:07:00,14.4,0.81,1009.6,1.19,2.24,1602800580,61,0.08,8,1602827940,16.093,249.7,14.4,2020-10-16 06:03:00,25.01,2020-10-16 13:02:00,14.67,2020-10-16 06:03:00,24.73,2020-10-16 13:02:00,
Doti,Gaira,29.34106083,81.045105,2020-10-16 00:00:00,Clear throughout the day.,clear-day,2020-10-16 06:24:00,2020-10-16 17:51:00,0.99,0.0016,0.0052,2020-10-16 02:34:00,0.01,rain,24.32,2020-10-16 13:43:00,12.95,2020-10-17 05:56:00,24.04,2020-10-16 13:43:00,13.22,2020-10-17 05:56:00,7.59,0.59,1010.6,1.09,2.55,1602802800,39,0.17,8,1602829200,16.093,248.3,11.73,2020-10-16 05:57:00,24.32,2020-10-16 13:43:00,12.0,2020-10-16 05:57:00,24.04,2020-10-16 13:43:00,
Doti,Jhingrana,29.26209694,80.93690083,2020-10-16 00:00:00,Clear throughout the day.,clear-day,2020-10-16 06:24:00,2020-10-16 17:51:00,0.99,0.0018,0.0072,2020-10-16 00:38:00,0.03,rain,30.46,2020-10-16 13:43:00,16.81,2020-10-17 05:44:00,30.18,2020-10-16 13:43:00,17.08,2020-10-17 05:44:00,14.03,0.64,1011.1,0.9,2.11,1602800580,25,0.2,7,1602828540,16.093,248.7,15.74,2020-10-16 05:53:00,30.46,2020-10-16 13:43:00,16.01,2020-10-16 05:53:00,30.18,2020-10-16 13:43:00,
Doti,Khaptad,29.0,81.13333333,2020-10-16 00:00:00,Clear throughout the day.,clear-day,2020-10-16 06:23:00,2020-10-16 17:51:00,0.99,0.0014,0.0051,2020-10-16 02:45:00,0.02,rain,28.69,2020-10-16 13:45:00,18.17,2020-10-17 05:41:00,28.41,2020-10-16 13:45:00,18.44,2020-10-17 05:41:00,14.81,0.68,1009.5,1.22,2.57,1602804120,5,0.09,8,1602830160,16.093,250.8,17.42,2020-10-16 05:56:00,28.69,2020-10-16 13:45:00,17.69,2020-10-16 05:56:00,28.41,2020-10-16 13:45:00,
Doti,Kola Gaun,29.38804889,81.14630111,2020-10-16 00:00:00,Clear throughout the day.,clear-day,2020-10-16 06:24:00,2020-10-16 17:50:00,0.99,0.0015,0.0051,2020-10-16 02:43:00,0.01,rain,23.44,2020-10-16 13:43:00,10.55,2020-10-17 05:37:00,23.16,2020-10-16 13:43:00,10.82,2020-10-17 05:37:00,6.5,0.61,1010.9,1.22,2.77,1602804240,47,0.15,9,1602828960,16.093,248.0,9.31,2020-10-16 05:42:00,23.44,2020-10-16 13:43:00,9.03,2020-10-16 05:44:00,23.16,2020-10-16 13:43:00,
Gorkha,Barpak,28.2,84.73333333,2020-10-15 21:45:00,Partly cloudy throughout the day.,partly-cloudy-day,2020-10-16 06:08:00,2020-10-16 17:37:00,0.99,0.0304,0.1034,2020-10-16 14:57:00,0.12,rain,24.27,2020-10-16 12:56:00,16.72,2020-10-17 01:05:00,24.15,2020-10-16 12:59:00,16.99,2020-10-17 01:05:00,15.27,0.79,1011.2,1.23,2.3,1602832800,347,0.28,7,1602827940,12.927,253.1,15.35,2020-10-16 05:00:00,24.27,2020-10-16 12:56:00,15.62,2020-10-16 05:00:00,24.15,2020-10-16 12:59:00,
Gorkha,Chhekampar,27.97138889,84.58944444,2020-10-16 00:00:00,Clear throughout the day.,clear-day,2020-10-16 06:09:00,2020-10-16 17:38:00,0.99,0.0202,0.1145,2020-10-16 02:37:00,0.09,rain,31.39,2020-10-16 14:22:00,18.84,2020-10-17 05:41:00,32.83,2020-10-16 14:52:00,19.11,2020-10-17 05:41:00,19.2,0.74,1009.5,0.82,1.56,1602839760,187,0.22,8,1602828180,16.093,257.6,19.42,2020-10-16 06:13:00,31.39,2020-10-16 14:22:00,19.93,2020-10-16 06:13:00,32.83,2020-10-16 14:52:00,
Gorkha,Chumchet,28.48333333,85.0,2020-10-15 21:45:00,Clear throughout the day.,clear-day,2020-10-16 06:08:00,2020-10-16 17:36:00,0.99,0.0077,0.0383,2020-10-16 15:16:00,0.14,rain,10.12,2020-10-16 11:48:00,4.25,2020-10-16 23:28:00,9.4,2020-10-16 11:46:00,5.58,2020-10-16 23:36:00,5.92,1.0,1014.6,0.94,2.52,1602831180,45,0.2,10,1602827820,15.999,246.0,3.74,2020-10-16 03:02:00,10.12,2020-10-16 11:48:00,3.98,2020-10-16 03:02:00,9.4,2020-10-16 11:46:00,
Gorkha,Gorkha,28.66666667,84.61666667,2020-10-15 21:45:00,Clear throughout the day.,clear-day,2020-10-16 06:09:00,2020-10-16 17:37:00,0.99,0.0058,0.0192,2020-10-16 14:44:00,0.16,rain,5.24,2020-10-16 13:29:00,-2.05,2020-10-17 05:34:00,3.96,2020-10-16 13:34:00,-1.78,2020-10-17 05:34:00,0.79,1.0,1015.3,1.12,2.35,1602836160,329,0.14,10,1602828120,15.724,241.8,-3.01,2020-10-16 05:38:00,5.24,2020-10-16 13:29:00,-2.74,2020-10-16 05:38:00,3.96,2020-10-16 13:34:00,
Gorkha,Laprak,28.2,84.75,2020-10-15 21:45:00,Partly cloudy throughout the day.,partly-cloudy-day,2020-10-16 06:08:00,2020-10-16 17:37:00,0.99,0.0279,0.1003,2020-10-16 15:01:00,0.12,rain,22.8,2020-10-16 12:51:00,15.25,2020-10-17 05:45:00,22.69,2020-10-16 12:54:00,15.52,2020-10-17 05:45:00,15.08,0.85,1011.0,1.23,2.36,1602832980,345,0.28,7,1602827940,12.802,253.0,13.74,2020-10-16 06:26:00,22.8,2020-10-16 12:51:00,14.01,2020-10-16 06:26:00,22.69,2020-10-16 12:54:00,
Gorkha,Sama Gaun,28.42693611,84.90264444,2020-10-15 21:45:00,Clear throughout the day.,clear-day,2020-10-16 06:08:00,2020-10-16 17:36:00,0.99,0.0137,0.0573,2020-10-16 14:58:00,0.15,rain,13.22,2020-10-16 12:06:00,6.58,2020-10-16 23:29:00,12.94,2020-10-16 12:07:00,6.85,2020-10-16 23:29:00,8.56,1.0,1014.5,0.99,2.44,1602829740,18,0.24,8,1602827700,14.329,247.0,6.18,2020-10-16 05:24:00,13.22,2020-10-16 12:06:00,6.45,2020-10-16 05:24:00,12.94,2020-10-16 12:07:00,
Gulmi,Darma,27.9365,83.33811667,2020-10-16 00:00:00,Partly cloudy throughout the day.,partly-cloudy-day,2020-10-16 06:14:00,2020-10-16 17:43:00,0.99,0.0189,0.0735,2020-10-16 16:43:00,0.06,rain,28.82,2020-10-16 13:42:00,18.6,2020-10-17 05:41:00,28.65,2020-10-16 13:50:00,18.87,2020-10-17 05:41:00,15.34,0.65,1009.5,1.24,1.91,1602838080,358,0.22,7,1602828420,16.093,256.3,17.71,2020-10-16 05:13:00,28.82,2020-10-16 13:42:00,17.98,2020-10-16 05:13:00,28.65,2020-10-16 13:50:00,
Gulmi,Musikot,27.93856667,83.44315278,2020-10-16 00:00:00,Partly cloudy throughout the day.,partly-cloudy-day,2020-10-16 06:13:00,2020-10-16 17:42:00,0.99,0.0225,0.0554,2020-10-16 00:00:00,0.08,rain,31.77,2020-10-16 14:01:00,19.86,2020-10-17 05:35:00,32.66,2020-10-16 14:37:00,20.13,2020-10-17 05:35:00,16.97,0.64,1009.6,1.2,1.86,1602837780,353,0.23,7,1602828540,16.093,256.4,18.98,2020-10-16 05:16:00,31.77,2020-10-16 14:01:00,19.25,2020-10-16 05:16:00,32.66,2020-10-16 14:37:00,
Gulmi,Tamghas,28.16998056,83.26802778,2020-10-16 00:00:00,Partly cloudy throughout the day.,partly-cloudy-day,2020-10-16 06:14:00,2020-10-16 17:43:00,0.99,0.0398,0.1737,2020-10-16 16:40:00,0.11,rain,26.16,2020-10-16 13:43:00,15.52,2020-10-17 06:20:00,25.88,2020-10-16 13:43:00,15.79,2020-10-17 06:20:00,12.47,0.66,1010.9,1.37,1.98,1602862620,357,0.33,7,1602828180,16.093,253.4,14.5,2020-10-16 05:15:00,26.16,2020-10-16 13:43:00,14.77,2020-10-16 05:15:00,25.88,2020-10-16 13:43:00,
Humla,Simikot,29.73056889,82.07185,2020-10-16 00:00:00,Clear throughout the day.,clear-day,2020-10-16 06:20:00,2020-10-16 17:46:00,0.99,0.0014,0.0051,2020-10-16 02:45:00,0.01,rain,22.37,2020-10-16 13:47:00,8.07,2020-10-17 06:12:00,22.09,2020-10-16 13:47:00,8.34,2020-10-17 06:12:00,1.2,0.47,1014.1,0.93,2.23,1602836160,122,0.16,9,1602828000,16.093,244.5,6.65,2020-10-16 04:58:00,22.37,2020-10-16 13:47:00,6.92,2020-10-16 04:58:00,22.09,2020-10-16 13:47:00,
Humla,Simikot Airport,29.77827806,81.95264499999999,2020-10-16 00:00:00,Clear throughout the day.,clear-day,2020-10-16 06:21:00,2020-10-16 17:47:00,0.99,0.0014,0.0051,2020-10-16 02:45:00,0.01,rain,23.41,2020-10-16 13:49:00,8.62,2020-10-17 06:13:00,23.13,2020-10-16 13:49:00,8.89,2020-10-17 06:13:00,0.25,0.42,1014.1,0.91,2.05,1602836040,172,0.18,9,1602827940,16.093,244.6,7.02,2020-10-16 04:59:00,23.41,2020-10-16 13:49:00,7.29,2020-10-16 04:59:00,23.13,2020-10-16 13:49:00,
Humla,Thali,29.91966194,81.87920194,2020-10-16 00:00:00,Clear throughout the day.,clear-day,2020-10-16 06:21:00,2020-10-16 17:47:00,0.99,0.0014,0.0051,2020-10-16 02:45:00,0.01,rain,16.91,2020-10-16 13:44:00,5.13,2020-10-17 06:23:00,16.63,2020-10-16 13:44:00,5.4,2020-10-17 06:23:00,-1.34,0.5,1015.5,1.09,2.7,1602832800,45,0.2,9,1602828000,16.093,242.4,4.04,2020-10-16 05:09:00,16.91,2020-10-16 13:44:00,4.31,2020-10-16 05:09:00,16.63,2020-10-16 13:44:00,
Ilam,Himali Gaun,26.90963889,87.92308333,2020-10-16 00:00:00,Humid throughout the day.,clear-day,2020-10-16 05:55:00,2020-10-16 17:25:00,0.99,0.0607,0.2377,2020-10-16 14:26:00,0.19,rain,27.69,2020-10-16 12:41:00,19.37,2020-10-17 05:40:00,29.96,2020-10-16 13:12:00,20.01,2020-10-17 05:41:00,21.24,0.93,1009.7,1.16,1.9,1602802200,33,0.19,8,1602827520,16.093,255.5,18.3,2020-10-16 05:12:00,27.69,2020-10-16 12:41:00,19.21,2020-10-16 05:12:00,29.96,2020-10-16 13:12:00,
Ilam,Ilam Tea Estate,27.06666667,88.0,2020-10-16 00:00:00,Partly cloudy throughout the day.,partly-cloudy-day,2020-10-16 05:55:00,2020-10-16 17:25:00,0.99,0.1356,0.5694,2020-10-16 15:17:00,0.33,rain,20.13,2020-10-16 11:56:00,12.63,2020-10-17 05:45:00,20.7,2020-10-16 12:11:00,13.76,2020-10-17 05:47:00,15.01,1.0,1011.1,0.91,1.7,1602806700,55,0.39,8,1602827520,15.459,252.6,11.45,2020-10-16 05:44:00,20.13,2020-10-16 11:56:00,13.19,2020-10-16 05:44:00,20.7,2020-10-16 12:11:00,
Ilam,Kanyam Tea Estate,26.8,87.9,2020-10-16 00:00:00,Humid throughout the day.,clear-day,2020-10-16 05:55:00,2020-10-16 17:25:00,0.99,0.0287,0.1202,2020-10-16 15:09:00,0.11,rain,32.3,2020-10-16 13:01:00,22.55,2020-10-17 05:43:00,38.63,2020-10-16 14:39:00,23.17,2020-10-17 05:43:00,22.74,0.79,1008.6,1.34,2.09,1602862260,11,0.08,8,1602827640,16.093,257.9,21.94,2020-10-16 05:27:00,32.3,2020-10-16 13:01:00,22.73,2020-10-16 05:28:00,38.63,2020-10-16 14:39:00,
Ilam,Soktim Tea E,26.88652778,88.02738889,2020-10-16 00:00:00,Humid throughout the day.,clear-day,2020-10-16 05:54:00,2020-10-16 17:25:00,0.99,0.0682,0.2727,2020-10-16 14:53:00,0.2,rain,25.08,2020-10-16 12:14:00,17.93,2020-10-17 05:40:00,25.4,2020-10-16 12:24:00,18.52,2020-10-17 05:41:00,19.38,0.96,1009.5,1.21,1.86,1602861360,23,0.2,8,1602827580,16.093,255.9,16.91,2020-10-16 05:03:00,25.08,2020-10-16 12:14:00,17.86,2020-10-16 05:03:00,25.4,2020-10-16 12:24:00,
Jajarkot,Bhanu Thana,28.961315000000003,82.268888,2020-10-16 00:00:00,Clear throughout the day.,clear-day,2020-10-16 06:19:00,2020-10-16 17:46:00,0.99,0.0077,0.0425,2020-10-16 15:00:00,0.06,rain,21.8,2020-10-16 13:40:00,10.64,2020-10-17 01:20:00,21.52,2020-10-16 13:40:00,10.91,2020-10-17 01:20:00,8.12,0.7,1013.1,1.56,2.93,1602864000,139,0.21,8,1602826920,16.093,246.8,8.88,2020-10-16 05:05:00,21.8,2020-10-16 13:40:00,8.6,2020-10-16 05:05:00,21.52,2020-10-16 13:40:00,
Jajarkot,Maina Gaun (D.Bas),28.69860389,82.200792,2020-10-16 00:00:00,Clear throughout the day.,clear-day,2020-10-16 06:19:00,2020-10-16 17:47:00,0.99,0.0134,0.075,2020-10-16 14:50:00,0.05,rain,29.44,2020-10-16 13:54:00,18.0,2020-10-17 06:16:00,29.16,2020-10-16 13:52:00,18.27,2020-10-17 06:16:00,14.83,0.64,1010.8,1.01,2.02,1602801300,119,0.15,7,1602830400,16.093,252.1,17.11,2020-10-16 05:51:00,29.44,2020-10-16 13:54:00,17.38,2020-10-16 05:51:00,29.16,2020-10-16 13:52:00,
Jhapa,Anarmani Birta,26.6706658,87.7004293,2020-10-16 00:00:00,Humid throughout the day.,clear-day,2020-10-16 05:55:00,2020-10-16 17:26:00,0.99,0.003,0.0109,2020-10-16 15:41:00,0.05,rain,34.32,2020-10-16 14:13:00,23.76,2020-10-17 05:34:00,40.9,2020-10-16 14:34:00,24.61,2020-10-17 05:34:00,23.5,0.75,1007.5,1.45,2.35,1602801660,21,0.01,8,1602827580,16.093,259.7,23.86,2020-10-16 05:09:00,34.32,2020-10-16 14:13:00,24.82,2020-10-16 05:09:00,40.9,2020-10-16 14:34:00,
Jhapa,Chnadra Gadhi,26.39616667,88.00375,2020-10-16 00:00:00,Humid throughout the day.,clear-day,2020-10-16 05:54:00,2020-10-16 17:25:00,0.99,0.0011,0.0051,2020-10-16 02:45:00,0.02,rain,33.18,2020-10-16 14:32:00,22.32,2020-10-17 05:19:00,38.81,2020-10-16 12:30:00,23.21,2020-10-17 05:20:00,22.83,0.76,1007.4,1.31,2.15,1602800040,35,0.02,8,1602826860,16.093,261.3,22.94,2020-10-16 04:28:00,33.18,2020-10-16 14:32:00,23.91,2020-10-16 04:28:00,38.81,2020-10-16 12:30:00,
Jhapa,Gaida (Kankai),26.68972222,87.98861111,2020-10-16 00:00:00,Humid throughout the day.,clear-day,2020-10-16 05:54:00,2020-10-16 17:25:00,0.99,0.0186,0.0887,2020-10-16 15:22:00,0.07,rain,33.15,2020-10-16 14:10:00,23.3,2020-10-17 05:43:00,40.76,2020-10-16 14:35:00,24.03,2020-10-17 06:08:00,23.47,0.78,1008.0,1.37,2.12,1602861840,8,0.05,8,1602827700,16.093,259.5,23.12,2020-10-16 05:21:00,33.15,2020-10-16 14:10:00,24.06,2020-10-16 05:21:00,40.76,2020-10-16 14:35:00,
Jhapa,Jumla,26.5647011,88.0614307,2020-10-16 00:00:00,Humid throughout the day.,clear-day,2020-10-16 05:54:00,2020-10-16 17:25:00,0.99,0.0063,0.0272,2020-10-16 15:25:00,0.03,rain,33.12,2020-10-16 13:04:00,22.54,2020-10-17 05:25:00,40.09,2020-10-16 12:45:00,23.37,2020-10-17 05:25:00,23.16,0.77,1007.6,1.36,2.25,1602796980,22,0.03,8,1602827160,16.093,260.6,22.78,2020-10-16 05:23:00,33.12,2020-10-16 13:04:00,23.69,2020-10-16 05:20:00,40.09,2020-10-16 12:45:00,
Jhapa,Kechana,26.65688889,87.86072222,2020-10-16 00:00:00,Humid throughout the day.,clear-day,2020-10-16 05:55:00,2020-10-16 17:26:00,0.99,0.009,0.0406,2020-10-16 15:26:00,0.05,rain,33.68,2020-10-16 14:15:00,23.34,2020-10-17 05:34:00,40.5,2020-10-16 14:34:00,24.18,2020-10-17 05:34:00,23.55,0.77,1007.7,1.41,2.17,1602798660,19,0.02,8,1602827640,16.093,259.9,23.45,2020-10-16 05:14:00,33.68,2020-10-16 14:15:00,24.41,2020-10-16 05:14:00,40.5,2020-10-16 14:34:00,
Jhapa,Sanischare,26.625063899999997,87.98858059999999,2020-10-16 00:00:00,Humid throughout the day.,clear-day,2020-10-16 05:54:00,2020-10-16 17:25:00,0.99,0.0126,0.0584,2020-10-16 15:22:00,0.05,rain,33.16,2020-10-16 14:20:00,23.05,2020-10-17 05:35:00,40.34,2020-10-16 14:32:00,23.88,2020-10-17 05:35:00,23.66,0.79,1007.8,1.34,2.13,1602797100,16,0.04,8,1602827520,16.093,260.1,23.12,2020-10-16 05:19:00,33.16,2020-10-16 14:20:00,24.1,2020-10-16 05:19:00,40.34,2020-10-16 14:32:00,
Jumla,Dipal Gaun,29.23088056,82.33041944,2020-10-16 00:00:00,Clear throughout the day.,clear-day,2020-10-16 06:19:00,2020-10-16 17:46:00,0.99,0.0017,0.0051,2020-10-16 02:45:00,0.02,rain,19.53,2020-10-16 13:27:00,4.5,2020-10-17 05:41:00,19.25,2020-10-16 13:27:00,3.82,2020-10-17 05:32:00,2.16,0.6,1013.8,1.33,2.25,1602834960,62,0.13,9,1602828840,16.093,243.7,3.42,2020-10-16 04:53:00,19.53,2020-10-16 13:27:00,2.44,2020-10-16 04:56:00,19.25,2020-10-16 13:27:00,
Jumla,Jacha,29.43111111,82.10744444,2020-10-16 00:00:00,Clear throughout the day.,clear-day,2020-10-16 06:20:00,2020-10-16 17:46:00,0.99,0.0014,0.0051,2020-10-16 02:45:00,0.01,rain,19.17,2020-10-16 13:17:00,5.52,2020-10-17 05:41:00,18.89,2020-10-16 13:17:00,4.64,2020-10-17 05:33:00,1.72,0.58,1013.6,1.44,2.67,1602804180,69,0.1,9,1602828660,16.093,244.8,4.34,2020-10-16 05:23:00,19.17,2020-10-16 13:17:00,3.24,2020-10-16 05:22:00,18.89,2020-10-16 13:17:00,
Jumla,Jumla,29.26385556,82.22301111,2020-10-16 00:00:00,Clear throughout the day.,clear-day,2020-10-16 06:19:00,2020-10-16 17:46:00,0.99,0.0014,0.0051,2020-10-16 02:45:00,0.02,rain,21.1,2020-10-16 13:36:00,5.03,2020-10-17 05:33:00,20.82,2020-10-16 13:36:00,4.14,2020-10-17 05:25:00,1.87,0.57,1013.8,1.4,2.48,1602804000,69,0.15,9,1602829200,16.093,244.4,3.78,2020-10-16 04:48:00,21.1,2020-10-16 13:36:00,2.59,2020-10-16 04:48:00,20.82,2020-10-16 13:36:00,
Jumla,Tatopani,29.316667,82.283333,2020-10-16 00:00:00,Clear throughout the day.,clear-day,2020-10-16 06:19:00,2020-10-16 17:46:00,0.99,0.0014,0.0049,2020-10-16 02:45:00,0.02,rain,18.11,2020-10-16 13:31:00,3.71,2020-10-17 05:42:00,17.83,2020-10-16 13:31:00,2.65,2020-10-17 05:33:00,1.09,0.6,1013.8,1.44,2.41,1602803940,67,0.13,9,1602828960,16.093,243.8,2.66,2020-10-16 04:57:00,18.11,2020-10-16 13:31:00,1.33,2020-10-16 04:58:00,17.83,2020-10-16 13:31:00,
Kabhre,Budal (Banepa),27.61611667,85.56550278,2020-10-16 00:00:00,Clear throughout the day.,clear-day,2020-10-16 06:05:00,2020-10-16 17:34:00,0.99,0.0242,0.0582,2020-10-16 17:29:00,0.14,rain,26.75,2020-10-16 13:34:00,16.6,2020-10-17 06:23:00,27.48,2020-10-16 13:44:00,17.39,2020-10-17 06:22:00,18.07,0.89,1010.2,0.71,1.59,1602837900,58,0.16,8,1602827820,16.093,254.6,15.68,2020-10-16 06:04:00,26.75,2020-10-16 13:34:00,16.42,2020-10-16 06:06:00,27.48,2020-10-16 13:44:00,
Kabhre,Dhulikhel,27.63882194,85.70498083,2020-10-16 00:00:00,Clear throughout the day.,clear-day,2020-10-16 06:04:00,2020-10-16 17:33:00,0.99,0.0191,0.0491,2020-10-16 17:33:00,0.11,rain,31.15,2020-10-16 14:19:00,18.12,2020-10-17 06:01:00,32.37,2020-10-16 14:43:00,18.81,2020-10-17 06:01:00,18.49,0.79,1010.5,0.76,1.48,1602837840,357,0.16,8,1602828180,16.093,254.6,15.96,2020-10-16 05:39:00,31.15,2020-10-16 14:19:00,16.48,2020-10-16 05:39:00,32.37,2020-10-16 14:43:00,
Kabhre,Dolal Ghat,27.69382389,85.635637,2020-10-16 00:00:00,Clear throughout the day.,clear-day,2020-10-16 06:04:00,2020-10-16 17:34:00,0.99,0.0211,0.0585,2020-10-16 17:28:00,0.11,rain,29.61,2020-10-16 13:53:00,16.82,2020-10-17 06:14:00,30.07,2020-10-16 14:06:00,17.3,2020-10-17 06:13:00,17.62,0.8,1010.4,0.66,1.41,1602837900,28,0.16,9,1602828180,16.093,254.6,15.62,2020-10-16 05:42:00,29.61,2020-10-16 13:53:00,15.97,2020-10-16 05:44:00,30.07,2020-10-16 14:06:00,
Kabhre,Panchkhal,27.63333333,85.51666667,2020-10-16 00:00:00,Clear throughout the day.,clear-day,2020-10-16 06:05:00,2020-10-16 17:34:00,0.99,0.0258,0.0632,2020-10-16 17:26:00,0.15,rain,26.83,2020-10-16 13:35:00,16.47,2020-10-17 06:26:00,27.58,2020-10-16 13:44:00,17.2,2020-10-17 06:25:00,18.16,0.89,1010.2,0.66,1.57,1602837960,67,0.16,8,1602827760,16.093,254.7,15.87,2020-10-16 06:11:00,26.83,2020-10-16 13:35:00,16.58,2020-10-16 06:12:00,27.58,2020-10-16 13:44:00,
Kailali,Dhangadhi,28.68333333,80.6,2020-10-16 00:00:00,Humid throughout the day.,clear-day,2020-10-16 06:25:00,2020-10-16 17:53:00,0.99,0.0014,0.0051,2020-10-16 02:45:00,0.02,rain,33.23,2020-10-16 14:09:00,20.16,2020-10-17 05:04:00,36.27,2020-10-16 13:00:00,20.97,2020-10-17 05:06:00,21.48,0.76,1007.5,1.3,2.29,1602841860,26,0.0,8,1602829320,16.093,254.7,21.48,2020-10-16 04:19:00,33.23,2020-10-16 14:09:00,22.41,2020-10-16 05:15:00,36.27,2020-10-16 13:00:00,
Kailali,Godavari(West),28.554054999999998,80.831765,2020-10-16 00:00:00,Clear throughout the day.,clear-day,2020-10-16 06:24:00,2020-10-16 17:52:00,0.99,0.0014,0.0051,2020-10-16 02:45:00,0.02,rain,33.28,2020-10-16 14:12:00,20.07,2020-10-17 05:13:00,35.93,2020-10-16 13:02:00,20.92,2020-10-17 05:20:00,21.39,0.76,1007.4,1.37,2.26,1602840360,27,0.01,8,1602829080,16.093,255.1,21.41,2020-10-16 04:54:00,33.28,2020-10-16 14:12:00,22.46,2020-10-16 04:58:00,35.93,2020-10-16 13:02:00,
Kailali,Malakheti,28.83333333,80.56666667,2020-10-16 00:00:00,Humid throughout the day.,clear-day,2020-10-16 06:26:00,2020-10-16 17:53:00,0.99,0.0017,0.0085,2020-10-16 15:47:00,0.02,rain,33.43,2020-10-16 14:27:00,20.09,2020-10-17 05:02:00,36.46,2020-10-16 15:21:00,20.71,2020-10-17 05:03:00,21.11,0.74,1008.1,1.38,2.28,1602859980,51,0.01,8,1602829080,16.093,253.4,20.96,2020-10-16 05:27:00,33.43,2020-10-16 14:27:00,21.68,2020-10-16 05:30:00,36.46,2020-10-16 15:21:00,
Kailali,Sitapur,28.66417611,80.97850889,2020-10-16 00:00:00,Clear throughout the day.,clear-day,2020-10-16 06:24:00,2020-10-16 17:52:00,0.99,0.0014,0.0051,2020-10-16 02:45:00,0.02,rain,33.76,2020-10-16 14:23:00,21.39,2020-10-17 05:31:00,35.82,2020-10-16 14:41:00,21.88,2020-10-17 05:39:00,20.58,0.69,1007.8,1.45,2.38,1602785700,39,0.03,8,1602828960,16.093,254.4,22.15,2020-10-16 04:54:00,33.76,2020-10-16 14:23:00,22.95,2020-10-16 05:00:00,35.82,2020-10-16 14:41:00,
Kailali,Teghari,28.87623,80.57918889,2020-10-16 00:00:00,Humid throughout the day.,clear-day,2020-10-16 06:26:00,2020-10-16 17:53:00,0.99,0.002,0.0137,2020-10-16 15:47:00,0.02,rain,32.75,2020-10-16 14:19:00,20.17,2020-10-17 05:09:00,35.24,2020-10-16 15:17:00,20.65,2020-10-17 05:10:00,20.39,0.72,1008.4,1.41,2.26,1602860760,49,0.02,8,1602828900,16.093,252.7,20.81,2020-10-16 05:27:00,32.75,2020-10-16 14:19:00,21.4,2020-10-16 05:30:00,35.24,2020-10-16 15:17:00,
Kalikot,Mahendra Nagar,29.09644444,81.70052778,2020-10-16 00:00:00,Clear throughout the day.,clear-day,2020-10-16 06:21:00,2020-10-16 17:48:00,0.99,0.0031,0.0181,2020-10-16 14:50:00,0.02,rain,26.11,2020-10-16 13:04:00,15.21,2020-10-17 06:11:00,25.83,2020-10-16 13:04:00,15.48,2020-10-17 06:11:00,8.86,0.56,1011.5,1.56,3.19,1602802680,53,0.07,8,1602828540,16.093,247.7,13.64,2020-10-16 05:04:00,26.11,2020-10-16 13:04:00,13.91,2020-10-16 05:04:00,25.83,2020-10-16 13:04:00,
Kalikot,Manma,29.2495,81.63913889,2020-10-16 00:00:00,Clear throughout the day.,clear-day,2020-10-16 06:22:00,2020-10-16 17:48:00,0.99,0.0014,0.0051,2020-10-16 02:45:00,0.02,rain,25.02,2020-10-16 13:14:00,12.95,2020-10-17 06:16:00,24.74,2020-10-16 13:14:00,13.22,2020-10-17 06:16:00,6.8,0.56,1012.2,1.59,3.67,1602804300,40,0.1,8,1602829560,16.093,246.7,11.15,2020-10-16 05:12:00,25.02,2020-10-16 13:14:00,11.42,2020-10-16 05:12:00,24.74,2020-10-16 13:14:00,
Kalikot,Nagma,29.12995833,81.58836111,2020-10-16 00:00:00,Clear throughout the day.,clear-day,2020-10-16 06:22:00,2020-10-16 17:49:00,0.99,0.0019,0.007,2020-10-16 14:51:00,0.02,rain,27.36,2020-10-16 13:29:00,16.31,2020-10-17 05:38:00,27.08,2020-10-16 13:29:00,16.58,2020-10-17 05:38:00,9.85,0.55,1011.7,1.62,3.82,1602803820,46,0.09,8,1602828600,16.093,248.2,14.79,2020-10-16 05:11:00,27.36,2020-10-16 13:29:00,15.06,2020-10-16 05:11:00,27.08,2020-10-16 13:29:00,
Kanchanpur,Dodhara,28.86185889,80.44044194,2020-10-16 00:00:00,Humid throughout the day.,clear-day,2020-10-16 06:26:00,2020-10-16 17:54:00,0.99,0.0014,0.0051,2020-10-16 02:45:00,0.02,rain,33.32,2020-10-16 14:24:00,20.02,2020-10-17 05:00:00,36.36,2020-10-16 15:24:00,20.6,2020-10-17 05:00:00,21.06,0.74,1008.0,1.4,2.25,1602859860,37,0.0,8,1602829440,16.093,253.5,20.89,2020-10-16 05:03:00,33.32,2020-10-16 14:24:00,21.6,2020-10-16 05:08:00,36.36,2020-10-16 15:24:00,
Kanchanpur,Hanmannagar,28.698575,80.37540389,2020-10-16 00:00:00,Humid throughout the day.,clear-day,2020-10-16 06:26:00,2020-10-16 17:54:00,0.99,0.0014,0.0051,2020-10-16 02:45:00,0.02,rain,32.61,2020-10-16 14:16:00,19.2,2020-10-17 05:02:00,34.99,2020-10-16 12:55:00,20.07,2020-10-17 05:02:00,21.1,0.77,1007.7,1.25,2.5,1602844020,10,0.0,8,1602829380,16.093,254.9,20.53,2020-10-16 04:45:00,32.61,2020-10-16 14:16:00,21.51,2020-10-16 04:48:00,34.99,2020-10-16 12:55:00,
Kanchanpur,Taulihawa,28.89702,80.36996389,2020-10-16 00:00:00,Humid throughout the day.,clear-day,2020-10-16 06:26:00,2020-10-16 17:54:00,0.99,0.0014,0.0051,2020-10-16 02:45:00,0.02,rain,33.32,2020-10-16 14:22:00,20.23,2020-10-17 05:08:00,36.44,2020-10-16 15:16:00,20.74,2020-10-17 05:08:00,20.9,0.73,1008.0,1.46,2.5,1602796920,28,0.0,8,1602829440,16.093,253.5,20.99,2020-10-16 04:53:00,33.32,2020-10-16 14:22:00,21.66,2020-10-16 04:56:00,36.44,2020-10-16 15:16:00,
Kapilbastu,Banganga,27.669936100000005,82.7911917,2020-10-16 00:00:00,Humid throughout the day.,clear-day,2020-10-16 06:16:00,2020-10-16 17:45:00,0.99,0.0075,0.0293,2020-10-16 20:42:00,0.01,rain,34.27,2020-10-16 14:25:00,22.77,2020-10-17 05:24:00,37.3,2020-10-16 14:24:00,23.26,2020-10-17 05:25:00,21.0,0.67,1007.2,1.8,2.99,1602839880,51,0.09,7,1602830400,16.093,258.6,22.31,2020-10-16 04:11:00,34.27,2020-10-16 14:25:00,23.0,2020-10-16 04:25:00,37.3,2020-10-16 14:24:00,
Kapilvastu,Bahadur Ganj,27.693294399999996,83.1612556,2020-10-16 00:00:00,Humid throughout the day.,clear-day,2020-10-16 06:14:00,2020-10-16 17:44:00,0.99,0.0159,0.0481,2020-10-16 10:42:00,0.03,rain,34.3,2020-10-16 14:20:00,23.31,2020-10-17 05:34:00,38.36,2020-10-16 14:46:00,23.73,2020-10-17 05:36:00,20.68,0.65,1007.8,1.73,2.37,1602838740,56,0.18,7,1602829560,16.093,258.2,22.69,2020-10-16 05:00:00,34.3,2020-10-16 14:20:00,23.19,2020-10-16 05:02:00,38.36,2020-10-16 14:46:00,
Kapilvastu,Sallyan (Kaski),27.55,83.85,2020-10-16 00:00:00,Humid throughout the day.,clear-day,2020-10-16 06:11:00,2020-10-16 17:41:00,0.99,0.0227,0.3264,2020-10-16 00:00:00,0.1,rain,31.37,2020-10-16 13:57:00,21.78,2020-10-17 05:01:00,33.79,2020-10-16 13:53:00,22.47,2020-10-17 05:10:00,21.53,0.8,1007.7,1.58,2.65,1602842760,82,0.12,8,1602828180,16.093,258.3,21.69,2020-10-16 03:41:00,31.37,2020-10-16 13:57:00,22.78,2020-10-16 03:43:00,33.79,2020-10-16 13:53:00,
Kaski,Begnas,28.212011100000005,83.8915417,2020-10-16 00:00:00,Clear throughout the day.,clear-day,2020-10-16 06:12:00,2020-10-16 17:40:00,0.99,0.0344,0.1133,2020-10-16 15:06:00,0.11,rain,26.23,2020-10-16 13:45:00,16.73,2020-10-17 05:35:00,26.13,2020-10-16 13:45:00,17.0,2020-10-17 05:35:00,15.92,0.77,1010.3,1.14,2.02,1602802080,307,0.18,7,1602828360,16.066,254.5,16.4,2020-10-16 05:41:00,26.23,2020-10-16 13:45:00,16.67,2020-10-16 05:41:00,26.13,2020-10-16 13:45:00,
Kaski,Begnas Tal,28.35805556,84.105175,2020-10-16 00:00:00,Partly cloudy throughout the day.,partly-cloudy-day,2020-10-16 06:11:00,2020-10-16 17:39:00,0.99,0.0407,0.1074,2020-10-16 14:54:00,0.14,rain,21.91,2020-10-16 13:20:00,13.06,2020-10-17 06:27:00,22.0,2020-10-16 13:23:00,13.33,2020-10-17 06:27:00,14.28,0.88,1011.8,1.31,2.23,1602829020,5,0.25,8,1602828240,15.046,250.2,11.97,2020-10-16 06:07:00,21.91,2020-10-16 13:20:00,12.24,2020-10-16 06:07:00,22.0,2020-10-16 13:23:00,
Kaski,Bhadaure Deurali,28.21849444,83.9742,2020-10-16 00:00:00,Clear throughout the day.,clear-day,2020-10-16 06:12:00,2020-10-16 17:40:00,0.99,0.0339,0.1175,2020-10-16 14:58:00,0.1,rain,29.75,2020-10-16 13:49:00,18.07,2020-10-17 06:04:00,30.83,2020-10-16 13:53:00,18.34,2020-10-17 06:04:00,17.44,0.72,1010.2,1.15,1.93,1602785700,310,0.16,7,1602828540,15.951,254.8,17.79,2020-10-16 05:39:00,29.75,2020-10-16 13:49:00,18.06,2020-10-16 05:39:00,30.83,2020-10-16 13:53:00,
Kaski,Ghandruk,28.26168056,83.96873333,2020-10-16 00:00:00,Clear throughout the day.,clear-day,2020-10-16 06:12:00,2020-10-16 17:40:00,0.99,0.0325,0.132,2020-10-16 14:59:00,0.1,rain,28.68,2020-10-16 13:45:00,17.61,2020-10-17 06:00:00,29.56,2020-10-16 13:48:00,17.88,2020-10-17 06:00:00,16.71,0.72,1010.5,1.18,2.02,1602828960,316,0.16,7,1602828540,15.718,253.9,17.14,2020-10-16 05:40:00,28.68,2020-10-16 13:45:00,17.41,2020-10-16 05:40:00,29.56,2020-10-16 13:48:00,
Kaski,Lamachaur,28.29653889,83.81791111,2020-10-16 00:00:00,Partly cloudy throughout the day.,partly-cloudy-day,2020-10-16 06:12:00,2020-10-16 17:40:00,0.99,0.0345,0.1217,2020-10-16 15:19:00,0.12,rain,23.87,2020-10-16 13:40:00,14.78,2020-10-17 06:16:00,23.77,2020-10-16 13:43:00,15.05,2020-10-17 06:16:00,14.71,0.81,1011.1,1.18,2.14,1602801960,315,0.23,7,1602828180,16.02,252.2,14.18,2020-10-16 06:13:00,23.87,2020-10-16 13:40:00,14.45,2020-10-16 06:13:00,23.77,2020-10-16 13:43:00,
Kaski,Lumle,28.26555556,83.82211944,2020-10-16 00:00:00,Partly cloudy throughout the day.,partly-cloudy-day,2020-10-16 06:12:00,2020-10-16 17:40:00,0.99,0.0362,0.1276,2020-10-16 15:16:00,0.12,rain,24.89,2020-10-16 13:44:00,15.58,2020-10-17 05:39:00,24.78,2020-10-16 13:45:00,15.85,2020-10-17 05:39:00,15.06,0.79,1010.8,1.16,2.2,1602801780,310,0.21,7,1602828240,16.017,253.3,15.17,2020-10-16 06:06:00,24.89,2020-10-16 13:44:00,15.44,2020-10-16 06:06:00,24.78,2020-10-16 13:45:00,
Kaski,Pokhara Airport,28.22,84.0,2020-10-16 00:00:00,Clear throughout the day.,clear-day,2020-10-16 06:11:00,2020-10-16 17:40:00,0.99,0.0336,0.1188,2020-10-16 14:56:00,0.1,rain,29.85,2020-10-16 13:50:00,18.12,2020-10-17 06:08:00,30.97,2020-10-16 13:54:00,18.39,2020-10-17 06:08:00,17.53,0.72,1010.1,1.15,1.91,1602785700,316,0.16,7,1602828600,15.904,254.8,17.75,2020-10-16 05:37:00,29.85,2020-10-16 13:50:00,18.02,2020-10-16 05:37:00,30.97,2020-10-16 13:54:00,
Kaski,Pokhara Airport,28.23333333,84.0,2020-10-16 00:00:00,Clear throughout the day.,clear-day,2020-10-16 06:11:00,2020-10-16 17:40:00,0.99,0.033,0.126,2020-10-16 14:56:00,0.09,rain,29.57,2020-10-16 13:50:00,17.98,2020-10-17 06:09:00,30.64,2020-10-16 13:53:00,18.25,2020-10-17 06:09:00,17.28,0.72,1010.1,1.16,1.95,1602785700,328,0.15,7,1602828660,15.832,254.7,17.5,2020-10-16 05:36:00,29.57,2020-10-16 13:50:00,17.77,2020-10-16 05:36:00,30.64,2020-10-16 13:53:00,
Kathmandu,Budhanilakan,27.78333333,85.31666667,2020-10-16 00:00:00,Clear throughout the day.,clear-day,2020-10-16 06:06:00,2020-10-16 17:35:00,0.99,0.0308,0.0687,2020-10-17 00:00:00,0.15,rain,27.31,2020-10-16 13:46:00,16.53,2020-10-17 06:20:00,27.88,2020-10-16 14:03:00,16.8,2020-10-17 06:20:00,17.81,0.84,1010.2,0.77,2.0,1602838800,63,0.24,8,1602827760,16.093,254.9,16.39,2020-10-16 05:41:00,27.31,2020-10-16 13:46:00,16.94,2020-10-16 06:01:00,27.88,2020-10-16 14:03:00,
Kathmandu,Kathmandu Airport,27.703825,85.35624722,2020-10-16 00:00:00,Partly cloudy throughout the day.,partly-cloudy-day,2020-10-16 06:06:00,2020-10-16 17:35:00,0.99,0.0342,0.0661,2020-10-16 21:16:00,0.16,rain,27.34,2020-10-16 11:56:00,16.53,2020-10-17 05:59:00,28.09,2020-10-16 14:50:00,17.03,2020-10-17 05:59:00,18.68,0.81,1010.1,0.61,1.84,1602838740,3,0.29,8,1602827700,12.51,255.0,17.47,2020-10-16 06:22:00,27.34,2020-10-16 11:56:00,18.06,2020-10-16 06:23:00,28.09,2020-10-16 14:50:00,
Kathmandu,Naikap,27.7726953,85.4277003,2020-10-16 00:00:00,Clear throughout the day.,clear-day,2020-10-16 06:05:00,2020-10-16 17:34:00,0.99,0.0276,0.0557,2020-10-16 17:09:00,0.14,rain,24.95,2020-10-16 13:45:00,14.98,2020-10-17 05:25:00,24.67,2020-10-16 13:45:00,15.25,2020-10-17 05:25:00,15.72,0.85,1010.4,0.61,1.56,1602839100,58,0.18,9,1602828060,16.093,254.7,14.55,2020-10-16 05:01:00,24.95,2020-10-16 13:45:00,15.01,2020-10-16 05:05:00,24.67,2020-10-16 13:45:00,
Kathmandu,Pharping,27.76666667,85.31666667,2020-10-16 00:00:00,Clear throughout the day.,clear-day,2020-10-16 06:06:00,2020-10-16 17:35:00,0.99,0.0324,0.0709,2020-10-17 00:00:00,0.16,rain,27.59,2020-10-16 13:46:00,16.62,2020-10-17 06:21:00,28.16,2020-10-16 14:03:00,16.9,2020-10-17 06:21:00,18.13,0.84,1010.2,0.74,2.0,1602839040,57,0.24,8,1602827700,16.093,255.0,16.61,2020-10-16 05:41:00,27.59,2020-10-16 13:46:00,17.24,2020-10-16 06:03:00,28.16,2020-10-16 14:03:00,
Kathmandu,Sankhu,27.73333333,85.33333333,2020-10-16 00:00:00,Clear throughout the day.,clear-day,2020-10-16 06:06:00,2020-10-16 17:35:00,0.99,0.034,0.0696,2020-10-16 21:31:00,0.16,rain,27.37,2020-10-16 13:45:00,16.59,2020-10-17 06:20:00,28.0,2020-10-16 14:08:00,17.0,2020-10-17 06:19:00,18.36,0.85,1010.2,0.69,1.93,1602839100,51,0.23,8,1602827700,16.093,255.1,16.75,2020-10-16 06:04:00,27.37,2020-10-16 13:45:00,17.45,2020-10-16 06:09:00,28.0,2020-10-16 14:08:00,
Kathmandu,Sankhu,27.73333333,85.33333333,2020-10-16 00:00:00,Clear throughout the day.,clear-day,2020-10-16 06:06:00,2020-10-16 17:35:00,0.99,0.034,0.0696,2020-10-16 21:31:00,0.16,rain,27.37,2020-10-16 13:45:00,16.59,2020-10-17 06:20:00,28.0,2020-10-16 14:08:00,17.0,2020-10-17 06:19:00,18.36,0.85,1010.2,0.69,1.93,1602839100,51,0.23,8,1602827700,16.093,255.1,16.75,2020-10-16 06:04:00,27.37,2020-10-16 13:45:00,17.45,2020-10-16 06:09:00,28.0,2020-10-16 14:08:00,
Kathmandu,Sivapuri,27.75,85.43333333,2020-10-16 00:00:00,Clear throughout the day.,clear-day,2020-10-16 06:05:00,2020-10-16 17:34:00,0.99,0.0287,0.0594,2020-10-16 17:15:00,0.14,rain,27.33,2020-10-16 13:52:00,15.81,2020-10-17 06:20:00,27.7,2020-10-16 14:08:00,16.11,2020-10-17 06:21:00,16.91,0.82,1010.3,0.54,1.5,1602841560,64,0.16,9,1602828060,16.093,255.0,15.83,2020-10-16 06:05:00,27.33,2020-10-16 13:52:00,16.26,2020-10-16 06:08:00,27.7,2020-10-16 14:08:00,
Kathmandu,Sundarijal,27.8,85.43333333,2020-10-16 00:00:00,Clear throughout the day.,clear-day,2020-10-16 06:05:00,2020-10-16 17:34:00,0.99,0.0259,0.0536,2020-10-16 17:04:00,0.14,rain,23.49,2020-10-16 13:43:00,13.06,2020-10-17 06:07:00,23.21,2020-10-16 13:43:00,13.33,2020-10-17 06:07:00,14.54,0.88,1010.6,0.68,1.59,1602837840,52,0.19,9,1602828060,16.093,254.4,12.66,2020-10-16 05:42:00,23.49,2020-10-16 13:43:00,12.96,2020-10-16 05:53:00,23.21,2020-10-16 13:43:00,
Kathmandu,Tarebhir,27.78419167,85.29049444,2020-10-16 00:00:00,Clear throughout the day.,clear-day,2020-10-16 06:06:00,2020-10-16 17:35:00,0.99,0.0317,0.0782,2020-10-17 00:00:00,0.16,rain,26.19,2020-10-16 13:40:00,16.44,2020-10-17 06:12:00,26.05,2020-10-16 13:42:00,16.71,2020-10-17 06:12:00,17.5,0.86,1010.2,0.81,2.09,1602838800,69,0.26,8,1602827640,16.093,254.9,16.12,2020-10-16 05:27:00,26.19,2020-10-16 13:40:00,16.79,2020-10-16 05:33:00,26.05,2020-10-16 13:42:00,
Kathmandu,Tokha,27.7972222,85.3577778,2020-10-16 00:00:00,Clear throughout the day.,clear-day,2020-10-16 06:06:00,2020-10-16 17:35:00,0.99,0.0283,0.0523,2020-10-17 00:00:00,0.15,rain,23.83,2020-10-16 13:42:00,14.02,2020-10-17 06:13:00,23.55,2020-10-16 13:43:00,14.29,2020-10-17 06:13:00,15.33,0.89,1010.4,0.76,1.85,1602838500,60,0.23,8,1602827880,16.093,254.6,13.6,2020-10-16 05:43:00,23.83,2020-10-16 13:42:00,14.12,2020-10-16 06:05:00,23.55,2020-10-16 13:43:00,
Khotang,Diktel,27.02930083,86.84337278,2020-10-16 00:00:00,Humid throughout the day.,clear-day,2020-10-16 05:59:00,2020-10-16 17:29:00,0.99,0.0366,0.2067,2020-10-16 00:44:00,0.22,rain,28.27,2020-10-16 12:49:00,19.0,2020-10-17 05:34:00,30.68,2020-10-16 13:12:00,19.6,2020-10-17 05:34:00,21.53,0.93,1009.2,1.04,1.73,1602788820,351,0.12,8,1602826980,15.949,256.0,18.69,2020-10-16 05:11:00,28.27,2020-10-16 12:49:00,19.72,2020-10-16 05:10:00,30.68,2020-10-16 13:12:00,
Khotang,Dwarpa,27.359795000000002,86.7486619,2020-10-16 00:00:00,Clear throughout the day.,clear-day,2020-10-16 06:00:00,2020-10-16 17:29:00,0.99,0.0759,0.2794,2020-10-16 16:21:00,0.25,rain,21.22,2020-10-16 12:55:00,13.78,2020-10-17 05:43:00,21.54,2020-10-16 13:03:00,14.23,2020-10-17 05:41:00,16.3,0.99,1010.8,1.12,2.4,1602800820,44,0.32,8,1602825720,15.948,253.3,13.29,2020-10-16 05:33:00,21.22,2020-10-16 12:55:00,13.94,2020-10-16 05:33:00,21.54,2020-10-16 13:03:00,
Khotang,Khotang Bazar,27.1408985,86.4317585,2020-10-16 00:00:00,Humid throughout the day.,clear-day,2020-10-16 06:01:00,2020-10-16 17:31:00,0.99,0.0362,0.2072,2020-10-16 00:40:00,0.22,rain,32.06,2020-10-16 14:18:00,20.79,2020-10-17 05:42:00,39.22,2020-10-16 14:44:00,21.36,2020-10-17 05:41:00,23.32,0.89,1009.4,1.18,1.9,1602838260,32,0.11,8,1602827220,16.093,256.5,20.52,2020-10-16 05:52:00,32.06,2020-10-16 14:18:00,21.5,2020-10-16 05:46:00,39.22,2020-10-16 14:44:00,
Khotang,Kurle Ghat,27.21666667,86.85,2020-10-16 00:00:00,Clear throughout the day.,clear-day,2020-10-16 05:59:00,2020-10-16 17:29:00,0.99,0.0619,0.1965,2020-10-16 17:25:00,0.25,rain,23.52,2020-10-16 13:36:00,15.52,2020-10-17 05:43:00,23.96,2020-10-16 13:38:00,16.21,2020-10-17 05:42:00,17.77,0.99,1010.3,0.89,1.82,1602832380,307,0.27,8,1602826920,16.093,254.6,14.89,2020-10-16 05:38:00,23.52,2020-10-16 13:36:00,16.01,2020-10-16 05:36:00,23.96,2020-10-16 13:38:00,
Lalitpur,Chapa Gaun,27.566666700000003,85.3166667,2020-10-16 00:00:00,Humid throughout the day.,clear-day,2020-10-16 06:06:00,2020-10-16 17:35:00,0.99,0.0439,0.1101,2020-10-16 21:12:00,0.19,rain,25.46,2020-10-16 12:53:00,16.98,2020-10-17 06:25:00,25.57,2020-10-16 12:59:00,17.98,2020-10-17 04:52:00,18.83,0.94,1010.0,0.88,1.91,1602837540,60,0.26,8,1602827280,16.093,254.9,16.32,2020-10-16 06:01:00,25.46,2020-10-16 12:53:00,17.58,2020-10-16 05:45:00,25.57,2020-10-16 12:59:00,
Lalitpur,Godavari,27.68333333,85.3,2020-10-16 00:00:00,Clear throughout the day.,clear-day,2020-10-16 06:06:00,2020-10-16 17:35:00,0.99,0.0386,0.0928,2020-10-16 21:30:00,0.18,rain,27.59,2020-10-16 13:33:00,17.21,2020-10-17 06:22:00,28.57,2020-10-16 13:56:00,17.78,2020-10-17 06:21:00,19.38,0.89,1010.1,0.78,2.02,1602838500,46,0.25,8,1602827520,16.093,255.0,17.05,2020-10-16 05:55:00,27.59,2020-10-16 13:33:00,17.93,2020-10-16 05:49:00,28.57,2020-10-16 13:56:00,
Lalitpur,Khokana,27.65,85.38333333,2020-10-16 00:00:00,Humid throughout the day.,clear-day,2020-10-16 06:05:00,2020-10-16 17:35:00,0.99,0.0346,0.0647,2020-10-16 21:01:00,0.17,rain,27.49,2020-10-16 13:31:00,17.04,2020-10-17 06:24:00,28.49,2020-10-16 14:02:00,17.7,2020-10-17 06:23:00,19.2,0.89,1010.1,0.73,1.79,1602838140,60,0.22,8,1602827580,16.093,254.9,16.74,2020-10-16 06:06:00,27.49,2020-10-16 13:31:00,17.57,2020-10-16 06:02:00,28.49,2020-10-16 14:02:00,
Lalitpur,Khumaltar,27.5929167,85.3788333,2020-10-16 00:00:00,Clear throughout the day.,clear-day,2020-10-16 06:05:00,2020-10-16 17:35:00,0.99,0.0371,0.0762,2020-10-16 20:59:00,0.18,rain,25.49,2020-10-16 13:00:00,16.64,2020-10-17 06:24:00,25.54,2020-10-16 13:07:00,17.55,2020-10-17 04:55:00,18.46,0.93,1010.0,0.81,1.85,1602837780,65,0.22,8,1602827340,16.093,254.8,16.09,2020-10-16 06:04:00,25.49,2020-10-16 13:00:00,17.17,2020-10-16 05:45:00,25.54,2020-10-16 13:07:00,
Lalitpur,Kritipur (Bagban),27.68333333,85.33333333,2020-10-16 00:00:00,Clear throughout the day.,clear-day,2020-10-16 06:06:00,2020-10-16 17:35:00,0.99,0.0365,0.079,2020-10-16 21:20:00,0.17,rain,27.55,2020-10-16 13:36:00,17.02,2020-10-17 06:20:00,28.55,2020-10-16 14:17:00,17.58,2020-10-17 06:19:00,19.32,0.87,1010.1,0.72,1.92,1602838500,40,0.26,8,1602827580,16.093,255.0,17.16,2020-10-16 06:08:00,27.55,2020-10-16 13:36:00,17.94,2020-10-16 06:07:00,28.55,2020-10-16 14:17:00,
Lalitpur,Lalitpur (Kopundol),27.659325,85.3697083,2020-10-16 00:00:00,Clear throughout the day.,clear-day,2020-10-16 06:05:00,2020-10-16 17:35:00,0.99,0.0352,0.0686,2020-10-16 21:06:00,0.17,rain,27.59,2020-10-16 13:33:00,17.05,2020-10-17 06:23:00,28.63,2020-10-16 14:09:00,17.68,2020-10-17 06:22:00,19.31,0.88,1010.1,0.72,1.82,1602838260,55,0.23,8,1602827580,16.093,254.9,16.89,2020-10-16 06:07:00,27.59,2020-10-16 13:33:00,17.7,2020-10-16 06:04:00,28.63,2020-10-16 14:09:00,
Lalitpur,Lubhu,27.60325833,85.32656389,2020-10-16 00:00:00,Humid throughout the day.,clear-day,2020-10-16 06:06:00,2020-10-16 17:35:00,0.99,0.0411,0.0978,2020-10-16 21:13:00,0.18,rain,26.19,2020-10-16 13:02:00,17.13,2020-10-17 06:24:00,26.28,2020-10-16 13:08:00,18.01,2020-10-17 06:21:00,19.07,0.92,1010.0,0.83,1.91,1602837840,58,0.25,8,1602827340,16.093,254.9,16.58,2020-10-16 06:01:00,26.19,2020-10-16 13:02:00,17.68,2020-10-16 05:46:00,26.28,2020-10-16 13:08:00,
Lalitpur,Tikathali,27.576825,85.3540444,2020-10-16 00:00:00,Clear throughout the day.,clear-day,2020-10-16 06:05:00,2020-10-16 17:35:00,0.99,0.0399,0.0903,2020-10-16 21:04:00,0.18,rain,24.94,2020-10-16 12:58:00,16.39,2020-10-17 06:23:00,25.01,2020-10-16 13:05:00,17.38,2020-10-17 04:50:00,18.22,0.94,1010.0,0.84,1.89,1602837660,64,0.24,8,1602827280,16.093,254.8,15.81,2020-10-16 06:02:00,24.94,2020-10-16 12:58:00,17.0,2020-10-16 05:50:00,25.01,2020-10-16 13:05:00,
Lamiung,Khudi Bazar,28.12677778,84.34494167,2020-10-16 00:00:00,Partly cloudy throughout the day.,partly-cloudy-day,2020-10-16 06:10:00,2020-10-16 17:38:00,0.99,0.0854,0.3734,2020-10-16 02:40:00,0.19,rain,30.28,2020-10-16 13:51:00,18.29,2020-10-17 06:06:00,31.14,2020-10-16 14:02:00,18.56,2020-10-17 06:06:00,17.54,0.7,1010.0,1.01,1.67,1602872100,23,0.27,8,1602828240,16.093,255.9,18.34,2020-10-16 05:59:00,30.28,2020-10-16 13:51:00,18.61,2020-10-16 05:56:00,31.14,2020-10-16 14:02:00,
Lamjung,Besishahar,28.25596667,84.47929722,2020-10-15 21:45:00,Foggy in the afternoon.,fog,2020-10-16 06:09:00,2020-10-16 17:38:00,0.99,0.0726,0.1597,2020-10-16 14:29:00,0.2,rain,25.27,2020-10-16 13:53:00,17.68,2020-10-17 00:39:00,25.21,2020-10-16 13:58:00,17.95,2020-10-17 00:39:00,15.25,0.74,1011.1,1.36,2.25,1602783840,22,0.28,7,1602826740,13.342,253.4,16.27,2020-10-16 05:02:00,25.27,2020-10-16 13:53:00,16.54,2020-10-16 05:02:00,25.21,2020-10-16 13:58:00,
Lamjung,Bhorletar,28.21813889,84.24153889,2020-10-16 00:00:00,Partly cloudy throughout the day.,partly-cloudy-day,2020-10-16 06:10:00,2020-10-16 17:39:00,0.99,0.091,0.236,2020-10-16 02:45:00,0.18,rain,28.01,2020-10-16 13:55:00,18.05,2020-10-17 06:17:00,28.38,2020-10-16 14:06:00,18.32,2020-10-17 06:17:00,14.7,0.67,1010.0,1.25,2.22,1602872100,14,0.3,7,1602829320,16.093,254.9,17.0,2020-10-16 05:04:00,28.01,2020-10-16 13:55:00,17.27,2020-10-16 05:04:00,28.38,2020-10-16 14:06:00,
Lamjung,Faleni,28.30964722,84.26600278,2020-10-16 00:00:00,Partly cloudy throughout the day.,partly-cloudy-day,2020-10-16 06:10:00,2020-10-16 17:39:00,0.99,0.0711,0.1597,2020-10-16 11:50:00,0.16,rain,24.99,2020-10-16 13:45:00,16.21,2020-10-17 06:33:00,24.93,2020-10-16 13:47:00,16.48,2020-10-17 06:33:00,14.27,0.73,1011.2,1.4,2.3,1602870540,12,0.31,8,1602829200,15.719,252.1,15.32,2020-10-16 05:09:00,24.99,2020-10-16 13:45:00,15.59,2020-10-16 05:09:00,24.93,2020-10-16 13:47:00,
Lamjung,Gausala,28.07621667,84.47669444,2020-10-16 00:00:00,Partly cloudy throughout the day.,partly-cloudy-day,2020-10-16 06:09:00,2020-10-16 17:38:00,0.99,0.0491,0.2172,2020-10-16 02:38:00,0.15,rain,31.27,2020-10-16 14:12:00,19.0,2020-10-17 05:45:00,32.72,2020-10-16 15:07:00,19.27,2020-10-17 05:45:00,18.56,0.71,1010.1,0.94,1.61,1602785700,41,0.24,7,1602828060,16.093,256.4,19.22,2020-10-16 05:55:00,31.27,2020-10-16 14:12:00,19.63,2020-10-16 05:53:00,32.72,2020-10-16 15:07:00,
Lamjung,Gharedhunga,28.282208299999997,84.3454164,2020-10-16 00:00:00,Partly cloudy throughout the day.,partly-cloudy-day,2020-10-16 06:10:00,2020-10-16 17:38:00,0.99,0.0731,0.1546,2020-10-16 11:56:00,0.17,rain,26.31,2020-10-16 13:49:00,18.25,2020-10-17 00:01:00,26.19,2020-10-16 13:52:00,18.52,2020-10-17 00:01:00,14.25,0.67,1011.2,1.37,2.18,1602870720,17,0.3,7,1602828840,15.315,252.7,16.82,2020-10-16 05:02:00,26.31,2020-10-16 13:49:00,17.09,2020-10-16 05:02:00,26.19,2020-10-16 13:52:00,
Mahottari,Chisapani Gadhi,26.65224722,85.807275,2020-10-16 00:00:00,Humid throughout the day.,clear-day,2020-10-16 06:03:00,2020-10-16 17:34:00,0.99,0.0718,0.2559,2020-10-16 08:52:00,0.13,rain,32.35,2020-10-16 14:33:00,22.73,2020-10-17 05:14:00,37.96,2020-10-16 14:25:00,23.97,2020-10-17 05:13:00,24.01,0.81,1007.1,1.85,3.25,1602838800,357,0.08,8,1602827280,16.093,261.0,24.07,2020-10-16 04:40:00,32.35,2020-10-16 14:33:00,25.31,2020-10-16 04:38:00,37.96,2020-10-16 14:25:00,
Mahottari,Jalesore,26.88333333,85.78333333,2020-10-16 00:00:00,Humid throughout the day.,clear-day,2020-10-16 06:03:00,2020-10-16 17:34:00,0.99,0.0815,0.29,2020-10-16 08:55:00,0.16,rain,32.53,2020-10-16 14:31:00,22.69,2020-10-17 05:19:00,39.13,2020-10-16 14:38:00,23.84,2020-10-17 05:16:00,24.3,0.83,1007.4,1.72,3.09,1602838560,345,0.05,8,1602827400,16.093,260.2,24.01,2020-10-16 04:36:00,32.53,2020-10-16 14:31:00,25.27,2020-10-16 04:33:00,39.13,2020-10-16 14:38:00,
Makwanpur,Daman,27.5599456,85.1386067,2020-10-16 00:00:00,Humid throughout the day.,clear-day,2020-10-16 06:06:00,2020-10-16 17:36:00,0.99,0.0357,0.0901,2020-10-16 21:31:00,0.18,rain,25.07,2020-10-16 13:18:00,16.07,2020-10-17 06:05:00,25.33,2020-10-16 13:24:00,17.09,2020-10-17 06:03:00,18.39,0.96,1009.6,0.95,2.02,1602837480,76,0.24,8,1602827520,16.093,255.5,15.31,2020-10-16 06:04:00,25.07,2020-10-16 13:18:00,16.67,2020-10-16 05:59:00,25.33,2020-10-16 13:24:00,
Makwanpur,Hetanuda(Ind. Dist),27.619,85.1496,2020-10-16 00:00:00,Clear throughout the day.,clear-day,2020-10-16 06:06:00,2020-10-16 17:36:00,0.99,0.0344,0.0857,2020-10-16 21:38:00,0.18,rain,25.35,2020-10-16 13:25:00,16.57,2020-10-17 06:24:00,25.45,2020-10-16 13:29:00,17.45,2020-10-17 06:26:00,18.32,0.94,1009.7,0.9,2.04,1602837900,75,0.24,8,1602827760,16.093,255.4,16.01,2020-10-16 06:24:00,25.35,2020-10-16 13:25:00,17.28,2020-10-16 06:23:00,25.45,2020-10-16 13:29:00,
Makwanpur,Makwanpur Gadhi,27.43333333,85.03333333,2020-10-16 00:00:00,Humid throughout the day.,clear-day,2020-10-16 06:07:00,2020-10-16 17:36:00,0.99,0.0182,0.0773,2020-10-16 00:00:00,0.14,rain,31.58,2020-10-16 13:53:00,22.01,2020-10-17 05:41:00,37.47,2020-10-16 14:43:00,23.01,2020-10-17 05:41:00,23.91,0.91,1009.1,1.15,2.49,1602837780,36,0.15,8,1602827340,16.093,256.5,21.43,2020-10-16 05:29:00,31.58,2020-10-16 13:53:00,22.71,2020-10-16 05:26:00,37.47,2020-10-16 14:43:00,
Makwanpur,Manang Bhot,27.635081899999996,84.7416103,2020-10-16 00:00:00,Humid throughout the day.,clear-day,2020-10-16 06:08:00,2020-10-16 17:37:00,0.99,0.0092,0.0336,2020-10-16 08:43:00,0.1,rain,29.84,2020-10-16 13:21:00,20.84,2020-10-17 05:39:00,31.38,2020-10-16 13:16:00,21.74,2020-10-17 05:42:00,21.6,0.86,1008.8,1.01,2.06,1602838680,75,0.15,7,1602828120,16.093,257.2,20.99,2020-10-16 05:01:00,29.84,2020-10-16 13:21:00,22.21,2020-10-16 05:09:00,31.38,2020-10-16 13:16:00,
Makwanpur,Markhu Gaun,27.4227,85.0279,2020-10-16 00:00:00,Humid throughout the day.,clear-day,2020-10-16 06:07:00,2020-10-16 17:36:00,0.99,0.0169,0.0762,2020-10-16 00:00:00,0.14,rain,31.66,2020-10-16 13:55:00,22.04,2020-10-17 05:41:00,37.59,2020-10-16 14:44:00,23.03,2020-10-17 05:42:00,23.94,0.9,1009.0,1.17,2.55,1602837840,32,0.14,8,1602827460,16.093,256.7,21.56,2020-10-16 05:26:00,31.66,2020-10-16 13:55:00,22.84,2020-10-16 05:24:00,37.59,2020-10-16 14:44:00,
Manang,Goga,28.63989694,84.08811583,2020-10-16 00:00:00,Foggy in the afternoon.,fog,2020-10-16 06:11:00,2020-10-16 17:39:00,0.99,0.0107,0.0488,2020-10-16 15:05:00,0.16,rain,11.48,2020-10-16 12:34:00,2.49,2020-10-17 01:33:00,11.49,2020-10-16 13:02:00,2.76,2020-10-17 01:33:00,5.58,1.0,1014.9,1.18,2.07,1602829380,89,0.23,10,1602827880,14.179,242.0,1.6,2020-10-16 05:48:00,11.48,2020-10-16 12:34:00,1.87,2020-10-16 05:48:00,11.49,2020-10-16 13:02:00,
Manang,Humde,28.66627083,84.02257194,2020-10-16 00:00:00,Foggy in the afternoon.,fog,2020-10-16 06:12:00,2020-10-16 17:39:00,0.99,0.0087,0.0398,2020-10-16 15:01:00,0.17,rain,11.42,2020-10-16 12:35:00,1.81,2020-10-17 01:34:00,11.43,2020-10-16 13:04:00,2.08,2020-10-17 01:34:00,5.16,1.0,1014.9,1.09,2.05,1602830880,146,0.21,10,1602827880,14.155,241.6,0.85,2020-10-16 05:45:00,11.42,2020-10-16 12:35:00,1.12,2020-10-16 05:45:00,11.43,2020-10-16 13:04:00,
Manang,Naar,28.76666667,84.28333333,2020-10-16 00:00:00,Clear throughout the day.,clear-day,2020-10-16 06:11:00,2020-10-16 17:38:00,0.99,0.0028,0.0102,2020-10-16 15:11:00,0.16,rain,6.98,2020-10-16 12:57:00,-4.58,2020-10-17 05:45:00,7.73,2020-10-16 14:06:00,-6.71,2020-10-17 05:44:00,0.28,1.0,1015.8,1.16,1.57,1602828900,8,0.15,11,1602828120,15.073,239.7,-4.63,2020-10-16 04:56:00,6.98,2020-10-16 12:57:00,-4.36,2020-10-16 04:56:00,7.73,2020-10-16 14:06:00,
Manang,Phu Gaun,28.55,84.2333333,2020-10-16 00:00:00,Foggy in the afternoon.,fog,2020-10-16 06:11:00,2020-10-16 17:39:00,0.99,0.0171,0.0792,2020-10-16 15:08:00,0.14,rain,12.81,2020-10-16 12:41:00,5.1,2020-10-17 01:35:00,12.88,2020-10-16 12:50:00,4.13,2020-10-17 06:21:00,7.49,1.0,1014.8,1.46,2.25,1602796620,9,0.29,9,1602827940,13.369,243.9,4.23,2020-10-16 05:08:00,12.81,2020-10-16 12:41:00,3.08,2020-10-16 05:06:00,12.88,2020-10-16 12:50:00,
Morang,Biratnagar,29.2160678,83.983333,2020-10-15 21:45:00,Clear throughout the day.,clear-day,2020-10-16 06:12:00,2020-10-16 17:39:00,0.99,0.0014,0.0051,2020-10-16 02:45:00,0.06,rain,15.69,2020-10-16 13:37:00,-5.96,2020-10-17 05:36:00,15.41,2020-10-16 13:37:00,-7.63,2020-10-17 04:38:00,-6.0,0.61,1015.7,1.93,5.73,1602834900,194,0.08,9,1602826740,16.093,239.8,-6.44,2020-10-16 05:43:00,15.69,2020-10-16 13:37:00,-6.17,2020-10-16 05:43:00,15.41,2020-10-16 13:37:00,
Morang,Biratnagar Airport,26.61000889,87.37074778,2020-10-16 00:00:00,Humid throughout the day.,clear-day,2020-10-16 05:57:00,2020-10-16 17:28:00,0.99,0.0012,0.0041,2020-10-16 08:44:00,0.03,rain,34.05,2020-10-16 14:29:00,23.76,2020-10-17 05:35:00,40.89,2020-10-16 14:38:00,24.74,2020-10-17 05:35:00,23.94,0.77,1007.3,1.47,2.29,1602804120,7,0.02,8,1602827340,16.093,260.4,24.47,2020-10-16 05:14:00,34.05,2020-10-16 14:29:00,25.53,2020-10-16 05:14:00,40.89,2020-10-16 14:38:00,
Morang,Gam Shree Nagar,26.73416667,87.50166667,2020-10-16 00:00:00,Humid throughout the day.,clear-day,2020-10-16 05:56:00,2020-10-16 17:27:00,0.99,0.0012,0.0051,2020-10-16 02:45:00,0.05,rain,34.0,2020-10-16 14:04:00,24.55,2020-10-17 05:40:00,40.46,2020-10-16 14:45:00,25.24,2020-10-17 05:39:00,23.14,0.74,1007.6,1.44,2.57,1602801840,8,0.03,8,1602827040,16.093,258.7,24.07,2020-10-16 05:25:00,34.0,2020-10-16 14:04:00,24.88,2020-10-16 05:26:00,40.46,2020-10-16 14:45:00,
Morang,Haraincha,28.46717,84.37307390000001,2020-10-16 00:00:00,Foggy in the afternoon.,fog,2020-10-16 06:10:00,2020-10-16 17:38:00,0.99,0.0265,0.0854,2020-10-16 14:51:00,0.15,rain,14.31,2020-10-16 12:50:00,7.41,2020-10-16 23:42:00,14.15,2020-10-16 12:57:00,6.89,2020-10-16 23:41:00,9.39,0.99,1014.2,1.35,1.91,1602862620,20,0.36,8,1602827880,12.68,245.8,6.8,2020-10-16 04:58:00,14.31,2020-10-16 12:50:00,6.46,2020-10-16 04:58:00,14.15,2020-10-16 12:57:00,
Morang,Letang,26.46666667,87.28333333,2020-10-16 00:00:00,Humid throughout the day.,clear-day,2020-10-16 05:57:00,2020-10-16 17:28:00,0.99,0.003,0.0163,2020-10-16 20:44:00,0.03,rain,33.32,2020-10-16 14:36:00,22.82,2020-10-17 05:32:00,39.7,2020-10-16 12:32:00,23.99,2020-10-17 05:31:00,23.52,0.78,1007.3,1.53,2.4,1602840240,359,0.03,8,1602826740,16.093,261.6,23.6,2020-10-16 03:48:00,33.32,2020-10-16 14:36:00,24.75,2020-10-16 03:48:00,39.7,2020-10-16 12:32:00,
Morang,Mugu,26.483967,87.26700600000001,2020-10-16 00:00:00,Humid throughout the day.,clear-day,2020-10-16 05:57:00,2020-10-16 17:28:00,0.99,0.0021,0.0079,2020-10-16 20:44:00,0.02,rain,33.32,2020-10-16 14:36:00,22.77,2020-10-17 05:33:00,39.67,2020-10-16 12:33:00,23.93,2020-10-17 05:32:00,23.49,0.78,1007.3,1.54,2.42,1602840540,356,0.03,8,1602826620,16.093,261.5,23.6,2020-10-16 03:48:00,33.32,2020-10-16 14:36:00,24.74,2020-10-16 03:48:00,39.67,2020-10-16 12:33:00,
Mugu,Jomsom,29.50867889,81.89267389,2020-10-16 00:00:00,Clear throughout the day.,clear-day,2020-10-16 06:21:00,2020-10-16 17:47:00,0.99,0.0014,0.0051,2020-10-16 02:45:00,0.01,rain,24.98,2020-10-16 13:44:00,7.92,2020-10-17 05:39:00,24.7,2020-10-16 13:44:00,8.19,2020-10-17 05:39:00,4.75,0.55,1013.4,1.05,2.44,1602839880,123,0.13,9,1602828960,16.093,246.0,6.54,2020-10-16 05:39:00,24.98,2020-10-16 13:44:00,6.81,2020-10-16 05:39:00,24.7,2020-10-16 13:44:00,
Mugu,Mangri,29.540125,82.081825,2020-10-16 00:00:00,Clear throughout the day.,clear-day,2020-10-16 06:20:00,2020-10-16 17:46:00,0.99,0.0014,0.0051,2020-10-16 02:45:00,0.01,rain,19.01,2020-10-16 13:35:00,6.41,2020-10-17 05:41:00,18.73,2020-10-16 13:35:00,5.86,2020-10-17 05:35:00,1.32,0.56,1013.6,1.34,2.44,1602832200,74,0.09,9,1602828540,16.093,244.9,5.03,2020-10-16 05:20:00,19.01,2020-10-16 13:35:00,4.32,2020-10-16 05:20:00,18.73,2020-10-16 13:35:00,
Mugu,Rara,29.75,82.55,2020-10-16 00:00:00,Clear throughout the day.,clear-day,2020-10-16 06:18:00,2020-10-16 17:44:00,0.99,0.0016,0.0051,2020-10-16 02:48:00,0.03,rain,6.24,2020-10-16 12:45:00,-4.26,2020-10-17 05:35:00,4.2,2020-10-16 12:44:00,-3.99,2020-10-17 05:35:00,-2.12,0.9,1017.0,1.53,4.89,1602834360,117,0.15,9,1602828180,16.093,240.8,-4.43,2020-10-16 05:27:00,6.24,2020-10-16 12:45:00,-4.16,2020-10-16 05:27:00,4.2,2020-10-16 12:44:00,
Mugu,Seroge,29.58904306,82.30580306,2020-10-16 00:00:00,Clear throughout the day.,clear-day,2020-10-16 06:19:00,2020-10-16 17:45:00,0.99,0.0013,0.0044,2020-10-16 02:45:00,0.02,rain,16.0,2020-10-16 13:00:00,5.26,2020-10-17 00:22:00,15.72,2020-10-16 13:00:00,4.58,2020-10-17 00:22:00,0.79,0.59,1015.5,1.51,3.26,1602832500,73,0.11,9,1602828360,16.093,242.9,4.3,2020-10-16 05:03:00,16.0,2020-10-16 13:00:00,3.56,2020-10-16 05:05:00,15.72,2020-10-16 13:00:00,
Mustang,Lete,28.78401111,83.72981667,2020-10-16 00:00:00,Clear throughout the day.,clear-day,2020-10-16 06:13:00,2020-10-16 17:40:00,0.99,0.0028,0.0122,2020-10-16 15:35:00,0.09,rain,11.05,2020-10-16 12:49:00,2.96,2020-10-17 02:43:00,10.78,2020-10-16 12:56:00,1.76,2020-10-17 02:36:00,5.3,0.99,1015.7,1.8,5.27,1602831960,249,0.24,9,1602826560,14.19,242.2,1.39,2020-10-16 06:02:00,11.05,2020-10-16 12:49:00,1.69,2020-10-16 05:58:00,10.78,2020-10-16 12:56:00,
Mustang,Mustang(Lomangthang),28.81555556,83.86222222,2020-10-16 00:00:00,Clear throughout the day.,clear-day,2020-10-16 06:12:00,2020-10-16 17:40:00,0.99,0.0023,0.0093,2020-10-16 15:01:00,0.1,rain,11.64,2020-10-16 12:48:00,1.16,2020-10-17 05:28:00,11.36,2020-10-16 12:52:00,0.34,2020-10-17 02:34:00,4.72,0.99,1015.5,1.56,4.17,1602832980,200,0.21,10,1602827700,15.441,241.2,-0.12,2020-10-16 05:54:00,11.64,2020-10-16 12:48:00,0.15,2020-10-16 05:54:00,11.36,2020-10-16 12:52:00,
Mustang,Ranipauwa (M.Nath),28.73887222,83.68183333,2020-10-16 00:00:00,Partly cloudy throughout the day.,partly-cloudy-day,2020-10-16 06:13:00,2020-10-16 17:41:00,0.99,0.0046,0.0195,2020-10-16 15:45:00,0.1,rain,10.31,2020-10-16 12:58:00,2.81,2020-10-17 02:37:00,10.11,2020-10-16 12:48:00,1.66,2020-10-17 00:49:00,4.94,1.0,1015.5,1.7,4.62,1602831960,270,0.24,9,1602826920,13.486,242.6,1.33,2020-10-16 06:03:00,10.31,2020-10-16 12:58:00,1.62,2020-10-16 05:57:00,10.11,2020-10-16 12:48:00,
Mustang,Tatopani,28.9,83.68333333,2020-10-16 00:00:00,Clear throughout the day.,clear-day,2020-10-16 06:13:00,2020-10-16 17:41:00,0.99,0.0023,0.0077,2020-10-16 15:37:00,0.07,rain,11.18,2020-10-16 12:50:00,-0.88,2020-10-17 05:56:00,10.91,2020-10-16 12:57:00,-2.61,2020-10-17 05:40:00,2.32,0.92,1015.7,1.92,5.59,1602832380,264,0.28,9,1602827220,16.091,241.0,-2.0,2020-10-16 06:01:00,11.18,2020-10-16 12:50:00,-3.06,2020-10-16 06:43:00,10.91,2020-10-16 12:57:00,
Myagdi,Bega,28.4,83.73333333,2020-10-16 00:00:00,Partly cloudy throughout the day.,partly-cloudy-day,2020-10-16 06:13:00,2020-10-16 17:41:00,0.99,0.0302,0.1071,2020-10-16 16:33:00,0.14,rain,18.51,2020-10-16 13:00:00,10.37,2020-10-16 23:38:00,18.34,2020-10-16 13:07:00,10.64,2020-10-16 23:38:00,12.03,0.94,1011.8,1.27,2.22,1602828420,348,0.33,7,1602827880,15.928,249.1,9.37,2020-10-16 06:00:00,18.51,2020-10-16 13:00:00,9.42,2020-10-16 05:51:00,18.34,2020-10-16 13:07:00,
Myagdi,Beni Bazar,29.22713194,83.979815,2020-10-15 21:45:00,Clear throughout the day.,clear-day,2020-10-16 06:12:00,2020-10-16 17:39:00,0.99,0.0014,0.0051,2020-10-16 02:45:00,0.06,rain,15.58,2020-10-16 13:39:00,-6.31,2020-10-17 05:34:00,15.3,2020-10-16 13:39:00,-8.1,2020-10-17 04:37:00,-6.32,0.61,1015.7,1.95,5.83,1602835200,197,0.08,9,1602826620,16.093,239.7,-6.77,2020-10-16 05:42:00,15.58,2020-10-16 13:39:00,-6.5,2020-10-16 05:42:00,15.3,2020-10-16 13:39:00,
Myagdi,Dumkauli,28.56666667,83.38333333,2020-10-16 00:00:00,Partly cloudy throughout the day.,partly-cloudy-day,2020-10-16 06:14:00,2020-10-16 17:42:00,0.99,0.0219,0.0801,2020-10-16 15:53:00,0.14,rain,15.9,2020-10-16 12:52:00,7.94,2020-10-17 06:36:00,15.62,2020-10-16 12:52:00,7.13,2020-10-17 06:33:00,7.74,0.83,1013.6,2.0,2.6,1602837780,353,0.52,7,1602827940,14.358,246.7,6.94,2020-10-16 05:56:00,15.9,2020-10-16 12:52:00,5.84,2020-10-16 05:55:00,15.62,2020-10-16 12:52:00,
Myagdi,Ghorepani,28.35083333,83.56666667,2020-10-16 00:00:00,Partly cloudy throughout the day.,partly-cloudy-day,2020-10-16 06:13:00,2020-10-16 17:41:00,0.99,0.0428,0.185,2020-10-16 16:46:00,0.13,rain,23.49,2020-10-16 13:24:00,14.7,2020-10-16 23:50:00,23.21,2020-10-16 13:24:00,14.97,2020-10-16 23:50:00,11.23,0.66,1012.0,1.54,2.27,1602872100,333,0.43,7,1602828060,15.669,250.8,14.36,2020-10-16 05:48:00,23.49,2020-10-16 13:24:00,14.63,2020-10-16 05:48:00,23.21,2020-10-16 13:24:00,
Myagdi,Muna,28.44271389,83.576185,2020-10-16 00:00:00,Mostly cloudy throughout the day.,partly-cloudy-day,2020-10-16 06:13:00,2020-10-16 17:41:00,0.99,0.033,0.1355,2020-10-16 16:47:00,0.13,rain,21.15,2020-10-16 12:54:00,13.25,2020-10-16 23:40:00,20.87,2020-10-16 12:54:00,13.52,2020-10-16 23:40:00,11.12,0.73,1012.2,1.75,2.43,1602872100,345,0.5,7,1602828060,15.067,249.0,13.11,2020-10-16 06:03:00,21.15,2020-10-16 12:54:00,13.38,2020-10-16 06:03:00,20.87,2020-10-16 12:54:00,
Nawalparasi,Bara Ghat,27.680675,84.22854170000001,2020-10-16 00:00:00,Humid throughout the day.,clear-day,2020-10-16 06:10:00,2020-10-16 17:39:00,0.99,0.1244,0.6475,2020-10-16 02:31:00,0.29,rain,34.25,2020-10-16 14:11:00,21.6,2020-10-17 05:29:00,40.29,2020-10-16 14:48:00,22.34,2020-10-17 05:38:00,23.93,0.83,1008.4,1.15,1.97,1602839880,359,0.13,7,1602829980,16.093,258.3,22.24,2020-10-16 05:09:00,34.25,2020-10-16 14:11:00,23.49,2020-10-16 05:12:00,40.29,2020-10-16 14:48:00,
Nawalparasi,Dumkibas,27.51925,83.66218333,2020-10-16 00:00:00,Humid throughout the day.,clear-day,2020-10-16 06:12:00,2020-10-16 17:42:00,0.99,0.0287,0.3312,2020-10-16 00:00:00,0.09,rain,33.38,2020-10-16 14:14:00,22.72,2020-10-17 05:30:00,37.88,2020-10-16 13:09:00,23.4,2020-10-17 05:31:00,22.85,0.76,1007.4,1.7,2.79,1602844080,95,0.06,8,1602828540,16.093,258.5,22.79,2020-10-16 03:59:00,33.38,2020-10-16 14:14:00,23.87,2020-10-16 04:04:00,37.88,2020-10-16 13:09:00,
Nawalparasi,Parasi,27.67488333,84.07438333,2020-10-16 00:00:00,Humid throughout the day.,clear-day,2020-10-16 06:11:00,2020-10-16 17:40:00,0.99,0.0758,0.7862,2020-10-16 00:00:00,0.2,rain,33.42,2020-10-16 14:10:00,21.05,2020-10-17 06:12:00,39.45,2020-10-16 14:51:00,21.65,2020-10-17 06:15:00,23.78,0.85,1008.6,1.3,2.05,1602839220,43,0.16,7,1602828480,16.093,258.1,21.58,2020-10-16 05:21:00,33.42,2020-10-16 14:10:00,22.79,2020-10-16 05:24:00,39.45,2020-10-16 14:51:00,
Nawalparasi,Rambas,27.56666667,82.95,2020-10-16 00:00:00,Humid throughout the day.,clear-day,2020-10-16 06:15:00,2020-10-16 17:44:00,0.99,0.0098,0.0498,2020-10-16 20:42:00,0.02,rain,34.09,2020-10-16 14:30:00,23.37,2020-10-17 05:34:00,38.08,2020-10-16 12:59:00,24.0,2020-10-17 05:35:00,21.6,0.68,1007.0,1.92,2.94,1602841680,72,0.11,8,1602829560,16.093,258.4,23.06,2020-10-16 04:03:00,34.09,2020-10-16 14:30:00,23.84,2020-10-16 04:08:00,38.08,2020-10-16 12:59:00,
Nawalparasi,Trisuli,27.68333333,84.13333333,2020-10-16 00:00:00,Humid throughout the day.,clear-day,2020-10-16 06:10:00,2020-10-16 17:40:00,0.99,0.095,0.6362,2020-10-16 00:00:00,0.24,rain,33.47,2020-10-16 14:12:00,21.25,2020-10-17 06:11:00,39.06,2020-10-16 14:53:00,21.88,2020-10-17 06:15:00,23.67,0.85,1008.5,1.23,1.99,1602839340,29,0.15,7,1602828960,16.093,258.2,21.81,2020-10-16 05:17:00,33.47,2020-10-16 14:12:00,23.04,2020-10-16 05:20:00,39.06,2020-10-16 14:53:00,
Nuwakot,Kakani,27.91666667,85.15,2020-10-16 00:00:00,Partly cloudy throughout the day.,partly-cloudy-day,2020-10-16 06:07:00,2020-10-16 17:35:00,0.99,0.0164,0.0564,2020-10-17 00:00:00,0.11,rain,30.01,2020-10-16 13:51:00,20.19,2020-10-17 05:42:00,29.89,2020-10-16 13:59:00,20.46,2020-10-17 05:42:00,16.83,0.67,1010.4,1.0,2.0,1602795900,180,0.33,7,1602828360,16.093,254.9,19.16,2020-10-16 05:44:00,30.01,2020-10-16 13:51:00,19.43,2020-10-16 05:44:00,29.89,2020-10-16 13:59:00,
Nuwakot,Mane Bhanjyang,28.02851111,85.10623056,2020-10-16 00:00:00,Partly cloudy throughout the day.,partly-cloudy-day,2020-10-16 06:07:00,2020-10-16 17:36:00,0.99,0.0123,0.0547,2020-10-16 09:47:00,0.08,rain,24.74,2020-10-16 13:46:00,15.84,2020-10-17 01:51:00,24.46,2020-10-16 13:46:00,16.11,2020-10-17 01:51:00,13.91,0.76,1010.5,1.08,2.05,1602795600,226,0.37,7,1602828360,16.093,254.2,14.73,2020-10-16 05:55:00,24.74,2020-10-16 13:46:00,15.0,2020-10-16 05:55:00,24.46,2020-10-16 13:46:00,
