district,formal_name,lat,long,time,summary,icon,sunriseTime,sunsetTime,moonPhase,precipIntensity,precipIntensityMax,precipIntensityMaxTime,precipProbability,precipType,temperatureHigh,temperatureHighTime,temperatureLow,temperatureLowTime,apparentTemperatureHigh,apparentTemperatureHighTime,apparentTemperatureLow,apparentTemperatureLowTime,dewPoint,humidity,pressure,windSpeed,windGust,windGustTime,windBearing,cloudCover,uvIndex,uvIndexTime,visibility,ozone,temperatureMin,temperatureMinTime,temperatureMax,temperatureMaxTime,apparentTemperatureMin,apparentTemperatureMinTime,apparentTemperatureMax,apparentTemperatureMaxTime
Achham,Asara Ghat,28.95029444,81.44431944,2020-09-15 00:00:00,Humid and overcast throughout the day.,rain,2020-09-15 06:06:00,2020-09-15 18:26:00,0.93,0.2154,0.5332,2020-09-15 00:00:00,0.55,rain,29.97,2020-09-15 13:28:00,20.69,2020-09-16 05:33:00,35.03,2020-09-15 16:42:00,21.4,2020-09-16 05:36:00,22.63,0.86,1007.1,1.08,2.01,1600159140,199,0.85,6,1600151820,16.023,261.6,20.98,2020-09-15 05:43:00,29.97,2020-09-15 13:28:00,21.71,2020-09-15 05:45:00,35.03,2020-09-15 16:42:00
Achham,Basti,29.03098333,81.17113333,2020-09-15 00:00:00,Humid and mostly cloudy throughout the day.,rain,2020-09-15 06:07:00,2020-09-15 18:27:00,0.93,0.1948,0.7449,2020-09-15 00:00:00,0.51,rain,31.71,2020-09-15 12:43:00,20.71,2020-09-16 05:37:00,38.62,2020-09-15 16:32:00,21.55,2020-09-16 05:40:00,24.19,0.9,1007.0,0.87,1.92,1600158720,196,0.79,7,1600152240,16.044,262.1,21.33,2020-09-15 05:44:00,31.71,2020-09-15 12:43:00,22.46,2020-09-15 05:45:00,38.62,2020-09-15 16:32:00
Achham,Mangalsen,29.13611389,81.25009167,2020-09-15 00:00:00,Humid and mostly cloudy throughout the day.,rain,2020-09-15 06:06:00,2020-09-15 18:27:00,0.93,0.188,0.5206,2020-09-15 17:19:00,0.51,rain,28.83,2020-09-15 12:49:00,18.63,2020-09-16 05:41:00,30.26,2020-09-15 13:14:00,19.07,2020-09-16 05:44:00,20.36,0.85,1007.3,0.92,1.92,1600156740,197,0.79,7,1600152180,15.581,261.5,18.88,2020-09-15 05:46:00,28.83,2020-09-15 12:49:00,19.46,2020-09-15 05:49:00,30.26,2020-09-15 13:14:00
Achham,Sugali,29.17980694,81.37293889,2020-09-15 00:00:00,Humid and mostly cloudy throughout the day.,rain,2020-09-15 06:06:00,2020-09-15 18:26:00,0.93,0.1748,0.4588,2020-09-15 20:39:00,0.5,rain,26.73,2020-09-15 13:10:00,16.79,2020-09-16 05:39:00,27.51,2020-09-15 13:41:00,17.1,2020-09-16 05:42:00,18.17,0.84,1007.5,1.06,2.19,1600153920,206,0.82,7,1600151520,15.8,260.3,16.82,2020-09-15 05:46:00,26.73,2020-09-15 13:10:00,17.09,2020-09-15 05:46:00,27.51,2020-09-15 13:41:00
Arghakhanchi,Rangsing,27.80330278,82.78400833,2020-09-15 00:00:00,Humid and overcast throughout the day.,rain,2020-09-15 06:01:00,2020-09-15 18:20:00,0.93,0.2271,0.747,2020-09-15 17:11:00,0.59,rain,32.56,2020-09-15 12:46:00,23.32,2020-09-16 05:21:00,38.83,2020-09-15 13:16:00,24.31,2020-09-16 05:28:00,24.0,0.82,1005.3,1.39,3.95,1600118820,90,0.91,7,1600150680,16.093,260.1,23.85,2020-09-15 05:05:00,32.56,2020-09-15 12:46:00,24.98,2020-09-15 05:13:00,38.83,2020-09-15 13:16:00
Arghakhanchi,Sandhikharka,27.96402222,83.12056944,2020-09-15 00:00:00,Humid and mostly cloudy throughout the day.,rain,2020-09-15 05:59:00,2020-09-15 18:19:00,0.93,0.2245,0.6378,2020-09-15 15:19:00,0.57,rain,27.78,2020-09-15 13:30:00,19.29,2020-09-16 05:33:00,29.63,2020-09-15 13:40:00,19.7,2020-09-16 05:36:00,20.17,0.87,1006.5,0.98,1.59,1600139040,48,0.88,7,1600150020,16.093,258.7,18.99,2020-09-15 05:36:00,27.78,2020-09-15 13:30:00,19.67,2020-09-15 05:37:00,29.63,2020-09-15 13:40:00
Arghakhanchi,Sidhara,27.7945,82.82838333,2020-09-15 00:00:00,Humid and overcast throughout the day.,rain,2020-09-15 06:00:00,2020-09-15 18:20:00,0.93,0.2285,0.7002,2020-09-15 17:05:00,0.62,rain,32.01,2020-09-15 12:42:00,23.22,2020-09-16 05:30:00,36.95,2020-09-15 13:04:00,24.15,2020-09-16 05:36:00,23.31,0.81,1005.3,1.42,3.94,1600133220,90,0.91,7,1600150740,16.093,260.1,23.65,2020-09-15 05:16:00,32.01,2020-09-15 12:42:00,24.71,2020-09-15 05:22:00,36.95,2020-09-15 13:04:00
Baglung,Baglung,28.26363611,83.60032222,2020-09-15 00:00:00,Mostly cloudy throughout the day.,rain,2020-09-15 05:57:00,2020-09-15 18:17:00,0.93,0.2034,0.5927,2020-09-15 15:04:00,0.56,rain,26.46,2020-09-15 13:45:00,17.8,2020-09-16 05:40:00,27.63,2020-09-15 13:46:00,18.07,2020-09-16 05:40:00,17.5,0.82,1008.0,0.96,1.83,1600193700,350,0.83,8,1600149480,14.64,257.5,16.76,2020-09-15 05:38:00,26.46,2020-09-15 13:45:00,17.09,2020-09-15 05:38:00,27.63,2020-09-15 13:46:00
Baglung,Dhorpatan,28.48333333,83.08333333,2020-09-15 00:00:00,Mostly cloudy throughout the day.,rain,2020-09-15 05:59:00,2020-09-15 18:19:00,0.93,0.1599,0.4032,2020-09-15 00:00:00,0.56,rain,16.98,2020-09-15 12:15:00,8.93,2020-09-16 05:40:00,17.6,2020-09-15 12:26:00,8.76,2020-09-16 05:39:00,12.08,1.0,1008.0,1.19,2.64,1600152000,1,0.89,8,1600149960,15.576,254.5,8.71,2020-09-15 05:45:00,16.98,2020-09-15 12:15:00,9.25,2020-09-15 05:44:00,17.6,2020-09-15 12:26:00
Baglung,Galkot,28.21869167,83.41881111,2020-09-15 00:00:00,Humid and mostly cloudy throughout the day.,rain,2020-09-15 05:58:00,2020-09-15 18:18:00,0.93,0.1875,0.5707,2020-09-15 15:18:00,0.56,rain,26.1,2020-09-15 14:06:00,15.75,2020-09-16 05:48:00,26.55,2020-09-15 14:11:00,16.02,2020-09-16 05:48:00,17.87,0.89,1007.8,0.98,1.77,1600150560,345,0.85,8,1600149600,15.256,257.5,14.62,2020-09-15 05:44:00,26.1,2020-09-15 14:06:00,14.89,2020-09-15 05:44:00,26.55,2020-09-15 14:11:00
Baglung,Rangkhani,28.14408889,83.55824444,2020-09-15 00:00:00,Mostly cloudy throughout the day.,rain,2020-09-15 05:57:00,2020-09-15 18:17:00,0.93,0.2053,0.6173,2020-09-15 15:16:00,0.57,rain,23.91,2020-09-15 13:08:00,15.99,2020-09-16 05:45:00,23.99,2020-09-15 13:15:00,16.26,2020-09-16 05:45:00,16.92,0.9,1007.5,0.89,1.7,1600150200,355,0.84,8,1600149600,15.409,258.0,15.0,2020-09-15 05:40:00,23.91,2020-09-15 13:08:00,15.44,2020-09-15 05:41:00,23.99,2020-09-15 13:15:00
Baitadi,Patan (West),29.467137,80.54575109999999,2020-09-15 00:00:00,Humid and partly cloudy throughout the day.,rain,2020-09-15 06:09:00,2020-09-15 18:30:00,0.93,0.2847,0.7795,2020-09-15 02:34:00,0.57,rain,28.01,2020-09-15 13:46:00,17.91,2020-09-16 06:22:00,30.97,2020-09-15 13:53:00,18.84,2020-09-16 06:16:00,21.53,0.96,1007.5,0.78,2.06,1600169040,248,0.47,10,1600149960,15.449,261.5,18.64,2020-09-15 05:32:00,28.01,2020-09-15 13:46:00,19.68,2020-09-15 05:30:00,30.97,2020-09-15 13:53:00
Baitadi,Satbanjh,29.4973,80.49741194,2020-09-15 00:00:00,Humid and partly cloudy throughout the day.,rain,2020-09-15 06:09:00,2020-09-15 18:30:00,0.93,0.3307,1.0759,2020-09-15 02:34:00,0.61,rain,24.33,2020-09-15 13:48:00,15.28,2020-09-16 05:44:00,24.62,2020-09-15 13:47:00,16.29,2020-09-16 05:42:00,18.53,0.98,1007.5,0.79,2.32,1600170060,279,0.47,10,1600149840,14.683,261.5,15.88,2020-09-15 05:36:00,24.33,2020-09-15 13:48:00,17.05,2020-09-15 05:35:00,24.62,2020-09-15 13:47:00
Bajhang,Chainpur (West),29.55,81.21666667,2020-09-15 00:00:00,Partly cloudy throughout the day.,rain,2020-09-15 06:06:00,2020-09-15 18:27:00,0.93,0.1016,0.4079,2020-09-15 15:36:00,0.43,rain,24.05,2020-09-15 12:22:00,15.39,2020-09-16 01:36:00,23.8,2020-09-15 12:30:00,15.66,2020-09-16 01:36:00,14.06,0.73,1008.4,1.15,2.41,1600153860,15,0.47,9,1600151880,16.093,258.2,14.68,2020-09-15 05:47:00,24.05,2020-09-15 12:22:00,14.95,2020-09-15 05:47:00,23.8,2020-09-15 12:30:00
Bajhang,Chainpur Bajhang Aws Climate,29.545890000000004,81.20114000000001,2020-09-15 00:00:00,Partly cloudy throughout the day.,rain,2020-09-15 06:06:00,2020-09-15 18:27:00,0.93,0.1054,0.4154,2020-09-15 15:34:00,0.44,rain,24.38,2020-09-15 12:28:00,15.63,2020-09-16 01:31:00,24.14,2020-09-15 12:38:00,15.9,2020-09-16 01:31:00,14.16,0.73,1008.3,1.13,2.4,1600153740,15,0.46,9,1600151820,16.093,258.3,14.98,2020-09-15 05:46:00,24.38,2020-09-15 12:28:00,15.25,2020-09-15 05:46:00,24.14,2020-09-15 12:38:00
Bajhang,Kalukheti,29.447359999999996,81.16838,2020-09-15 00:00:00,Humid and partly cloudy throughout the day.,rain,2020-09-15 06:07:00,2020-09-15 18:27:00,0.93,0.1385,0.4654,2020-09-15 15:42:00,0.46,rain,27.08,2020-09-15 13:25:00,16.58,2020-09-16 05:44:00,27.96,2020-09-15 13:34:00,16.85,2020-09-16 05:44:00,17.2,0.77,1007.9,0.99,2.23,1600153860,162,0.51,9,1600152420,16.006,259.7,16.06,2020-09-15 05:48:00,27.08,2020-09-15 13:25:00,16.33,2020-09-15 05:48:00,27.96,2020-09-15 13:34:00
Bajhang,Rayal,29.464595000000003,80.95405,2020-09-15 00:00:00,Humid and partly cloudy throughout the day.,rain,2020-09-15 06:07:00,2020-09-15 18:28:00,0.93,0.1812,0.5328,2020-09-15 15:22:00,0.5,rain,29.27,2020-09-15 13:32:00,18.6,2020-09-16 05:25:00,30.8,2020-09-15 13:57:00,18.87,2020-09-16 05:24:00,18.67,0.79,1007.8,0.88,2.06,1600151760,209,0.45,9,1600150860,14.821,260.3,18.08,2020-09-15 05:01:00,29.27,2020-09-15 13:32:00,18.35,2020-09-15 05:01:00,30.8,2020-09-15 13:57:00
Bajura,Bajura (Martadi),29.45697889,81.48038389,2020-09-15 00:00:00,Mostly cloudy throughout the day.,rain,2020-09-15 06:05:00,2020-09-15 18:26:00,0.93,0.0718,0.2467,2020-09-15 15:23:00,0.39,rain,24.45,2020-09-15 12:51:00,13.1,2020-09-16 00:50:00,24.4,2020-09-15 12:57:00,13.37,2020-09-16 00:50:00,14.19,0.83,1008.6,1.22,3.16,1600159080,25,0.58,8,1600153380,16.093,257.6,12.21,2020-09-15 05:45:00,24.45,2020-09-15 12:51:00,12.48,2020-09-15 05:45:00,24.4,2020-09-15 12:57:00
Bajura,Kailasmandu,29.35291694,81.33385889,2020-09-15 00:00:00,Mostly cloudy throughout the day.,rain,2020-09-15 06:06:00,2020-09-15 18:26:00,0.93,0.1335,0.3628,2020-09-15 16:03:00,0.46,rain,27.84,2020-09-15 12:53:00,17.65,2020-09-16 05:32:00,28.24,2020-09-15 13:21:00,17.92,2020-09-16 05:32:00,16.42,0.73,1008.0,1.07,2.37,1600155060,187,0.67,8,1600152540,15.97,259.4,17.25,2020-09-15 05:46:00,27.84,2020-09-15 12:53:00,17.52,2020-09-15 05:46:00,28.24,2020-09-15 13:21:00
Bajura,Kolti,29.50348694,81.66617611,2020-09-15 00:00:00,Mostly cloudy throughout the day.,partly-cloudy-day,2020-09-15 06:05:00,2020-09-15 18:25:00,0.93,0.0342,0.1408,2020-09-15 15:16:00,0.34,rain,22.78,2020-09-15 12:57:00,10.59,2020-09-16 05:28:00,22.53,2020-09-15 13:05:00,10.86,2020-09-16 05:28:00,12.91,0.87,1009.1,0.98,3.89,1600161480,271,0.6,8,1600154520,16.093,257.5,9.12,2020-09-15 05:42:00,22.78,2020-09-15 12:57:00,9.39,2020-09-15 05:42:00,22.53,2020-09-15 13:05:00
Banke,Amlekhganj,27.94748333,81.78569444,2020-09-15 00:15:00,Humid and partly cloudy throughout the day.,rain,2020-09-15 06:05:00,2020-09-15 18:24:00,0.93,0.1495,0.6595,2020-09-15 14:27:00,0.44,rain,32.05,2020-09-15 14:43:00,24.77,2020-09-16 05:18:00,40.24,2020-09-15 15:01:00,26.13,2020-09-16 05:22:00,25.99,0.88,1004.7,1.81,5.81,1600138440,131,0.5,10,1600149840,16.093,262.7,25.58,2020-09-15 05:07:00,32.05,2020-09-15 14:43:00,27.85,2020-09-15 05:09:00,40.24,2020-09-15 15:01:00
Banke,Dhakeri,28.10055556,81.66824722,2020-09-15 00:15:00,Humid and partly cloudy throughout the day.,rain,2020-09-15 06:05:00,2020-09-15 18:25:00,0.93,0.1478,0.4542,2020-09-15 12:15:00,0.49,rain,32.12,2020-09-15 14:46:00,24.62,2020-09-16 05:25:00,41.49,2020-09-15 14:48:00,25.95,2020-09-16 05:25:00,26.15,0.88,1004.9,1.48,4.49,1600138740,122,0.49,9,1600149780,16.093,263.2,25.65,2020-09-15 04:59:00,32.12,2020-09-15 14:46:00,28.01,2020-09-15 05:00:00,41.49,2020-09-15 14:48:00
Banke,Khajura (Nepalganj),28.11368333,81.59030556,2020-09-15 00:15:00,Humid and partly cloudy throughout the day.,rain,2020-09-15 06:05:00,2020-09-15 18:25:00,0.93,0.1509,0.4402,2020-09-15 12:01:00,0.51,rain,31.51,2020-09-15 14:45:00,24.62,2020-09-16 05:26:00,40.53,2020-09-15 14:47:00,25.98,2020-09-16 05:26:00,26.1,0.89,1004.8,1.56,4.88,1600138680,117,0.51,9,1600149840,16.093,263.4,25.64,2020-09-15 04:59:00,31.51,2020-09-15 14:45:00,27.98,2020-09-15 05:00:00,40.53,2020-09-15 14:47:00
Banke,Naubasta,28.230225,81.65270278,2020-09-15 00:00:00,Humid and partly cloudy throughout the day.,rain,2020-09-15 06:05:00,2020-09-15 18:25:00,0.93,0.1556,0.4746,2020-09-15 12:14:00,0.53,rain,32.52,2020-09-15 14:49:00,24.81,2020-09-16 05:17:00,43.53,2020-09-15 14:55:00,26.1,2020-09-16 05:20:00,26.56,0.89,1005.2,1.12,2.64,1600138920,86,0.56,9,1600149660,16.093,263.5,25.8,2020-09-15 04:51:00,32.52,2020-09-15 14:49:00,28.35,2020-09-15 04:49:00,43.53,2020-09-15 14:55:00
Banke,Nepalgunj Airport,28.051994399999995,81.6228389,2020-09-15 00:15:00,Humid and partly cloudy throughout the day.,rain,2020-09-15 06:05:00,2020-09-15 18:25:00,0.93,0.1446,0.4301,2020-09-15 12:04:00,0.49,rain,31.39,2020-09-15 14:46:00,24.58,2020-09-16 05:23:00,39.66,2020-09-15 14:51:00,25.97,2020-09-16 05:24:00,25.98,0.89,1004.7,1.7,5.57,1600138620,126,0.48,9,1600149840,16.093,263.3,25.56,2020-09-15 05:00:00,31.39,2020-09-15 14:46:00,27.79,2020-09-15 05:02:00,39.66,2020-09-15 14:51:00
Bara,Gulariya,27.164166700000003,84.98,2020-09-15 00:00:00,Possible light rain overnight and in the morning.,rain,2020-09-15 05:52:00,2020-09-15 18:11:00,0.93,0.278,0.6094,2020-09-15 05:51:00,0.82,rain,30.42,2020-09-15 13:03:00,24.23,2020-09-16 05:39:00,39.16,2020-09-15 13:07:00,25.62,2020-09-16 05:38:00,26.3,0.94,1005.5,1.91,4.64,1600139280,101,0.76,8,1600151100,15.735,257.6,24.52,2020-09-15 05:09:00,30.42,2020-09-15 13:03:00,25.88,2020-09-15 05:20:00,39.16,2020-09-15 13:07:00
Bara,Kalaiya,27.079,84.9329,2020-09-15 00:00:00,Light rain overnight and in the morning.,rain,2020-09-15 05:52:00,2020-09-15 18:11:00,0.93,0.2684,0.7477,2020-09-15 05:49:00,0.84,rain,29.62,2020-09-15 14:21:00,24.21,2020-09-16 05:35:00,37.28,2020-09-15 14:06:00,25.67,2020-09-16 05:35:00,26.16,0.95,1005.3,2.26,6.37,1600118100,98,0.75,8,1600150920,15.432,257.5,24.51,2020-09-15 04:45:00,29.62,2020-09-15 14:21:00,26.0,2020-09-15 05:12:00,37.28,2020-09-15 14:06:00
Bara,Nijgadh,27.16416667,84.98,2020-09-15 00:00:00,Possible light rain overnight and in the morning.,rain,2020-09-15 05:52:00,2020-09-15 18:11:00,0.93,0.278,0.6094,2020-09-15 05:51:00,0.82,rain,30.42,2020-09-15 13:03:00,24.23,2020-09-16 05:39:00,39.16,2020-09-15 13:07:00,25.62,2020-09-16 05:38:00,26.3,0.94,1005.5,1.91,4.64,1600139280,101,0.76,8,1600151100,15.735,257.6,24.52,2020-09-15 05:09:00,30.42,2020-09-15 13:03:00,25.88,2020-09-15 05:20:00,39.16,2020-09-15 13:07:00
Bara,Parwanipur,27.20300556,85.170475,2020-09-15 00:00:00,Rain overnight and in the morning.,rain,2020-09-15 05:51:00,2020-09-15 18:10:00,0.93,0.3829,1.7278,2020-09-15 08:49:00,0.81,rain,30.16,2020-09-15 12:25:00,24.13,2020-09-16 05:35:00,38.38,2020-09-15 12:42:00,25.46,2020-09-16 05:35:00,26.13,0.95,1005.8,1.55,3.79,1600140300,106,0.72,8,1600151100,15.939,257.3,24.21,2020-09-15 05:16:00,30.16,2020-09-15 12:25:00,25.52,2020-09-15 05:22:00,38.38,2020-09-15 12:42:00
Bara,Simara Airport,27.2813,84.9919,2020-09-15 00:00:00,Possible light rain until afternoon.,rain,2020-09-15 05:52:00,2020-09-15 18:11:00,0.93,0.3215,0.6182,2020-09-15 09:27:00,0.81,rain,30.13,2020-09-15 12:35:00,23.81,2020-09-16 05:37:00,37.92,2020-09-15 12:44:00,25.12,2020-09-16 05:35:00,25.75,0.96,1005.8,1.47,3.89,1600140060,106,0.75,8,1600150860,16.059,257.6,23.88,2020-09-15 05:24:00,30.13,2020-09-15 12:35:00,25.24,2020-09-15 05:24:00,37.92,2020-09-15 12:44:00
Bardiya,Chisapani(Karnali),28.21278611,81.34521111,2020-09-15 00:00:00,Humid and partly cloudy throughout the day.,rain,2020-09-15 06:06:00,2020-09-15 18:26:00,0.93,0.1611,0.4705,2020-09-15 11:52:00,0.55,rain,30.29,2020-09-15 14:20:00,24.62,2020-09-16 05:36:00,38.21,2020-09-15 14:33:00,25.99,2020-09-16 05:35:00,25.86,0.9,1004.8,1.53,4.93,1600138620,98,0.61,8,1600149780,16.093,264.0,25.15,2020-09-15 05:14:00,30.29,2020-09-15 14:20:00,26.49,2020-09-15 05:08:00,38.21,2020-09-15 14:33:00
Bardiya,Kumalgaun,28.33735833,81.33784167,2020-09-15 00:00:00,Humid and mostly cloudy throughout the day.,rain,2020-09-15 06:06:00,2020-09-15 18:26:00,0.93,0.1545,0.5083,2020-09-15 11:52:00,0.54,rain,30.75,2020-09-15 14:30:00,24.47,2020-09-16 05:36:00,39.49,2020-09-15 14:40:00,25.79,2020-09-16 05:36:00,25.88,0.9,1005.1,1.31,3.34,1600138740,87,0.68,8,1600149540,16.093,264.0,25.01,2020-09-15 05:20:00,30.75,2020-09-15 14:30:00,26.2,2020-09-15 05:20:00,39.49,2020-09-15 14:40:00
Bardiya,Manpur,28.36353889,81.41428333,2020-09-15 00:00:00,Humid and mostly cloudy throughout the day.,rain,2020-09-15 06:06:00,2020-09-15 18:26:00,0.93,0.1616,0.4827,2020-09-15 11:59:00,0.53,rain,31.13,2020-09-15 14:30:00,24.43,2020-09-16 05:32:00,41.05,2020-09-15 15:02:00,25.73,2020-09-16 05:32:00,26.29,0.91,1005.3,1.18,2.65,1600138860,82,0.69,8,1600149540,16.093,263.7,25.11,2020-09-15 05:19:00,31.13,2020-09-15 14:30:00,26.28,2020-09-15 05:19:00,41.05,2020-09-15 15:02:00
Bardiya,Rajapur,28.64721944,81.28542778,2020-09-15 00:00:00,Humid and mostly cloudy throughout the day.,rain,2020-09-15 06:06:00,2020-09-15 18:26:00,0.93,0.0882,0.3128,2020-09-15 11:50:00,0.45,rain,31.69,2020-09-15 14:19:00,23.69,2020-09-16 05:32:00,39.52,2020-09-15 14:28:00,24.91,2020-09-16 05:32:00,25.44,0.9,1006.0,1.08,1.89,1600160280,83,0.81,6,1600149660,16.093,263.6,24.04,2020-09-15 05:26:00,31.69,2020-09-15 14:19:00,25.34,2020-09-15 05:25:00,39.52,2020-09-15 14:28:00
Bardiya,Rambhapur,28.307825,81.27586389,2020-09-15 00:00:00,Humid and mostly cloudy throughout the day.,rain,2020-09-15 06:07:00,2020-09-15 18:26:00,0.93,0.1528,0.5219,2020-09-15 11:49:00,0.54,rain,30.31,2020-09-15 14:26:00,24.5,2020-09-16 05:38:00,38.08,2020-09-15 14:35:00,25.86,2020-09-16 05:37:00,25.69,0.91,1005.0,1.43,4.08,1600138680,92,0.66,8,1600149600,16.093,264.2,24.85,2020-09-15 05:17:00,30.31,2020-09-15 14:26:00,26.08,2020-09-15 05:20:00,38.08,2020-09-15 14:35:00
Bardiya,Rani Jaruwa Nursery,28.42588611,81.33803611,2020-09-15 00:00:00,Humid and mostly cloudy throughout the day.,rain,2020-09-15 06:06:00,2020-09-15 18:26:00,0.93,0.1412,0.5079,2020-09-15 11:52:00,0.51,rain,31.12,2020-09-15 14:36:00,24.32,2020-09-16 05:35:00,40.42,2020-09-15 14:50:00,25.61,2020-09-16 05:34:00,26.05,0.91,1005.3,1.18,2.14,1600138680,81,0.73,7,1600149180,16.093,263.8,24.88,2020-09-15 05:24:00,31.12,2020-09-15 14:36:00,26.08,2020-09-15 05:22:00,40.42,2020-09-15 14:50:00
Bhaktapur,Bhaktapur,27.63333333,85.43333333,2020-09-15 00:00:00,Rain until afternoon.,rain,2020-09-15 05:50:00,2020-09-15 18:09:00,0.93,0.5632,1.1123,2020-09-15 14:18:00,0.79,rain,24.07,2020-09-15 13:11:00,16.92,2020-09-16 05:42:00,24.88,2020-09-15 13:21:00,17.6,2020-09-16 05:43:00,20.14,1.0,1007.2,0.68,1.94,1600159380,182,0.82,8,1600149900,15.834,255.7,17.26,2020-09-15 05:40:00,24.07,2020-09-15 13:11:00,18.25,2020-09-15 05:40:00,24.88,2020-09-15 13:21:00
Bhaktapur,Changu Narayan,27.67668056,85.42396944,2020-09-15 00:00:00,Rain until afternoon.,rain,2020-09-15 05:50:00,2020-09-15 18:10:00,0.93,0.5542,1.0968,2020-09-15 14:21:00,0.79,rain,25.94,2020-09-15 13:35:00,17.51,2020-09-16 05:41:00,26.61,2020-09-15 13:40:00,18.07,2020-09-16 05:42:00,21.29,0.98,1007.3,0.67,1.89,1600159680,175,0.81,8,1600150320,15.498,255.9,18.2,2020-09-15 05:40:00,25.94,2020-09-15 13:35:00,19.07,2020-09-15 05:39:00,26.61,2020-09-15 13:40:00
Bhaktapur,Nagarkot,27.645725,85.4615833,2020-09-15 00:00:00,Rain until afternoon.,rain,2020-09-15 05:50:00,2020-09-15 18:09:00,0.93,0.5669,1.1288,2020-09-15 14:23:00,0.79,rain,25.09,2020-09-15 13:24:00,17.37,2020-09-16 05:42:00,25.84,2020-09-15 13:28:00,17.98,2020-09-16 05:43:00,20.91,0.99,1007.2,0.66,1.93,1600159500,179,0.82,8,1600150080,15.713,255.7,17.74,2020-09-15 05:40:00,25.09,2020-09-15 13:24:00,18.66,2020-09-15 05:40:00,25.84,2020-09-15 13:28:00
Bhaktapur,Sanga,27.71605833,85.42675556,2020-09-15 00:00:00,Rain until afternoon.,rain,2020-09-15 05:50:00,2020-09-15 18:10:00,0.93,0.5484,1.0904,2020-09-15 14:24:00,0.79,rain,25.71,2020-09-15 13:44:00,16.95,2020-09-16 05:42:00,26.28,2020-09-15 13:46:00,17.42,2020-09-16 05:43:00,20.44,0.96,1007.3,0.65,1.85,1600159980,162,0.8,8,1600150800,15.179,256.0,17.65,2020-09-15 05:40:00,25.71,2020-09-15 13:44:00,18.42,2020-09-15 05:40:00,26.28,2020-09-15 13:46:00
Bhojpur,Dingla,27.1944798,87.04862659999999,2020-09-15 00:00:00,Rain starting in the morning.,rain,2020-09-15 05:44:00,2020-09-15 18:03:00,0.93,0.4609,1.1595,2020-09-15 09:37:00,0.82,rain,21.6,2020-09-15 14:40:00,15.87,2020-09-16 05:41:00,22.59,2020-09-15 14:39:00,16.94,2020-09-16 05:40:00,17.8,1.0,1007.5,0.47,1.37,1600117740,192,0.96,6,1600151940,11.01,251.8,15.62,2020-09-15 05:44:00,21.6,2020-09-15 14:40:00,16.98,2020-09-15 05:42:00,22.59,2020-09-15 14:39:00
Bhojpur,Rampur,27.5282716,87.2177064,2020-09-15 00:00:00,Rain overnight and in the morning.,rain,2020-09-15 05:43:00,2020-09-15 18:02:00,0.93,0.4755,1.4838,2020-09-15 05:20:00,0.8,rain,21.71,2020-09-15 13:49:00,17.03,2020-09-16 05:44:00,21.92,2020-09-15 13:52:00,17.3,2020-09-16 05:44:00,17.81,0.94,1008.1,0.7,1.19,1600193700,9,0.99,6,1600150080,9.933,252.0,16.6,2020-09-15 05:48:00,21.71,2020-09-15 13:49:00,17.18,2020-09-15 05:47:00,21.92,2020-09-15 13:52:00
Chitawan,Bharatpur,27.72113611,84.58525556,2020-09-15 00:00:00,Rain overnight.,rain,2020-09-15 05:53:00,2020-09-15 18:13:00,0.93,0.3049,1.1082,2020-09-15 23:43:00,0.81,rain,32.25,2020-09-15 12:42:00,22.74,2020-09-16 05:31:00,37.18,2020-09-15 12:56:00,23.58,2020-09-16 05:33:00,23.81,0.83,1006.6,0.83,1.97,1600154100,176,0.81,8,1600149120,15.62,258.8,22.81,2020-09-15 05:33:00,32.25,2020-09-15 12:42:00,23.94,2020-09-15 05:34:00,37.18,2020-09-15 12:56:00
Chitawan,Bharatpur,27.5909,84.5223,2020-09-15 00:00:00,Rain overnight.,rain,2020-09-15 05:54:00,2020-09-15 18:13:00,0.93,0.2859,0.9575,2020-09-15 23:44:00,0.81,rain,31.99,2020-09-15 12:20:00,23.55,2020-09-16 05:25:00,39.88,2020-09-15 15:47:00,24.65,2020-09-16 05:27:00,25.18,0.87,1006.2,1.05,2.64,1600156560,120,0.84,8,1600149480,16.032,258.8,23.6,2020-09-15 05:26:00,31.99,2020-09-15 12:20:00,24.83,2020-09-15 05:27:00,39.88,2020-09-15 15:47:00
Chitawan,Jhuwani,27.654025,84.3507944,2020-09-15 00:00:00,Humid and mostly cloudy throughout the day.,rain,2020-09-15 05:54:00,2020-09-15 18:14:00,0.93,0.253,0.7368,2020-09-15 00:44:00,0.79,rain,32.92,2020-09-15 12:34:00,23.55,2020-09-16 05:28:00,38.72,2020-09-15 15:02:00,24.42,2020-09-16 05:30:00,23.86,0.79,1006.2,1.05,2.04,1600155600,100,0.87,7,1600150080,16.093,259.1,23.84,2020-09-15 05:24:00,32.92,2020-09-15 12:34:00,24.89,2020-09-15 05:27:00,38.72,2020-09-15 15:02:00
Chitwan,Gobindabasti,27.423171500000002,84.30374090000001,2020-09-15 00:00:00,Possible light rain until afternoon.,rain,2020-09-15 05:55:00,2020-09-15 18:14:00,0.93,0.3175,0.6802,2020-09-15 17:17:00,0.84,rain,30.2,2020-09-15 11:58:00,23.42,2020-09-16 05:21:00,35.71,2020-09-15 14:36:00,24.62,2020-09-16 05:23:00,24.52,0.89,1005.5,1.67,3.62,1600139400,92,0.9,7,1600150860,15.774,258.9,23.49,2020-09-15 05:09:00,30.2,2020-09-15 11:58:00,24.76,2020-09-15 05:11:00,35.71,2020-09-15 14:36:00
Chitwan,Madi Kalyanpur,27.580483299999997,84.2242222,2020-09-15 00:00:00,Possible light rain overnight and in the morning.,rain,2020-09-15 05:55:00,2020-09-15 18:14:00,0.93,0.2632,0.6768,2020-09-15 16:44:00,0.79,rain,32.75,2020-09-15 12:14:00,23.42,2020-09-16 05:26:00,39.22,2020-09-15 14:51:00,24.34,2020-09-16 05:30:00,24.08,0.8,1005.9,1.35,2.56,1600140060,93,0.9,7,1600151160,16.064,259.1,23.76,2020-09-15 05:20:00,32.75,2020-09-15 12:14:00,24.81,2020-09-15 05:26:00,39.22,2020-09-15 14:51:00
Chitwan,Meghauli,27.67303333,84.42227222,2020-09-15 00:00:00,Possible light rain overnight.,rain,2020-09-15 05:54:00,2020-09-15 18:14:00,0.93,0.2608,0.8855,2020-09-15 23:44:00,0.8,rain,32.88,2020-09-15 12:38:00,23.53,2020-09-16 05:30:00,38.4,2020-09-15 15:02:00,24.41,2020-09-16 05:32:00,23.94,0.8,1006.3,0.97,2.08,1600155540,113,0.85,8,1600149720,16.013,259.1,23.75,2020-09-15 05:29:00,32.88,2020-09-15 12:38:00,24.84,2020-09-15 05:32:00,38.4,2020-09-15 15:02:00
Dadeldhura,Dadeldhura,29.301352,80.58775194,2020-09-15 00:00:00,Humid and partly cloudy throughout the day.,rain,2020-09-15 06:09:00,2020-09-15 18:29:00,0.93,0.1548,0.2791,2020-09-15 17:27:00,0.46,rain,24.8,2020-09-15 13:20:00,16.4,2020-09-16 05:42:00,25.26,2020-09-15 13:22:00,17.38,2020-09-16 05:42:00,19.44,0.98,1007.1,0.81,2.11,1600160700,202,0.57,9,1600150320,16.093,261.7,16.91,2020-09-15 05:39:00,24.8,2020-09-15 13:20:00,18.15,2020-09-15 05:38:00,25.26,2020-09-15 13:22:00
Dadeldhura,Dailekh,29.12785778,80.34740778,2020-09-15 00:00:00,Humid and partly cloudy throughout the day.,rain,2020-09-15 06:10:00,2020-09-15 18:30:00,0.93,0.1746,0.5671,2020-09-15 11:43:00,0.43,rain,31.14,2020-09-15 14:01:00,23.23,2020-09-16 05:41:00,39.79,2020-09-15 16:38:00,24.41,2020-09-16 05:39:00,25.31,0.9,1006.2,1.03,2.14,1600160460,105,0.61,8,1600151760,16.093,263.6,23.65,2020-09-15 05:33:00,31.14,2020-09-15 14:01:00,24.91,2020-09-15 05:33:00,39.79,2020-09-15 16:38:00
Dadeldhura,Sahukharka,29.288393100000004,80.37301500000001,2020-09-15 00:00:00,Humid and partly cloudy throughout the day.,rain,2020-09-15 06:10:00,2020-09-15 18:30:00,0.93,0.149,0.448,2020-09-15 14:42:00,0.46,rain,26.34,2020-09-15 13:12:00,18.51,2020-09-16 06:07:00,27.9,2020-09-15 13:13:00,19.57,2020-09-16 03:35:00,20.98,0.97,1006.8,0.94,2.43,1600161540,201,0.51,10,1600150440,16.093,262.5,18.85,2020-09-15 05:39:00,26.34,2020-09-15 13:12:00,20.1,2020-09-15 05:38:00,27.9,2020-09-15 13:13:00
Dailekh,Bale Budha (Tallo Dhungeshwor),28.83811111,81.70848333,2020-09-15 00:00:00,Humid and overcast throughout the day.,rain,2020-09-15 06:05:00,2020-09-15 18:25:00,0.93,0.236,0.5749,2020-09-15 17:13:00,0.53,rain,27.59,2020-09-15 12:25:00,19.06,2020-09-16 05:56:00,30.19,2020-09-15 12:47:00,19.87,2020-09-16 05:57:00,21.63,0.93,1007.2,1.03,2.04,1600157220,220,0.89,6,1600150740,16.093,260.1,19.15,2020-09-15 05:49:00,27.59,2020-09-15 12:25:00,19.88,2020-09-15 05:52:00,30.19,2020-09-15 12:47:00
Dailekh,Katti,28.92202778,81.62608333,2020-09-15 00:00:00,Humid and overcast throughout the day.,rain,2020-09-15 06:05:00,2020-09-15 18:25:00,0.93,0.2043,0.4374,2020-09-15 17:34:00,0.53,rain,27.91,2020-09-15 12:46:00,18.8,2020-09-16 05:43:00,29.89,2020-09-15 13:10:00,19.39,2020-09-16 05:45:00,20.65,0.88,1007.2,1.15,2.11,1600155240,216,0.87,6,1600151280,16.082,260.3,18.92,2020-09-15 05:48:00,27.91,2020-09-15 12:46:00,19.38,2020-09-15 05:50:00,29.89,2020-09-15 13:10:00
Dailekh,Nayabasti (Dang),28.78022222,81.82144444,2020-09-15 00:00:00,Humid and overcast throughout the day.,rain,2020-09-15 06:04:00,2020-09-15 18:24:00,0.93,0.2734,0.7418,2020-09-15 16:57:00,0.54,rain,27.46,2020-09-15 12:35:00,19.58,2020-09-16 06:11:00,31.1,2020-09-15 13:35:00,20.56,2020-09-16 06:10:00,22.56,0.97,1007.2,0.91,1.91,1600156380,215,0.89,6,1600150500,15.987,259.9,19.49,2020-09-15 05:54:00,27.46,2020-09-15 12:35:00,20.47,2020-09-15 05:57:00,31.1,2020-09-15 13:35:00
Dailekh,Ranimatta,28.90711111,81.75019167,2020-09-15 00:00:00,Humid and overcast throughout the day.,rain,2020-09-15 06:04:00,2020-09-15 18:25:00,0.93,0.1947,0.4918,2020-09-15 17:30:00,0.51,rain,26.11,2020-09-15 12:29:00,17.03,2020-09-16 05:44:00,26.34,2020-09-15 12:35:00,17.61,2020-09-16 05:45:00,19.04,0.9,1007.3,1.17,2.25,1600153560,227,0.89,6,1600150860,15.553,259.2,17.03,2020-09-15 05:49:00,26.11,2020-09-15 12:29:00,17.39,2020-09-15 05:50:00,26.34,2020-09-15 12:35:00
Dang,Ghorahi (Masina),28.13174722,82.30278333,2020-09-15 00:00:00,Humid and mostly cloudy throughout the day.,rain,2020-09-15 06:02:00,2020-09-15 18:22:00,0.93,0.2264,0.6577,2020-09-15 13:31:00,0.47,rain,30.0,2020-09-15 14:36:00,21.86,2020-09-16 05:07:00,36.11,2020-09-15 15:12:00,22.89,2020-09-16 05:03:00,24.46,0.93,1006.0,1.05,2.41,1600138740,127,0.71,9,1600149480,16.093,260.2,22.52,2020-09-15 05:02:00,30.0,2020-09-15 14:36:00,23.65,2020-09-15 04:58:00,36.11,2020-09-15 15:12:00
Dang,Ghorai (Dang),27.69233306,82.52512694,2020-09-15 00:00:00,Humid and mostly cloudy throughout the day.,rain,2020-09-15 06:02:00,2020-09-15 18:21:00,0.93,0.2031,0.7542,2020-09-15 16:54:00,0.58,rain,31.63,2020-09-15 12:35:00,24.07,2020-09-16 05:22:00,38.31,2020-09-15 12:41:00,25.35,2020-09-16 05:24:00,24.52,0.86,1004.8,2.0,6.53,1600129500,101,0.8,8,1600150020,15.502,260.6,24.11,2020-09-15 04:51:00,31.63,2020-09-15 12:35:00,25.47,2020-09-15 04:51:00,38.31,2020-09-15 12:41:00
Dang,Koilabas,28.05,82.5,2020-09-15 00:00:00,Humid and mostly cloudy throughout the day.,rain,2020-09-15 06:02:00,2020-09-15 18:21:00,0.93,0.2102,0.7684,2020-09-15 14:40:00,0.44,rain,30.0,2020-09-15 13:00:00,21.81,2020-09-16 05:15:00,35.63,2020-09-15 13:04:00,22.81,2020-09-16 05:14:00,24.24,0.92,1006.0,0.99,2.13,1600138200,98,0.84,7,1600149840,16.032,259.7,22.39,2020-09-15 05:13:00,30.0,2020-09-15 13:00:00,23.53,2020-09-15 05:08:00,35.63,2020-09-15 13:04:00
Dang,Lalmatiya,27.87055556,82.53666667,2020-09-15 00:00:00,Humid and mostly cloudy throughout the day.,rain,2020-09-15 06:02:00,2020-09-15 18:21:00,0.93,0.2085,0.7529,2020-09-15 15:49:00,0.5,rain,32.76,2020-09-15 12:51:00,23.83,2020-09-16 05:15:00,40.52,2020-09-15 12:53:00,25.01,2020-09-16 05:14:00,25.16,0.85,1005.3,1.38,4.01,1600135020,100,0.83,8,1600149960,15.644,260.3,24.09,2020-09-15 05:11:00,32.76,2020-09-15 12:51:00,25.35,2020-09-15 05:08:00,40.52,2020-09-15 12:53:00
Dang,Lamahi,27.88486889,82.33509611,2020-09-15 00:00:00,Humid and mostly cloudy throughout the day.,rain,2020-09-15 06:02:00,2020-09-15 18:22:00,0.93,0.1736,0.7255,2020-09-15 14:44:00,0.47,rain,32.53,2020-09-15 13:17:00,24.35,2020-09-16 05:11:00,40.9,2020-09-15 13:07:00,25.6,2020-09-16 05:10:00,25.44,0.85,1005.1,1.6,4.8,1600137360,110,0.72,8,1600149840,16.093,260.8,24.51,2020-09-15 05:06:00,32.53,2020-09-15 13:17:00,25.77,2020-09-15 05:15:00,40.9,2020-09-15 13:07:00
Dang,Padhampur,28.03719889,82.484156,2020-09-15 00:00:00,Humid and mostly cloudy throughout the day.,rain,2020-09-15 06:02:00,2020-09-15 18:21:00,0.93,0.206,0.7667,2020-09-15 14:39:00,0.43,rain,30.22,2020-09-15 12:59:00,22.02,2020-09-16 05:15:00,36.03,2020-09-15 13:04:00,23.04,2020-09-16 05:15:00,24.22,0.91,1005.9,1.01,2.3,1600138260,100,0.83,7,1600149780,16.065,259.8,22.57,2020-09-15 05:12:00,30.22,2020-09-15 12:59:00,23.72,2020-09-15 05:07:00,36.03,2020-09-15 13:04:00
Dang,Tulsipur,28.201323,82.1393939,2020-09-15 00:00:00,Humid and mostly cloudy throughout the day.,rain,2020-09-15 06:03:00,2020-09-15 18:23:00,0.93,0.2198,0.6633,2020-09-15 13:02:00,0.47,rain,30.23,2020-09-15 14:49:00,22.25,2020-09-16 05:06:00,37.16,2020-09-15 15:10:00,23.34,2020-09-16 04:57:00,24.91,0.95,1005.9,1.0,1.94,1600159440,140,0.66,8,1600149420,15.947,260.8,23.07,2020-09-15 05:13:00,30.23,2020-09-15 14:49:00,24.29,2020-09-15 05:05:00,37.16,2020-09-15 15:10:00
Darchula,Darchula New,29.666666999999997,80.55,2020-09-15 00:15:00,Humid and partly cloudy throughout the day.,rain,2020-09-15 06:09:00,2020-09-15 18:30:00,0.93,0.2587,0.6243,2020-09-15 23:44:00,0.59,rain,29.76,2020-09-15 13:36:00,19.86,2020-09-16 04:50:00,32.17,2020-09-15 13:52:00,20.69,2020-09-16 04:46:00,21.62,0.89,1007.8,0.8,1.83,1600152480,199,0.45,10,1600150200,14.937,260.7,19.93,2020-09-15 05:37:00,29.76,2020-09-15 13:36:00,20.83,2020-09-15 05:35:00,32.17,2020-09-15 13:52:00
Darchula,Dhaulatiya (Dallekhdhar),29.78255194,80.82215806,2020-09-15 00:00:00,Partly cloudy throughout the day.,rain,2020-09-15 06:08:00,2020-09-15 18:29:00,0.93,0.1094,0.3138,2020-09-15 15:20:00,0.49,rain,22.31,2020-09-15 12:39:00,13.99,2020-09-16 00:40:00,22.31,2020-09-15 12:45:00,14.26,2020-09-16 00:40:00,15.29,0.9,1008.3,1.1,2.49,1600150740,80,0.47,10,1600149900,14.199,257.1,13.44,2020-09-15 05:49:00,22.31,2020-09-15 12:39:00,13.71,2020-09-15 05:49:00,22.31,2020-09-15 12:45:00
Darchula,Gokuleshwar,29.84287806,80.53884806,2020-09-15 00:15:00,Humid and partly cloudy throughout the day.,rain,2020-09-15 06:09:00,2020-09-15 18:30:00,0.93,0.2431,0.7708,2020-09-15 23:45:00,0.59,rain,26.81,2020-09-15 13:05:00,18.06,2020-09-16 00:34:00,27.97,2020-09-15 13:14:00,18.71,2020-09-16 00:38:00,19.56,0.91,1008.0,0.86,2.21,1600151100,196,0.53,9,1600150500,14.75,259.1,17.72,2020-09-15 05:48:00,26.81,2020-09-15 13:05:00,18.44,2020-09-15 05:45:00,27.97,2020-09-15 13:14:00
Darchula,Lumpthi,29.84496194,80.54539389,2020-09-15 00:15:00,Humid and partly cloudy throughout the day.,rain,2020-09-15 06:09:00,2020-09-15 18:30:00,0.93,0.2393,0.7445,2020-09-15 23:45:00,0.59,rain,26.62,2020-09-15 13:03:00,17.9,2020-09-16 00:34:00,27.58,2020-09-15 12:49:00,18.54,2020-09-16 00:38:00,19.43,0.91,1008.0,0.87,2.23,1600151040,196,0.53,9,1600150440,14.719,259.1,17.55,2020-09-15 05:48:00,26.62,2020-09-15 13:03:00,18.24,2020-09-15 05:46:00,27.58,2020-09-15 12:49:00
Dhading,Dhading,28.05,84.82,2020-09-15 00:00:00,Mostly cloudy throughout the day.,rain,2020-09-15 05:52:00,2020-09-15 18:12:00,0.93,0.3485,0.844,2020-09-15 02:56:00,0.69,rain,29.68,2020-09-15 13:46:00,20.55,2020-09-16 05:31:00,31.98,2020-09-15 13:50:00,20.82,2020-09-16 05:31:00,18.95,0.73,1007.6,0.84,1.71,1600153800,315,0.78,8,1600149960,15.19,257.7,20.61,2020-09-15 05:31:00,29.68,2020-09-15 13:46:00,21.08,2020-09-15 05:31:00,31.98,2020-09-15 13:50:00
Dhading,Dhunibesi,27.912505600000003,84.8961333,2020-09-15 00:00:00,Humid and mostly cloudy throughout the day.,rain,2020-09-15 05:52:00,2020-09-15 18:12:00,0.93,0.3781,0.6982,2020-09-15 02:55:00,0.73,rain,30.84,2020-09-15 13:50:00,20.91,2020-09-16 05:43:00,35.45,2020-09-15 13:57:00,21.32,2020-09-16 05:43:00,21.62,0.8,1007.3,0.77,1.82,1600153800,256,0.77,8,1600149780,15.567,257.9,21.02,2020-09-15 05:42:00,30.84,2020-09-15 13:50:00,21.74,2020-09-15 05:41:00,35.45,2020-09-15 13:57:00
Dhading,Gajuri,27.8053359,84.7055012,2020-09-15 00:00:00,Humid and partly cloudy throughout the day.,rain,2020-09-15 05:53:00,2020-09-15 18:12:00,0.93,0.3731,0.8895,2020-09-15 00:00:00,0.78,rain,31.51,2020-09-15 13:06:00,21.52,2020-09-16 05:24:00,36.74,2020-09-15 13:48:00,22.24,2020-09-16 05:25:00,23.24,0.83,1007.0,0.75,1.79,1600153380,215,0.77,9,1600149240,15.686,258.4,21.55,2020-09-15 05:27:00,31.51,2020-09-15 13:06:00,22.55,2020-09-15 05:26:00,36.74,2020-09-15 13:48:00
Dhading,Majhimtar,27.72311667,85.1642,2020-09-15 00:00:00,Rain overnight and in the morning.,rain,2020-09-15 05:51:00,2020-09-15 18:11:00,0.93,0.4841,1.0117,2020-09-15 13:07:00,0.77,rain,28.4,2020-09-15 13:47:00,18.8,2020-09-16 05:36:00,32.99,2020-09-15 13:53:00,19.4,2020-09-16 05:36:00,22.99,0.95,1007.1,0.74,1.91,1600158180,182,0.8,8,1600149960,15.07,256.5,19.79,2020-09-15 05:37:00,28.4,2020-09-15 13:47:00,20.75,2020-09-15 05:36:00,32.99,2020-09-15 13:53:00
Dhading,Pakhribas,27.802707399999996,84.8797782,2020-09-15 00:00:00,Humid and mostly cloudy throughout the day.,rain,2020-09-15 05:52:00,2020-09-15 18:12:00,0.93,0.3996,0.7437,2020-09-15 00:00:00,0.77,rain,31.09,2020-09-15 13:29:00,21.64,2020-09-16 05:35:00,37.17,2020-09-15 15:36:00,22.37,2020-09-16 05:36:00,23.27,0.85,1007.1,0.75,1.91,1600152480,231,0.76,8,1600149420,14.911,257.7,21.74,2020-09-15 05:35:00,31.09,2020-09-15 13:29:00,22.78,2020-09-15 05:35:00,37.17,2020-09-15 15:36:00
Dhankuta,Barahkshetra,26.91424278,87.15986,2020-09-15 00:00:00,Rain and humid throughout the day.,rain,2020-09-15 05:43:00,2020-09-15 18:02:00,0.93,0.629,1.2553,2020-09-15 09:45:00,0.91,rain,28.82,2020-09-15 15:15:00,22.68,2020-09-16 05:39:00,36.15,2020-09-15 15:48:00,23.78,2020-09-16 05:37:00,25.06,0.97,1007.0,0.85,1.79,1600193700,63,0.9,7,1600152060,15.061,252.8,22.73,2020-09-15 05:42:00,28.82,2020-09-15 15:15:00,23.95,2020-09-15 05:41:00,36.15,2020-09-15 15:48:00
Dhankuta,Dhankuta,26.93805556,87.15472222,2020-09-15 00:00:00,Rain and humid throughout the day.,rain,2020-09-15 05:43:00,2020-09-15 18:02:00,0.93,0.6098,1.2654,2020-09-15 09:45:00,0.9,rain,28.75,2020-09-15 15:16:00,22.58,2020-09-16 05:40:00,35.76,2020-09-15 15:55:00,23.68,2020-09-16 05:39:00,24.79,0.97,1007.1,0.79,1.79,1600193700,58,0.91,6,1600152060,15.125,252.7,22.54,2020-09-15 05:43:00,28.75,2020-09-15 15:16:00,23.76,2020-09-15 05:42:00,35.76,2020-09-15 15:55:00
Dhankuta,Dhankuta,27.0500025,87.24444444,2020-09-15 00:00:00,Rain and humid throughout the day.,rain,2020-09-15 05:43:00,2020-09-15 18:02:00,0.93,0.4717,1.0573,2020-09-15 09:42:00,0.86,rain,22.82,2020-09-15 14:36:00,17.24,2020-09-16 05:43:00,23.45,2020-09-15 14:34:00,18.11,2020-09-16 05:43:00,19.23,1.0,1007.4,0.62,1.71,1600193700,3,0.91,6,1600153020,15.524,252.4,16.65,2020-09-15 05:46:00,22.82,2020-09-15 14:36:00,17.67,2020-09-15 05:46:00,23.45,2020-09-15 14:34:00
Dhankuta,Leguwa Ghat,27.04633889,87.2925,2020-09-15 00:00:00,Rain throughout the day.,rain,2020-09-15 05:43:00,2020-09-15 18:02:00,0.93,0.4975,1.0725,2020-09-15 09:43:00,0.86,rain,22.14,2020-09-15 14:45:00,16.3,2020-09-16 05:39:00,22.89,2020-09-15 14:46:00,17.26,2020-09-16 05:39:00,18.47,1.0,1007.4,0.6,1.67,1600193700,1,0.92,6,1600153080,15.638,252.2,15.94,2020-09-15 05:44:00,22.14,2020-09-15 14:45:00,17.12,2020-09-15 05:44:00,22.89,2020-09-15 14:46:00
Dhankuta,Muga,27.15338889,87.28919444,2020-09-15 00:00:00,Rain and humid throughout the day.,rain,2020-09-15 05:43:00,2020-09-15 18:02:00,0.93,0.42,0.9401,2020-09-15 09:40:00,0.84,rain,27.66,2020-09-15 15:05:00,20.33,2020-09-16 05:39:00,31.05,2020-09-15 15:22:00,21.14,2020-09-16 05:39:00,22.54,0.96,1007.6,0.54,1.34,1600193700,263,0.93,6,1600152720,14.133,252.4,20.35,2020-09-15 05:47:00,27.66,2020-09-15 15:05:00,21.37,2020-09-15 05:46:00,31.05,2020-09-15 15:22:00
Dhankuta,Mul Ghat,26.98321944,87.34595556,2020-09-15 00:00:00,Rain and humid throughout the day.,rain,2020-09-15 05:43:00,2020-09-15 18:02:00,0.93,0.568,1.1172,2020-09-15 09:44:00,0.87,rain,23.82,2020-09-15 14:27:00,18.57,2020-09-16 01:18:00,24.59,2020-09-15 14:21:00,19.56,2020-09-16 01:27:00,20.43,1.0,1007.3,0.64,1.75,1600193700,41,0.92,6,1600153140,15.718,252.1,18.4,2020-09-15 05:47:00,23.82,2020-09-15 14:27:00,19.49,2020-09-15 05:45:00,24.59,2020-09-15 14:21:00
Dhankuta,Mul Ghat,26.98321944,87.34595556,2020-09-15 00:00:00,Rain and humid throughout the day.,rain,2020-09-15 05:43:00,2020-09-15 18:02:00,0.93,0.568,1.1172,2020-09-15 09:44:00,0.87,rain,23.82,2020-09-15 14:27:00,18.57,2020-09-16 01:18:00,24.59,2020-09-15 14:21:00,19.56,2020-09-16 01:27:00,20.43,1.0,1007.3,0.64,1.75,1600193700,41,0.92,6,1600153140,15.718,252.1,18.4,2020-09-15 05:47:00,23.82,2020-09-15 14:27:00,19.49,2020-09-15 05:45:00,24.59,2020-09-15 14:21:00
Dhanusa,Chisapani Bazar,27.01295556,85.92089722,2020-09-15 00:00:00,Rain until afternoon.,rain,2020-09-15 05:48:00,2020-09-15 18:07:00,0.93,0.9199,2.8634,2020-09-15 08:53:00,0.9,rain,29.17,2020-09-15 14:19:00,23.7,2020-09-16 05:27:00,36.95,2020-09-15 13:57:00,24.97,2020-09-16 05:26:00,25.78,0.97,1006.0,1.36,4.02,1600148160,126,0.66,9,1600152540,14.653,255.9,24.06,2020-09-15 05:29:00,29.17,2020-09-15 14:19:00,25.36,2020-09-15 05:29:00,36.95,2020-09-15 13:57:00
Dhanusa,Janakpur Airport,26.8,85.9833333,2020-09-15 00:00:00,Rain and humid throughout the day.,rain,2020-09-15 05:48:00,2020-09-15 18:07:00,0.93,0.7672,1.5897,2020-09-15 09:39:00,0.97,rain,28.6,2020-09-15 14:48:00,24.0,2020-09-16 05:29:00,35.34,2020-09-15 14:05:00,25.41,2020-09-16 05:31:00,26.04,0.98,1005.5,1.91,5.36,1600142040,102,0.72,8,1600154820,15.722,255.5,24.48,2020-09-15 05:15:00,28.6,2020-09-15 14:48:00,25.87,2020-09-15 05:22:00,35.34,2020-09-15 14:05:00
Dhanusa,Tulsi,26.71666667,85.96666667,2020-09-15 00:00:00,Rain and humid throughout the day.,rain,2020-09-15 05:48:00,2020-09-15 18:07:00,0.93,0.7238,1.4272,2020-09-15 23:50:00,0.98,rain,28.32,2020-09-15 14:54:00,24.0,2020-09-16 05:23:00,34.44,2020-09-15 15:33:00,25.47,2020-09-16 05:26:00,25.92,0.98,1005.3,2.18,6.03,1600107300,98,0.76,7,1600155240,15.511,255.3,24.42,2020-09-15 04:56:00,28.32,2020-09-15 14:54:00,25.87,2020-09-15 05:14:00,34.44,2020-09-15 15:33:00
Dolakha,Charikot,27.67633111,86.10399389,2020-09-15 00:00:00,Possible light rain in the morning.,rain,2020-09-15 05:47:00,2020-09-15 18:07:00,0.93,0.3607,0.6689,2020-09-15 14:38:00,0.74,rain,25.74,2020-09-15 13:59:00,18.05,2020-09-16 05:43:00,26.31,2020-09-15 14:03:00,18.39,2020-09-16 05:43:00,20.7,0.98,1007.4,0.75,1.74,1600159140,230,0.87,7,1600152720,10.11,253.3,17.92,2020-09-15 05:49:00,25.74,2020-09-15 13:59:00,18.84,2020-09-15 05:48:00,26.31,2020-09-15 14:03:00
Dolakha,Dunai,27.63333333,86.13333333,2020-09-15 00:00:00,Possible light rain in the morning.,rain,2020-09-15 05:47:00,2020-09-15 18:07:00,0.93,0.3682,0.6785,2020-09-15 14:28:00,0.75,rain,24.78,2020-09-15 14:03:00,16.42,2020-09-16 05:46:00,25.69,2020-09-15 14:07:00,17.02,2020-09-16 05:44:00,20.14,1.0,1007.4,0.76,1.66,1600158780,231,0.88,7,1600152540,10.437,253.3,16.44,2020-09-15 05:50:00,24.78,2020-09-15 14:03:00,17.68,2020-09-15 05:49:00,25.69,2020-09-15 14:07:00
Dolakha,Jiri,27.6666667,86.05,2020-09-15 00:00:00,Possible light rain overnight and in the morning.,rain,2020-09-15 05:48:00,2020-09-15 18:07:00,0.93,0.3717,0.7325,2020-09-15 14:38:00,0.75,rain,23.35,2020-09-15 13:49:00,15.76,2020-09-16 05:43:00,24.11,2020-09-15 13:51:00,16.44,2020-09-16 05:42:00,18.62,1.0,1007.4,0.75,1.75,1600158900,220,0.85,7,1600152600,9.945,253.7,15.45,2020-09-15 05:49:00,23.35,2020-09-15 13:49:00,16.77,2020-09-15 05:48:00,24.11,2020-09-15 13:51:00
Dolakha,Nagdaha,27.616666700000003,86.35,2020-09-15 00:00:00,Possible light rain in the morning and afternoon.,rain,2020-09-15 05:46:00,2020-09-15 18:06:00,0.93,0.4038,0.6646,2020-09-15 13:10:00,0.75,rain,17.05,2020-09-15 13:24:00,11.4,2020-09-16 05:52:00,18.72,2020-09-15 13:35:00,12.19,2020-09-16 05:44:00,13.69,1.0,1007.5,0.8,1.83,1600158900,260,0.95,6,1600151820,9.171,251.2,11.28,2020-09-15 05:45:00,17.05,2020-09-15 13:24:00,13.07,2020-09-15 05:43:00,18.72,2020-09-15 13:35:00
Dolpa,Kaigaun,29.03154722,82.76287778,2020-09-15 00:00:00,Overcast throughout the day.,cloudy,2020-09-15 06:00:00,2020-09-15 18:21:00,0.93,0.0617,0.2719,2020-09-15 15:20:00,0.37,rain,17.65,2020-09-15 12:04:00,7.19,2020-09-16 00:41:00,17.4,2020-09-15 12:10:00,7.46,2020-09-16 00:41:00,11.0,0.98,1008.9,1.14,3.44,1600159800,353,0.85,8,1600150260,15.357,253.7,7.32,2020-09-16 00:00:00,17.65,2020-09-15 12:04:00,7.59,2020-09-16 00:00:00,17.4,2020-09-15 12:10:00
Dolpa,Silgadhi Doti,28.98363333,82.82074444,2020-09-15 00:00:00,Overcast throughout the day.,cloudy,2020-09-15 06:00:00,2020-09-15 18:20:00,0.93,0.0601,0.2566,2020-09-15 15:25:00,0.36,rain,17.96,2020-09-15 12:08:00,7.55,2020-09-16 00:42:00,17.8,2020-09-15 12:21:00,7.82,2020-09-16 00:44:00,11.41,0.98,1008.8,1.15,3.48,1600159800,1,0.85,8,1600150140,15.539,253.6,7.71,2020-09-16 00:00:00,17.96,2020-09-15 12:08:00,8.0,2020-09-15 05:46:00,17.8,2020-09-15 12:21:00
Doti,Dipayal (Doti),29.12015194,80.70944778,2020-09-15 00:00:00,Humid and mostly cloudy throughout the day.,rain,2020-09-15 06:09:00,2020-09-15 18:29:00,0.93,0.1715,0.5395,2020-09-15 15:01:00,0.43,rain,26.39,2020-09-15 12:51:00,18.39,2020-09-16 05:43:00,28.14,2020-09-15 12:56:00,19.25,2020-09-16 05:45:00,21.49,0.98,1006.8,0.79,1.82,1600158300,193,0.69,7,1600152060,16.093,261.9,19.22,2020-09-15 05:38:00,26.39,2020-09-15 12:51:00,20.42,2020-09-15 05:37:00,28.14,2020-09-15 12:56:00
Doti,Dumrakot,29.16385278,80.600738,2020-09-15 00:00:00,Humid and mostly cloudy throughout the day.,rain,2020-09-15 06:09:00,2020-09-15 18:29:00,0.93,0.1274,0.389,2020-09-15 14:53:00,0.4,rain,23.95,2020-09-15 13:35:00,16.21,2020-09-16 06:09:00,24.52,2020-09-15 13:40:00,17.21,2020-09-16 06:11:00,19.45,0.99,1006.8,0.89,1.99,1600159500,186,0.66,8,1600150920,16.093,262.2,17.01,2020-09-15 05:43:00,23.95,2020-09-15 13:35:00,18.34,2020-09-15 05:44:00,24.52,2020-09-15 13:40:00
Doti,Gaira,29.34106083,81.045105,2020-09-15 00:00:00,Partly cloudy throughout the day.,rain,2020-09-15 06:07:00,2020-09-15 18:28:00,0.93,0.1987,0.574,2020-09-15 17:34:00,0.5,rain,23.69,2020-09-15 13:31:00,14.18,2020-09-16 05:42:00,23.64,2020-09-15 13:42:00,14.45,2020-09-16 05:42:00,16.5,0.92,1007.6,0.85,1.95,1600151880,197,0.56,9,1600152480,15.82,260.8,13.95,2020-09-15 05:45:00,23.69,2020-09-15 13:31:00,14.29,2020-09-15 05:45:00,23.64,2020-09-15 13:42:00
Doti,Jhingrana,29.26209694,80.93690083,2020-09-15 00:00:00,Humid and partly cloudy throughout the day.,rain,2020-09-15 06:08:00,2020-09-15 18:28:00,0.93,0.2254,0.655,2020-09-15 17:41:00,0.51,rain,30.61,2020-09-15 13:31:00,19.94,2020-09-16 05:30:00,33.99,2020-09-15 15:51:00,20.47,2020-09-16 05:31:00,21.69,0.85,1007.3,0.69,1.73,1600153260,195,0.59,8,1600153080,15.958,261.4,20.33,2020-09-15 05:43:00,30.61,2020-09-15 13:31:00,21.13,2020-09-15 05:44:00,33.99,2020-09-15 15:51:00
Doti,Khaptad,29.0,81.13333333,2020-09-15 00:00:00,Humid and mostly cloudy throughout the day.,rain,2020-09-15 06:07:00,2020-09-15 18:27:00,0.93,0.1946,0.7857,2020-09-15 00:00:00,0.51,rain,28.56,2020-09-15 12:26:00,19.38,2020-09-16 05:42:00,31.5,2020-09-15 12:54:00,20.31,2020-09-16 05:48:00,22.27,0.95,1006.8,0.87,1.94,1600159080,201,0.8,7,1600152240,16.093,262.2,20.04,2020-09-15 05:47:00,28.56,2020-09-15 12:26:00,21.32,2020-09-15 05:49:00,31.5,2020-09-15 12:54:00
Doti,Kola Gaun,29.38804889,81.14630111,2020-09-15 00:00:00,Partly cloudy throughout the day.,rain,2020-09-15 06:07:00,2020-09-15 18:27:00,0.93,0.1621,0.4752,2020-09-15 15:58:00,0.48,rain,22.01,2020-09-15 13:04:00,12.16,2020-09-16 05:39:00,21.93,2020-09-15 13:22:00,12.43,2020-09-16 05:39:00,15.08,0.93,1007.9,0.95,2.1,1600153620,188,0.56,9,1600152420,15.987,260.2,11.75,2020-09-15 05:44:00,22.01,2020-09-15 13:04:00,12.02,2020-09-15 05:44:00,21.93,2020-09-15 13:22:00
Gorkha,Barpak,28.2,84.73333333,2020-09-14 21:45:00,Foggy in the afternoon.,rain,2020-09-15 05:53:00,2020-09-15 18:13:00,0.93,0.242,0.5276,2020-09-15 13:26:00,0.67,rain,23.24,2020-09-15 13:51:00,16.18,2020-09-16 05:45:00,23.66,2020-09-15 13:53:00,16.45,2020-09-16 05:45:00,18.17,0.98,1008.1,1.08,1.72,1600149720,353,0.82,8,1600149240,11.518,255.6,15.24,2020-09-15 05:34:00,23.24,2020-09-15 13:51:00,15.79,2020-09-15 05:32:00,23.66,2020-09-15 13:53:00
Gorkha,Chhekampar,27.97138889,84.58944444,2020-09-15 00:00:00,Partly cloudy throughout the day.,rain,2020-09-15 05:53:00,2020-09-15 18:13:00,0.93,0.389,1.1699,2020-09-15 02:53:00,0.74,rain,30.73,2020-09-15 13:05:00,20.8,2020-09-16 05:36:00,33.39,2020-09-15 13:24:00,21.2,2020-09-16 05:38:00,20.05,0.73,1007.3,0.75,1.56,1600107300,256,0.74,9,1600150200,15.961,259.3,21.14,2020-09-15 05:26:00,30.73,2020-09-15 13:05:00,21.76,2020-09-15 05:29:00,33.39,2020-09-15 13:24:00
Gorkha,Chumchet,28.48333333,85.0,2020-09-14 21:45:00,"Foggy until morning, starting again in the evening.",rain,2020-09-15 05:51:00,2020-09-15 18:12:00,0.93,0.061,0.1515,2020-09-15 14:44:00,0.52,rain,11.59,2020-09-15 11:52:00,5.77,2020-09-16 00:47:00,12.92,2020-09-15 12:18:00,5.95,2020-09-15 16:45:00,7.54,1.0,1009.0,1.21,3.11,1600159800,54,0.92,7,1600148940,10.356,249.7,5.29,2020-09-15 05:57:00,11.59,2020-09-15 11:52:00,5.8,2020-09-15 16:32:00,12.92,2020-09-15 12:18:00
Gorkha,Gorkha,28.66666667,84.61666667,2020-09-14 21:45:00,Overcast throughout the day.,rain,2020-09-15 05:53:00,2020-09-15 18:13:00,0.93,0.0424,0.1008,2020-09-15 14:37:00,0.45,rain,6.32,2020-09-15 12:22:00,0.04,2020-09-16 05:38:00,4.82,2020-09-15 12:12:00,0.31,2020-09-16 05:38:00,2.72,1.0,1009.4,1.27,3.06,1600159800,281,0.89,8,1600149360,10.517,248.7,-0.14,2020-09-15 05:48:00,6.32,2020-09-15 12:22:00,0.13,2020-09-15 05:48:00,4.82,2020-09-15 12:12:00
Gorkha,Laprak,28.2,84.75,2020-09-14 21:45:00,Foggy in the afternoon.,rain,2020-09-15 05:53:00,2020-09-15 18:12:00,0.93,0.2399,0.5354,2020-09-15 13:25:00,0.67,rain,21.93,2020-09-15 13:49:00,14.87,2020-09-16 05:45:00,22.67,2020-09-15 13:50:00,15.14,2020-09-16 05:45:00,17.34,1.0,1008.1,1.07,1.74,1600149660,353,0.82,9,1600149180,11.438,255.5,14.17,2020-09-15 05:41:00,21.93,2020-09-15 13:49:00,14.94,2020-09-15 05:41:00,22.67,2020-09-15 13:50:00
Gorkha,Sama Gaun,28.42693611,84.90264444,2020-09-14 21:45:00,Foggy in the evening.,rain,2020-09-15 05:52:00,2020-09-15 18:12:00,0.93,0.0832,0.2311,2020-09-15 14:05:00,0.54,rain,14.08,2020-09-15 11:52:00,8.09,2020-09-16 00:42:00,14.26,2020-09-15 12:00:00,8.36,2020-09-16 00:44:00,10.03,1.0,1008.9,1.16,2.65,1600158720,42,0.88,7,1600149000,9.843,250.7,7.15,2020-09-15 05:51:00,14.08,2020-09-15 11:52:00,7.54,2020-09-15 05:50:00,14.26,2020-09-15 12:00:00
Gulmi,Darma,27.9365,83.33811667,2020-09-15 00:00:00,Humid and mostly cloudy throughout the day.,rain,2020-09-15 05:58:00,2020-09-15 18:18:00,0.93,0.2332,0.6561,2020-09-15 15:19:00,0.63,rain,28.1,2020-09-15 12:57:00,19.38,2020-09-16 05:37:00,29.73,2020-09-15 13:23:00,19.71,2020-09-16 05:40:00,19.93,0.84,1006.6,0.97,1.6,1600111020,35,0.86,7,1600149900,16.068,258.6,18.98,2020-09-15 05:38:00,28.1,2020-09-15 12:57:00,19.6,2020-09-15 05:39:00,29.73,2020-09-15 13:23:00
Gulmi,Musikot,27.93856667,83.44315278,2020-09-15 00:00:00,Humid and mostly cloudy throughout the day.,rain,2020-09-15 05:58:00,2020-09-15 18:18:00,0.93,0.2366,0.6756,2020-09-15 15:12:00,0.63,rain,30.62,2020-09-15 13:07:00,20.22,2020-09-16 05:29:00,33.63,2020-09-15 16:26:00,20.54,2020-09-16 05:32:00,21.04,0.78,1006.7,0.91,1.55,1600144440,32,0.87,7,1600150080,15.92,258.6,19.94,2020-09-15 05:33:00,30.62,2020-09-15 13:07:00,20.56,2020-09-15 05:34:00,33.63,2020-09-15 16:26:00
Gulmi,Tamghas,28.16998056,83.26802778,2020-09-15 00:00:00,Humid and mostly cloudy throughout the day.,rain,2020-09-15 05:59:00,2020-09-15 18:18:00,0.93,0.1897,0.5164,2020-09-15 15:45:00,0.56,rain,26.28,2020-09-15 14:34:00,15.69,2020-09-16 05:41:00,27.71,2020-09-15 14:43:00,15.96,2020-09-16 05:41:00,18.71,0.94,1007.5,1.01,1.65,1600111020,12,0.84,8,1600149600,16.047,257.6,14.86,2020-09-15 05:50:00,26.28,2020-09-15 14:34:00,15.26,2020-09-15 05:49:00,27.71,2020-09-15 14:43:00
Humla,Simikot,29.73056889,82.07185,2020-09-15 00:00:00,Mostly cloudy throughout the day.,rain,2020-09-15 06:03:00,2020-09-15 18:24:00,0.93,0.0729,0.1662,2020-09-15 18:26:00,0.49,rain,22.04,2020-09-15 13:38:00,10.93,2020-09-16 05:41:00,21.76,2020-09-15 13:38:00,11.2,2020-09-16 05:41:00,12.89,0.88,1009.1,1.06,3.31,1600161300,164,0.69,8,1600153500,15.966,255.2,9.5,2020-09-15 05:44:00,22.04,2020-09-15 13:38:00,9.77,2020-09-15 05:44:00,21.76,2020-09-15 13:38:00
Humla,Simikot Airport,29.77827806,81.95264499999999,2020-09-15 00:00:00,Partly cloudy throughout the day.,rain,2020-09-15 06:03:00,2020-09-15 18:24:00,0.93,0.0785,0.1539,2020-09-15 19:10:00,0.5,rain,23.38,2020-09-15 13:48:00,11.97,2020-09-16 05:41:00,23.1,2020-09-15 13:48:00,12.24,2020-09-16 05:41:00,12.81,0.83,1009.0,1.02,3.16,1600163100,180,0.63,9,1600153080,15.961,255.6,10.38,2020-09-15 05:45:00,23.38,2020-09-15 13:48:00,10.65,2020-09-15 05:45:00,23.1,2020-09-15 13:48:00
Humla,Thali,29.91966194,81.87920194,2020-09-15 00:00:00,Mostly cloudy throughout the day.,rain,2020-09-15 06:04:00,2020-09-15 18:24:00,0.93,0.088,0.1798,2020-09-15 17:49:00,0.47,rain,17.49,2020-09-15 13:33:00,8.71,2020-09-16 05:38:00,17.21,2020-09-15 13:33:00,8.98,2020-09-16 05:38:00,11.23,0.96,1009.2,1.13,3.4,1600161780,184,0.72,8,1600150440,13.939,253.4,7.36,2020-09-15 05:46:00,17.49,2020-09-15 13:33:00,7.63,2020-09-15 05:46:00,17.21,2020-09-15 13:33:00
Ilam,Himali Gaun,26.90963889,87.92308333,2020-09-15 00:00:00,Rain and humid throughout the day.,rain,2020-09-15 05:40:00,2020-09-15 17:59:00,0.93,0.6563,1.2458,2020-09-15 09:16:00,0.91,rain,24.78,2020-09-15 14:43:00,19.85,2020-09-16 05:49:00,25.8,2020-09-15 15:01:00,20.98,2020-09-16 05:46:00,21.99,1.0,1007.4,0.71,1.56,1600159920,101,0.96,6,1600152120,11.009,251.1,20.08,2020-09-15 08:21:00,24.78,2020-09-15 14:43:00,21.69,2020-09-15 05:48:00,25.8,2020-09-15 15:01:00
Ilam,Ilam Tea Estate,27.06666667,88.0,2020-09-15 00:00:00,Rain throughout the day.,rain,2020-09-15 05:40:00,2020-09-15 17:59:00,0.93,0.7026,1.6186,2020-09-15 09:26:00,0.87,rain,17.88,2020-09-15 14:28:00,13.54,2020-09-16 05:46:00,19.74,2020-09-15 14:08:00,15.03,2020-09-16 05:43:00,15.33,1.0,1007.9,0.52,1.67,1600160520,233,0.97,6,1600150740,7.996,249.5,13.57,2020-09-15 05:45:00,17.88,2020-09-15 14:28:00,15.64,2020-09-15 05:44:00,19.74,2020-09-15 14:08:00
Ilam,Kanyam Tea Estate,26.8,87.9,2020-09-15 00:00:00,Rain and humid throughout the day.,rain,2020-09-15 05:40:00,2020-09-15 17:59:00,0.93,0.605,1.3346,2020-09-15 00:35:00,0.94,rain,28.15,2020-09-15 13:08:00,22.78,2020-09-16 05:57:00,34.93,2020-09-15 15:43:00,23.93,2020-09-16 05:50:00,25.08,0.98,1007.1,0.93,1.63,1600107300,81,0.92,6,1600152720,13.335,252.5,23.04,2020-09-15 08:20:00,28.15,2020-09-15 13:08:00,24.56,2020-09-15 08:17:00,34.93,2020-09-15 15:43:00
Ilam,Soktim Tea E,26.88652778,88.02738889,2020-09-15 00:00:00,Rain and humid throughout the day.,rain,2020-09-15 05:40:00,2020-09-15 17:59:00,0.93,0.633,1.2822,2020-09-15 09:06:00,0.91,rain,22.53,2020-09-15 13:17:00,17.77,2020-09-16 05:53:00,23.51,2020-09-15 13:25:00,18.84,2020-09-16 05:50:00,19.63,1.0,1007.5,0.76,1.48,1600159680,79,0.95,6,1600152060,11.939,251.3,17.97,2020-09-15 05:50:00,22.53,2020-09-15 13:17:00,19.3,2020-09-15 05:47:00,23.51,2020-09-15 13:25:00
Jajarkot,Bhanu Thana,28.961315000000003,82.268888,2020-09-15 00:00:00,Foggy in the afternoon.,rain,2020-09-15 06:02:00,2020-09-15 18:23:00,0.93,0.1361,0.4843,2020-09-15 15:01:00,0.5,rain,23.32,2020-09-15 12:12:00,14.2,2020-09-16 05:38:00,23.34,2020-09-15 12:24:00,14.47,2020-09-16 05:37:00,16.08,0.9,1007.8,1.22,3.55,1600158240,181,0.92,6,1600150980,12.554,256.4,12.69,2020-09-15 05:44:00,23.32,2020-09-15 12:12:00,12.96,2020-09-15 05:44:00,23.34,2020-09-15 12:24:00
Jajarkot,Maina Gaun (D.Bas),28.69860389,82.200792,2020-09-15 00:00:00,Humid and overcast throughout the day.,rain,2020-09-15 06:03:00,2020-09-15 18:23:00,0.93,0.2217,0.6187,2020-09-15 17:32:00,0.54,rain,28.07,2020-09-15 13:15:00,19.63,2020-09-16 06:18:00,31.17,2020-09-15 13:46:00,20.23,2020-09-16 06:21:00,21.95,0.92,1007.4,0.8,1.82,1600154220,222,0.82,6,1600150920,15.394,260.1,19.43,2020-09-15 05:50:00,28.07,2020-09-15 13:15:00,20.16,2020-09-15 05:52:00,31.17,2020-09-15 13:46:00
Jhapa,Anarmani Birta,26.6706658,87.7004293,2020-09-15 00:00:00,Rain and humid throughout the day.,rain,2020-09-15 05:41:00,2020-09-15 18:00:00,0.93,0.7468,2.2007,2020-09-15 00:53:00,0.98,rain,29.25,2020-09-15 14:32:00,23.53,2020-09-16 05:47:00,38.0,2020-09-15 15:41:00,24.72,2020-09-16 05:44:00,26.05,0.97,1006.7,1.44,2.61,1600142280,88,0.87,7,1600153920,13.931,253.1,24.95,2020-09-15 08:27:00,29.25,2020-09-15 14:32:00,26.39,2020-09-15 05:38:00,38.0,2020-09-15 15:41:00
Jhapa,Chnadra Gadhi,26.39616667,88.00375,2020-09-15 00:00:00,Rain and humid throughout the day.,rain,2020-09-15 05:40:00,2020-09-15 17:59:00,0.93,1.3782,4.9896,2020-09-15 02:01:00,0.99,rain,27.74,2020-09-15 14:57:00,22.69,2020-09-16 05:33:00,31.9,2020-09-15 15:23:00,24.06,2020-09-16 05:34:00,24.95,0.97,1006.3,2.03,4.4,1600142700,90,0.79,7,1600153920,15.436,253.3,24.06,2020-09-15 05:27:00,27.74,2020-09-15 14:57:00,25.46,2020-09-15 05:29:00,31.9,2020-09-15 15:23:00
Jhapa,Gaida (Kankai),26.68972222,87.98861111,2020-09-15 00:00:00,Possible light rain and humid throughout the day.,rain,2020-09-15 05:40:00,2020-09-15 17:59:00,0.93,0.5785,1.5795,2020-09-15 01:07:00,0.96,rain,29.04,2020-09-15 12:56:00,23.31,2020-09-16 05:49:00,36.24,2020-09-15 15:48:00,24.49,2020-09-16 05:46:00,25.55,0.96,1006.9,1.21,2.34,1600139640,80,0.88,7,1600153140,14.341,253.1,23.64,2020-09-15 08:31:00,29.04,2020-09-15 12:56:00,25.11,2020-09-15 08:30:00,36.24,2020-09-15 15:48:00
Jhapa,Jumla,26.5647011,88.0614307,2020-09-15 00:00:00,Light rain and humid throughout the day.,rain,2020-09-15 05:40:00,2020-09-15 17:59:00,0.93,0.5915,2.423,2020-09-15 01:39:00,0.98,rain,28.45,2020-09-15 14:49:00,22.4,2020-09-16 05:37:00,33.42,2020-09-15 15:08:00,23.56,2020-09-16 05:37:00,24.75,0.95,1006.6,1.63,3.62,1600143180,81,0.85,7,1600154700,15.71,253.3,23.22,2020-09-15 08:43:00,28.45,2020-09-15 14:49:00,24.62,2020-09-15 08:42:00,33.42,2020-09-15 15:08:00
Jhapa,Kechana,26.65688889,87.86072222,2020-09-15 00:00:00,Light rain and humid throughout the day.,rain,2020-09-15 05:41:00,2020-09-15 17:59:00,0.93,0.69,2.1868,2020-09-15 01:12:00,0.97,rain,28.94,2020-09-15 14:14:00,23.27,2020-09-16 05:43:00,36.52,2020-09-15 15:41:00,24.44,2020-09-16 05:42:00,25.71,0.96,1006.8,1.4,2.67,1600141320,86,0.87,7,1600153920,14.605,253.2,24.29,2020-09-15 08:33:00,28.94,2020-09-15 14:14:00,25.79,2020-09-15 08:33:00,36.52,2020-09-15 15:41:00
Jhapa,Sanischare,26.625063899999997,87.98858059999999,2020-09-15 00:00:00,Light rain and humid throughout the day.,rain,2020-09-15 05:40:00,2020-09-15 17:59:00,0.93,0.6104,2.1403,2020-09-15 01:31:00,0.97,rain,28.82,2020-09-15 14:33:00,22.91,2020-09-16 05:40:00,35.64,2020-09-15 15:42:00,24.07,2020-09-16 05:40:00,25.41,0.95,1006.8,1.45,3.03,1600140420,84,0.86,7,1600154160,15.223,253.2,23.63,2020-09-15 08:38:00,28.82,2020-09-15 14:33:00,25.09,2020-09-15 08:38:00,35.64,2020-09-15 15:42:00
Jumla,Dipal Gaun,29.23088056,82.33041944,2020-09-15 00:00:00,Mostly cloudy throughout the day.,rain,2020-09-15 06:02:00,2020-09-15 18:22:00,0.93,0.0699,0.3098,2020-09-15 16:48:00,0.42,rain,19.62,2020-09-15 12:38:00,6.59,2020-09-16 05:29:00,19.33,2020-09-15 12:41:00,6.86,2020-09-16 05:29:00,11.33,0.94,1008.7,1.04,2.92,1600158780,14,0.84,7,1600153140,15.086,254.2,6.02,2020-09-15 05:40:00,19.62,2020-09-15 12:38:00,6.29,2020-09-15 05:40:00,19.33,2020-09-15 12:41:00
Jumla,Jacha,29.43111111,82.10744444,2020-09-15 00:00:00,Mostly cloudy throughout the day.,partly-cloudy-day,2020-09-15 06:03:00,2020-09-15 18:23:00,0.93,0.0373,0.1835,2020-09-15 17:35:00,0.35,rain,19.52,2020-09-15 12:47:00,6.66,2020-09-16 05:34:00,19.24,2020-09-15 12:47:00,6.66,2020-09-16 05:00:00,10.68,0.93,1009.0,1.23,3.43,1600160460,47,0.82,7,1600154580,16.093,255.6,6.17,2020-09-15 05:43:00,19.52,2020-09-15 12:47:00,6.44,2020-09-15 05:43:00,19.24,2020-09-15 12:47:00
Jumla,Jumla,29.26385556,82.22301111,2020-09-15 00:00:00,Mostly cloudy throughout the day.,rain,2020-09-15 06:02:00,2020-09-15 18:23:00,0.93,0.0675,0.3334,2020-09-15 17:16:00,0.4,rain,22.09,2020-09-15 12:48:00,7.34,2020-09-16 05:32:00,21.81,2020-09-15 12:47:00,7.61,2020-09-16 05:32:00,11.23,0.86,1008.7,1.08,2.85,1600159560,19,0.8,7,1600155120,15.904,254.9,7.01,2020-09-15 05:40:00,22.09,2020-09-15 12:48:00,7.28,2020-09-15 05:40:00,21.81,2020-09-15 12:47:00
Jumla,Tatopani,29.316667,82.283333,2020-09-15 00:00:00,Mostly cloudy throughout the day.,rain,2020-09-15 06:02:00,2020-09-15 18:23:00,0.93,0.0629,0.3081,2020-09-15 17:23:00,0.41,rain,18.3,2020-09-15 12:53:00,4.88,2020-09-16 05:33:00,18.02,2020-09-15 12:52:00,4.24,2020-09-16 05:29:00,10.21,0.95,1008.8,1.15,2.97,1600159080,43,0.82,7,1600154160,15.893,254.4,4.41,2020-09-15 05:43:00,18.3,2020-09-15 12:53:00,4.68,2020-09-15 05:43:00,18.02,2020-09-15 12:52:00
Kabhre,Budal (Banepa),27.61611667,85.56550278,2020-09-15 00:00:00,Rain until afternoon.,rain,2020-09-15 05:50:00,2020-09-15 18:09:00,0.93,0.5546,1.1234,2020-09-15 14:33:00,0.8,rain,24.86,2020-09-15 13:32:00,17.49,2020-09-16 05:43:00,25.64,2020-09-15 13:37:00,18.18,2020-09-16 05:43:00,20.71,1.0,1007.2,0.68,1.91,1600158840,189,0.8,8,1600150200,15.508,255.6,17.5,2020-09-15 05:41:00,24.86,2020-09-15 13:32:00,18.45,2020-09-15 05:41:00,25.64,2020-09-15 13:37:00
Kabhre,Dhulikhel,27.63882194,85.70498083,2020-09-15 00:00:00,Rain until afternoon.,rain,2020-09-15 05:49:00,2020-09-15 18:08:00,0.93,0.5044,1.0144,2020-09-15 14:43:00,0.8,rain,28.75,2020-09-15 14:41:00,19.84,2020-09-16 05:38:00,33.78,2020-09-15 15:43:00,20.58,2020-09-16 05:39:00,22.3,0.92,1007.3,0.71,1.71,1600155120,202,0.74,8,1600151220,13.922,255.7,19.52,2020-09-15 05:43:00,28.75,2020-09-15 14:41:00,20.4,2020-09-15 05:42:00,33.78,2020-09-15 15:43:00
Kabhre,Dolal Ghat,27.69382389,85.635637,2020-09-15 00:00:00,Rain until afternoon.,rain,2020-09-15 05:49:00,2020-09-15 18:09:00,0.93,0.5274,1.0189,2020-09-15 14:44:00,0.8,rain,27.5,2020-09-15 14:19:00,18.03,2020-09-16 05:42:00,30.36,2020-09-15 14:35:00,18.56,2020-09-16 05:43:00,21.23,0.93,1007.4,0.64,1.65,1600158480,196,0.76,8,1600151520,14.564,255.9,18.24,2020-09-15 05:44:00,27.5,2020-09-15 14:19:00,19.04,2020-09-15 05:44:00,30.36,2020-09-15 14:35:00
Kabhre,Panchkhal,27.63333333,85.51666667,2020-09-15 00:00:00,Rain until afternoon.,rain,2020-09-15 05:50:00,2020-09-15 18:09:00,0.93,0.5705,1.1479,2020-09-15 14:29:00,0.8,rain,24.97,2020-09-15 13:26:00,17.36,2020-09-16 05:42:00,25.73,2020-09-15 13:31:00,18.0,2020-09-16 05:43:00,20.79,0.99,1007.2,0.65,1.94,1600159320,183,0.81,8,1600150080,15.669,255.6,17.56,2020-09-15 05:41:00,24.97,2020-09-15 13:26:00,18.49,2020-09-15 05:40:00,25.73,2020-09-15 13:31:00
Kailali,Dhangadhi,28.68333333,80.6,2020-09-15 00:00:00,Humid and overcast throughout the day.,rain,2020-09-15 06:09:00,2020-09-15 18:29:00,0.93,0.18,0.489,2020-09-15 09:47:00,0.46,rain,30.94,2020-09-15 14:45:00,24.29,2020-09-16 05:21:00,39.31,2020-09-15 15:08:00,25.57,2020-09-16 05:20:00,25.6,0.88,1005.2,1.4,2.64,1600190520,68,0.72,6,1600150740,16.093,264.7,25.24,2020-09-15 05:13:00,30.94,2020-09-15 14:45:00,26.33,2020-09-15 05:17:00,39.31,2020-09-15 15:08:00
Kailali,Godavari(West),28.554054999999998,80.831765,2020-09-15 00:00:00,Humid and mostly cloudy throughout the day.,rain,2020-09-15 06:08:00,2020-09-15 18:28:00,0.93,0.1529,0.4754,2020-09-15 05:59:00,0.45,rain,30.9,2020-09-15 14:44:00,24.44,2020-09-16 05:28:00,38.8,2020-09-15 15:07:00,25.77,2020-09-16 05:28:00,25.73,0.89,1005.1,1.55,2.85,1600138380,78,0.71,6,1600149720,16.093,264.6,25.2,2020-09-15 05:10:00,30.9,2020-09-15 14:44:00,26.34,2020-09-15 05:16:00,38.8,2020-09-15 15:07:00
Kailali,Malakheti,28.83333333,80.56666667,2020-09-15 00:00:00,Humid and overcast throughout the day.,rain,2020-09-15 06:09:00,2020-09-15 18:29:00,0.93,0.1784,0.5091,2020-09-15 14:37:00,0.43,rain,31.3,2020-09-15 14:45:00,24.2,2020-09-16 05:11:00,41.39,2020-09-15 16:31:00,25.4,2020-09-16 05:08:00,25.9,0.88,1005.6,1.18,2.32,1600190520,67,0.74,6,1600151460,16.093,264.2,25.07,2020-09-15 05:12:00,31.3,2020-09-15 14:45:00,26.12,2020-09-15 05:17:00,41.39,2020-09-15 16:31:00
Kailali,Sitapur,28.66417611,80.97850889,2020-09-15 00:00:00,Humid and mostly cloudy throughout the day.,rain,2020-09-15 06:08:00,2020-09-15 18:28:00,0.93,0.119,0.3288,2020-09-15 11:47:00,0.47,rain,32.57,2020-09-15 14:50:00,25.01,2020-09-16 05:30:00,42.51,2020-09-15 16:25:00,26.24,2020-09-16 05:20:00,26.3,0.88,1005.6,1.25,2.15,1600113900,79,0.78,6,1600150500,16.093,264.3,25.65,2020-09-15 05:24:00,32.57,2020-09-15 14:50:00,27.96,2020-09-15 05:24:00,42.51,2020-09-15 16:25:00
Kailali,Teghari,28.87623,80.57918889,2020-09-15 00:00:00,Humid and mostly cloudy throughout the day.,rain,2020-09-15 06:09:00,2020-09-15 18:29:00,0.93,0.1638,0.551,2020-09-15 14:44:00,0.41,rain,30.92,2020-09-15 14:17:00,23.6,2020-09-16 05:11:00,40.75,2020-09-15 16:32:00,24.74,2020-09-16 05:08:00,25.67,0.9,1005.8,1.15,2.22,1600191240,70,0.75,6,1600151700,16.093,263.9,24.45,2020-09-15 05:17:00,30.92,2020-09-15 14:17:00,25.57,2020-09-15 05:21:00,40.75,2020-09-15 16:32:00
Kalikot,Mahendra Nagar,29.09644444,81.70052778,2020-09-15 00:00:00,Humid and overcast throughout the day.,rain,2020-09-15 06:05:00,2020-09-15 18:25:00,0.93,0.1174,0.3669,2020-09-15 20:45:00,0.45,rain,27.05,2020-09-15 12:57:00,16.08,2020-09-16 05:41:00,27.73,2020-09-15 13:19:00,16.35,2020-09-16 05:41:00,16.76,0.8,1007.7,1.3,2.69,1600156020,240,0.86,6,1600151460,15.05,258.5,15.55,2020-09-15 05:47:00,27.05,2020-09-15 12:57:00,15.82,2020-09-15 05:47:00,27.73,2020-09-15 13:19:00
Kalikot,Manma,29.2495,81.63913889,2020-09-15 00:00:00,Humid and mostly cloudy throughout the day.,rain,2020-09-15 06:05:00,2020-09-15 18:25:00,0.93,0.0827,0.3929,2020-09-15 20:48:00,0.39,rain,26.68,2020-09-15 13:19:00,14.65,2020-09-16 05:33:00,26.57,2020-09-15 13:27:00,14.92,2020-09-16 05:33:00,15.47,0.79,1008.0,1.22,3.08,1600158480,308,0.85,7,1600151280,15.378,257.9,13.74,2020-09-15 05:46:00,26.68,2020-09-15 13:19:00,14.01,2020-09-15 05:46:00,26.57,2020-09-15 13:27:00
Kalikot,Nagma,29.12995833,81.58836111,2020-09-15 00:00:00,Humid and overcast throughout the day.,rain,2020-09-15 06:05:00,2020-09-15 18:25:00,0.93,0.1493,0.484,2020-09-15 20:46:00,0.48,rain,28.49,2020-09-15 13:08:00,18.08,2020-09-16 05:37:00,29.35,2020-09-15 13:40:00,18.35,2020-09-16 05:37:00,17.41,0.76,1007.7,1.23,2.54,1600154760,235,0.85,6,1600151220,16.093,259.1,17.7,2020-09-15 05:45:00,28.49,2020-09-15 13:08:00,17.97,2020-09-15 05:45:00,29.35,2020-09-15 13:40:00
Kanchanpur,Dodhara,28.86185889,80.44044194,2020-09-15 00:00:00,Humid and mostly cloudy throughout the day.,rain,2020-09-15 06:10:00,2020-09-15 18:30:00,0.93,0.1834,0.5668,2020-09-15 09:39:00,0.42,rain,31.32,2020-09-15 14:47:00,24.21,2020-09-16 05:14:00,40.98,2020-09-15 16:23:00,25.41,2020-09-16 05:12:00,25.76,0.88,1005.6,1.19,2.33,1600189560,66,0.73,6,1600151700,16.093,264.5,25.02,2020-09-15 05:11:00,31.32,2020-09-15 14:47:00,26.06,2020-09-15 05:17:00,40.98,2020-09-15 16:23:00
Kanchanpur,Hanmannagar,28.698575,80.37540389,2020-09-15 00:00:00,Humid and overcast throughout the day.,rain,2020-09-15 06:10:00,2020-09-15 18:30:00,0.93,0.1726,0.6429,2020-09-15 09:06:00,0.44,rain,29.97,2020-09-15 14:42:00,24.12,2020-09-16 05:17:00,36.76,2020-09-15 14:48:00,25.43,2020-09-16 05:16:00,25.34,0.89,1005.1,1.41,2.79,1600138680,64,0.71,6,1600150560,16.093,265.0,25.01,2020-09-15 04:57:00,29.97,2020-09-15 14:42:00,26.21,2020-09-15 05:12:00,36.76,2020-09-15 14:48:00
Kanchanpur,Taulihawa,28.89702,80.36996389,2020-09-15 00:00:00,Humid and mostly cloudy throughout the day.,rain,2020-09-15 06:10:00,2020-09-15 18:30:00,0.93,0.1995,0.6525,2020-09-15 11:38:00,0.43,rain,31.58,2020-09-15 14:54:00,24.27,2020-09-16 05:15:00,41.54,2020-09-15 16:30:00,25.48,2020-09-16 05:13:00,25.77,0.87,1005.6,1.17,2.31,1600189200,65,0.73,6,1600152480,16.093,264.7,25.11,2020-09-15 05:13:00,31.58,2020-09-15 14:54:00,26.12,2020-09-15 05:17:00,41.54,2020-09-15 16:30:00
Kapilbastu,Banganga,27.669936100000005,82.7911917,2020-09-15 00:00:00,Humid and mostly cloudy throughout the day.,rain,2020-09-15 06:01:00,2020-09-15 18:20:00,0.93,0.226,0.6152,2020-09-15 17:29:00,0.66,rain,33.17,2020-09-15 12:36:00,24.22,2020-09-16 05:25:00,40.96,2020-09-15 12:51:00,25.4,2020-09-16 05:30:00,24.98,0.82,1004.9,1.9,5.91,1600118640,96,0.88,7,1600151100,16.093,260.3,24.71,2020-09-15 04:55:00,33.17,2020-09-15 12:36:00,25.93,2020-09-15 05:16:00,40.96,2020-09-15 12:51:00
Kapilvastu,Bahadur Ganj,27.693294399999996,83.1612556,2020-09-15 00:00:00,Humid and mostly cloudy throughout the day.,rain,2020-09-15 05:59:00,2020-09-15 18:19:00,0.93,0.2432,0.5572,2020-09-15 00:00:00,0.75,rain,33.99,2020-09-15 12:23:00,24.91,2020-09-16 05:15:00,40.3,2020-09-15 16:45:00,25.93,2020-09-16 05:21:00,24.63,0.78,1005.3,1.73,3.67,1600135260,95,0.87,7,1600151400,16.093,259.9,25.02,2020-09-15 05:26:00,33.99,2020-09-15 12:23:00,25.97,2020-09-15 05:27:00,40.3,2020-09-15 16:45:00
Kapilvastu,Sallyan (Kaski),27.55,83.85,2020-09-15 00:00:00,Possible light rain in the morning.,rain,2020-09-15 05:56:00,2020-09-15 18:16:00,0.93,0.2453,0.87,2020-09-15 02:55:00,0.79,rain,31.1,2020-09-15 12:18:00,23.13,2020-09-16 05:11:00,33.24,2020-09-15 12:51:00,24.03,2020-09-16 05:21:00,22.28,0.8,1005.5,1.66,3.33,1600139880,99,0.82,7,1600152000,15.975,259.4,23.09,2020-09-15 04:41:00,31.1,2020-09-15 12:18:00,24.12,2020-09-15 05:08:00,33.24,2020-09-15 12:51:00
Kaski,Begnas,28.212011100000005,83.8915417,2020-09-15 00:00:00,Mostly cloudy throughout the day.,rain,2020-09-15 05:56:00,2020-09-15 18:16:00,0.93,0.3249,0.6111,2020-09-15 01:59:00,0.65,rain,23.32,2020-09-15 14:06:00,16.18,2020-09-16 05:51:00,23.42,2020-09-15 14:08:00,16.45,2020-09-16 05:51:00,17.3,0.88,1008.0,1.45,2.11,1600193700,39,0.76,8,1600149240,14.267,258.5,16.2,2020-09-15 05:52:00,23.32,2020-09-15 14:06:00,16.71,2020-09-15 05:55:00,23.42,2020-09-15 14:08:00
Kaski,Begnas Tal,28.35805556,84.105175,2020-09-15 00:00:00,Mostly cloudy throughout the day.,rain,2020-09-15 05:55:00,2020-09-15 18:15:00,0.93,0.2666,0.5113,2020-09-15 01:51:00,0.67,rain,16.28,2020-09-15 13:54:00,10.74,2020-09-16 05:45:00,16.89,2020-09-15 13:57:00,11.01,2020-09-16 05:45:00,13.38,1.0,1008.6,1.79,2.32,1600158600,3,0.84,8,1600149360,12.593,255.0,10.02,2020-09-15 05:54:00,16.28,2020-09-15 13:54:00,10.54,2020-09-15 05:53:00,16.89,2020-09-15 13:57:00
Kaski,Bhadaure Deurali,28.21849444,83.9742,2020-09-15 00:00:00,Mostly cloudy throughout the day.,rain,2020-09-15 05:56:00,2020-09-15 18:15:00,0.93,0.3815,0.8095,2020-09-15 02:05:00,0.69,rain,23.01,2020-09-15 14:40:00,15.63,2020-09-16 05:42:00,22.94,2020-09-15 14:42:00,15.9,2020-09-16 05:42:00,16.32,0.8,1008.1,1.78,2.33,1600193700,35,0.74,8,1600149180,13.686,258.7,16.13,2020-09-15 06:00:00,23.01,2020-09-15 14:40:00,16.43,2020-09-15 06:01:00,22.94,2020-09-15 14:42:00
Kaski,Ghandruk,28.26168056,83.96873333,2020-09-15 00:00:00,Mostly cloudy throughout the day.,rain,2020-09-15 05:56:00,2020-09-15 18:16:00,0.93,0.3865,0.8683,2020-09-15 02:03:00,0.7,rain,21.74,2020-09-15 14:43:00,14.57,2020-09-16 05:42:00,21.66,2020-09-15 14:45:00,14.84,2020-09-16 05:42:00,15.89,0.85,1008.2,1.88,2.37,1600193700,34,0.75,9,1600149000,13.367,258.2,14.89,2020-09-15 06:00:00,21.74,2020-09-15 14:43:00,15.16,2020-09-15 06:00:00,21.66,2020-09-15 14:45:00
Kaski,Lamachaur,28.29653889,83.81791111,2020-09-15 00:00:00,Mostly cloudy throughout the day.,rain,2020-09-15 05:56:00,2020-09-15 18:16:00,0.93,0.2544,0.5141,2020-09-15 14:40:00,0.6,rain,21.54,2020-09-15 13:46:00,14.59,2020-09-16 06:04:00,21.89,2020-09-15 13:48:00,14.86,2020-09-16 06:06:00,17.35,0.99,1008.1,1.23,1.88,1600193700,42,0.81,9,1600149240,14.416,257.1,13.97,2020-09-15 05:48:00,21.54,2020-09-15 13:46:00,14.61,2020-09-15 05:49:00,21.89,2020-09-15 13:48:00
Kaski,Lumle,28.26555556,83.82211944,2020-09-15 00:00:00,Mostly cloudy throughout the day.,rain,2020-09-15 05:56:00,2020-09-15 18:16:00,0.93,0.2813,0.5631,2020-09-15 14:41:00,0.62,rain,22.73,2020-09-15 13:52:00,15.58,2020-09-16 05:57:00,22.97,2020-09-15 13:53:00,15.85,2020-09-16 05:57:00,17.79,0.96,1008.0,1.25,1.99,1600193700,44,0.78,9,1600149180,14.404,257.9,15.14,2020-09-15 05:48:00,22.73,2020-09-15 13:52:00,15.72,2020-09-15 05:49:00,22.97,2020-09-15 13:53:00
Kaski,Pokhara Airport,28.23333333,84.0,2020-09-15 00:00:00,Mostly cloudy throughout the day.,rain,2020-09-15 05:56:00,2020-09-15 18:15:00,0.93,0.4095,0.9175,2020-09-15 02:05:00,0.72,rain,21.85,2020-09-15 14:48:00,15.1,2020-09-16 05:40:00,21.75,2020-09-15 14:50:00,15.37,2020-09-16 05:40:00,15.91,0.82,1008.2,1.95,2.45,1600193700,34,0.73,8,1600149060,13.404,258.7,15.59,2020-09-15 06:04:00,21.85,2020-09-15 14:48:00,15.86,2020-09-15 06:04:00,21.75,2020-09-15 14:50:00
Kaski,Pokhara Airport,28.22,84.0,2020-09-15 00:00:00,Mostly cloudy throughout the day.,rain,2020-09-15 05:56:00,2020-09-15 18:15:00,0.93,0.3993,0.8721,2020-09-15 02:06:00,0.71,rain,22.43,2020-09-15 14:45:00,15.38,2020-09-16 05:40:00,22.33,2020-09-15 14:47:00,15.65,2020-09-16 05:40:00,16.03,0.81,1008.1,1.89,2.39,1600193700,34,0.73,8,1600149120,13.509,258.7,15.94,2020-09-15 06:03:00,22.43,2020-09-15 14:45:00,16.21,2020-09-15 06:03:00,22.33,2020-09-15 14:47:00
Kathmandu,Budhanilakan,27.78333333,85.31666667,2020-09-15 00:00:00,Rain overnight and in the morning.,rain,2020-09-15 05:51:00,2020-09-15 18:10:00,0.93,0.4738,0.9558,2020-09-15 13:45:00,0.76,rain,25.97,2020-09-15 13:46:00,17.06,2020-09-16 05:41:00,26.54,2020-09-15 13:47:00,17.46,2020-09-16 05:42:00,20.7,0.97,1007.4,0.72,1.93,1600159680,141,0.81,8,1600150680,14.982,256.1,17.77,2020-09-15 05:42:00,25.97,2020-09-15 13:46:00,18.55,2020-09-15 05:41:00,26.54,2020-09-15 13:47:00
Kathmandu,Kathmandu Airport,27.703825,85.35624722,2020-09-15 00:00:00,Rain until afternoon.,rain,2020-09-15 05:50:00,2020-09-15 18:10:00,0.93,0.5345,1.0569,2020-09-15 14:05:00,0.78,rain,26.47,2020-09-15 15:36:00,16.89,2020-09-16 05:44:00,28.45,2020-09-15 15:39:00,17.45,2020-09-16 05:45:00,21.34,0.91,1007.3,0.91,1.9,1600159740,206,0.77,7,1600150440,11.634,256.1,19.5,2020-09-15 05:44:00,26.47,2020-09-15 15:36:00,20.42,2020-09-15 05:45:00,28.45,2020-09-15 15:39:00
Kathmandu,Naikap,27.7726953,85.4277003,2020-09-15 00:00:00,Rain until afternoon.,rain,2020-09-15 05:50:00,2020-09-15 18:10:00,0.93,0.5117,1.0118,2020-09-15 14:24:00,0.78,rain,24.15,2020-09-15 13:44:00,15.66,2020-09-16 05:42:00,24.58,2020-09-15 13:46:00,16.07,2020-09-16 05:43:00,18.73,0.98,1007.4,0.65,1.79,1600159980,146,0.8,8,1600151160,14.833,256.0,16.05,2020-09-15 05:41:00,24.15,2020-09-15 13:44:00,16.75,2020-09-15 01:04:00,24.58,2020-09-15 13:46:00
Kathmandu,Pharping,27.76666667,85.31666667,2020-09-15 00:00:00,Rain overnight and in the morning.,rain,2020-09-15 05:51:00,2020-09-15 18:10:00,0.93,0.4949,1.0004,2020-09-15 13:47:00,0.77,rain,26.23,2020-09-15 13:46:00,17.2,2020-09-16 05:41:00,27.74,2020-09-15 13:46:00,17.64,2020-09-16 05:42:00,20.86,0.96,1007.3,0.7,1.94,1600159860,134,0.81,8,1600150740,14.967,256.2,17.99,2020-09-15 05:40:00,26.23,2020-09-15 13:46:00,18.78,2020-09-15 05:40:00,27.74,2020-09-15 13:46:00
Kathmandu,Sankhu,27.73333333,85.33333333,2020-09-15 00:00:00,Rain until afternoon.,rain,2020-09-15 05:50:00,2020-09-15 18:10:00,0.93,0.5233,1.0481,2020-09-15 13:57:00,0.78,rain,26.1,2020-09-15 13:44:00,17.19,2020-09-16 05:40:00,27.47,2020-09-15 13:45:00,17.68,2020-09-16 05:41:00,20.97,0.96,1007.3,0.71,1.92,1600159920,163,0.8,8,1600150680,15.0,256.2,18.19,2020-09-15 05:40:00,26.1,2020-09-15 13:44:00,19.02,2020-09-15 05:39:00,27.47,2020-09-15 13:45:00
Kathmandu,Sankhu,27.73333333,85.33333333,2020-09-15 00:00:00,Rain until afternoon.,rain,2020-09-15 05:50:00,2020-09-15 18:10:00,0.93,0.5233,1.0481,2020-09-15 13:57:00,0.78,rain,26.1,2020-09-15 13:44:00,17.19,2020-09-16 05:40:00,27.47,2020-09-15 13:45:00,17.68,2020-09-16 05:41:00,20.97,0.96,1007.3,0.71,1.92,1600159920,163,0.8,8,1600150680,15.0,256.2,18.19,2020-09-15 05:40:00,26.1,2020-09-15 13:44:00,19.02,2020-09-15 05:39:00,27.47,2020-09-15 13:45:00
Kathmandu,Sivapuri,27.75,85.43333333,2020-09-15 00:00:00,Rain until afternoon.,rain,2020-09-15 05:50:00,2020-09-15 18:10:00,0.93,0.5446,1.0868,2020-09-15 14:28:00,0.79,rain,26.01,2020-09-15 13:49:00,16.7,2020-09-16 05:41:00,26.49,2020-09-15 13:50:00,17.1,2020-09-16 05:43:00,19.93,0.94,1007.4,0.61,1.8,1600160280,143,0.79,8,1600151280,14.931,256.2,17.41,2020-09-15 05:39:00,26.01,2020-09-15 13:49:00,18.1,2020-09-15 05:39:00,26.49,2020-09-15 13:50:00
Kathmandu,Sundarijal,27.8,85.43333333,2020-09-15 00:00:00,Possible light rain overnight and in the morning.,rain,2020-09-15 05:50:00,2020-09-15 18:10:00,0.93,0.475,0.9263,2020-09-15 14:22:00,0.77,rain,21.91,2020-09-15 13:48:00,13.44,2020-09-16 05:45:00,22.41,2020-09-15 13:51:00,13.81,2020-09-16 05:45:00,17.07,1.0,1007.5,0.68,1.76,1600159500,152,0.81,8,1600151100,14.582,255.7,13.77,2020-09-15 05:45:00,21.91,2020-09-15 13:48:00,14.65,2020-09-15 05:44:00,22.41,2020-09-15 13:51:00
Kathmandu,Tarebhir,27.78419167,85.29049444,2020-09-15 00:00:00,Rain overnight and in the morning.,rain,2020-09-15 05:51:00,2020-09-15 18:10:00,0.93,0.4673,0.9543,2020-09-15 13:24:00,0.76,rain,25.23,2020-09-15 13:44:00,16.8,2020-09-16 05:41:00,25.83,2020-09-15 13:45:00,17.26,2020-09-16 05:41:00,20.18,0.98,1007.3,0.73,1.96,1600159680,136,0.82,8,1600150620,15.035,256.1,17.38,2020-09-15 05:41:00,25.23,2020-09-15 13:44:00,18.21,2020-09-15 05:41:00,25.83,2020-09-15 13:45:00
Kathmandu,Tokha,27.7972222,85.3577778,2020-09-15 00:00:00,Possible light rain overnight and in the morning.,rain,2020-09-15 05:50:00,2020-09-15 18:10:00,0.93,0.4643,0.9211,2020-09-15 13:58:00,0.76,rain,22.52,2020-09-15 13:42:00,14.3,2020-09-16 05:43:00,23.06,2020-09-15 13:45:00,14.72,2020-09-16 05:43:00,17.75,1.0,1007.4,0.71,1.86,1600159560,150,0.81,8,1600150800,14.858,255.9,14.62,2020-09-15 05:44:00,22.52,2020-09-15 13:42:00,15.52,2020-09-15 05:43:00,23.06,2020-09-15 13:45:00
Khotang,Diktel,27.02930083,86.84337278,2020-09-15 00:00:00,Rain until afternoon.,rain,2020-09-15 05:45:00,2020-09-15 18:04:00,0.93,0.6354,1.4621,2020-09-15 09:44:00,0.86,rain,25.91,2020-09-15 14:50:00,20.23,2020-09-16 05:43:00,27.21,2020-09-15 14:44:00,21.27,2020-09-16 05:43:00,22.35,1.0,1007.0,0.63,1.58,1600193700,97,0.91,7,1600151280,13.626,252.7,20.39,2020-09-15 05:44:00,25.91,2020-09-15 14:50:00,21.69,2020-09-15 05:43:00,27.21,2020-09-15 14:44:00
Khotang,Dwarpa,27.359795000000002,86.7486619,2020-09-15 00:00:00,Rain starting in the morning.,rain,2020-09-15 05:45:00,2020-09-15 18:04:00,0.93,0.4545,0.9582,2020-09-15 15:28:00,0.79,rain,20.84,2020-09-15 13:16:00,14.3,2020-09-16 00:44:00,21.56,2020-09-15 13:27:00,14.95,2020-09-16 05:43:00,16.62,1.0,1007.5,0.69,1.88,1600160280,38,0.89,7,1600154580,13.42,252.1,14.23,2020-09-15 05:47:00,20.84,2020-09-15 13:16:00,15.22,2020-09-15 05:46:00,21.56,2020-09-15 13:27:00
Khotang,Khotang Bazar,27.1408985,86.4317585,2020-09-15 00:00:00,Rain and humid throughout the day.,rain,2020-09-15 05:46:00,2020-09-15 18:05:00,0.93,0.7812,1.3527,2020-09-15 14:28:00,0.89,rain,29.17,2020-09-15 13:20:00,22.65,2020-09-16 05:42:00,37.54,2020-09-15 15:43:00,23.79,2020-09-16 05:42:00,25.27,0.98,1006.8,0.77,1.98,1600160340,147,0.84,7,1600152600,14.872,253.9,22.98,2020-09-15 05:40:00,29.17,2020-09-15 13:20:00,24.36,2020-09-15 05:39:00,37.54,2020-09-15 15:43:00
Khotang,Kurle Ghat,27.21666667,86.85,2020-09-15 00:00:00,Rain starting in the morning.,rain,2020-09-15 05:45:00,2020-09-15 18:04:00,0.93,0.5294,1.2835,2020-09-15 09:33:00,0.82,rain,21.9,2020-09-15 13:59:00,16.02,2020-09-16 05:42:00,22.78,2020-09-15 14:00:00,16.94,2020-09-16 05:42:00,18.04,1.0,1007.4,0.56,1.4,1600160220,163,0.89,7,1600154040,13.42,252.4,15.82,2020-09-15 05:45:00,21.9,2020-09-15 13:59:00,17.07,2020-09-15 05:43:00,22.78,2020-09-15 14:00:00
Lalitpur,Chapa Gaun,27.566666700000003,85.3166667,2020-09-15 00:00:00,Rain until afternoon.,rain,2020-09-15 05:51:00,2020-09-15 18:10:00,0.93,0.5541,1.0278,2020-09-15 14:02:00,0.79,rain,23.86,2020-09-15 12:02:00,17.51,2020-09-16 05:43:00,24.85,2020-09-15 12:11:00,18.38,2020-09-16 05:43:00,20.35,1.0,1007.0,0.74,1.86,1600158600,188,0.85,8,1600149240,15.646,255.6,17.77,2020-09-15 05:39:00,23.86,2020-09-15 12:02:00,18.94,2020-09-15 05:38:00,24.85,2020-09-15 12:11:00
Lalitpur,Godavari,27.68333333,85.3,2020-09-15 00:00:00,Rain until afternoon.,rain,2020-09-15 05:51:00,2020-09-15 18:10:00,0.93,0.5261,1.0311,2020-09-15 13:49:00,0.78,rain,25.86,2020-09-15 13:24:00,17.71,2020-09-16 05:40:00,26.58,2020-09-15 13:27:00,18.31,2020-09-16 05:40:00,21.66,0.99,1007.2,0.73,1.92,1600159500,173,0.82,8,1600150080,15.622,256.0,18.6,2020-09-15 05:39:00,25.86,2020-09-15 13:24:00,19.54,2020-09-15 05:38:00,26.58,2020-09-15 13:27:00
Lalitpur,Khokana,27.65,85.38333333,2020-09-15 00:00:00,Rain until afternoon.,rain,2020-09-15 05:50:00,2020-09-15 18:10:00,0.93,0.5503,1.0758,2020-09-15 14:11:00,0.79,rain,25.58,2020-09-15 13:16:00,17.69,2020-09-16 05:41:00,26.32,2020-09-15 13:20:00,18.33,2020-09-16 05:42:00,21.59,0.99,1007.2,0.71,1.91,1600159440,183,0.82,8,1600149960,15.752,255.8,18.45,2020-09-15 05:40:00,25.58,2020-09-15 13:16:00,19.4,2020-09-15 05:39:00,26.32,2020-09-15 13:20:00
Lalitpur,Khumaltar,27.5929167,85.3788333,2020-09-15 00:00:00,Rain until afternoon.,rain,2020-09-15 05:50:00,2020-09-15 18:10:00,0.93,0.5598,1.0785,2020-09-15 14:08:00,0.79,rain,23.88,2020-09-15 12:22:00,17.26,2020-09-16 05:43:00,24.79,2020-09-15 12:47:00,18.07,2020-09-16 05:43:00,20.27,1.0,1007.1,0.72,1.93,1600158960,187,0.84,8,1600149480,16.029,255.6,17.53,2020-09-15 05:40:00,23.88,2020-09-15 12:22:00,18.64,2020-09-15 05:39:00,24.79,2020-09-15 12:47:00
Lalitpur,Kritipur (Bagban),27.68333333,85.33333333,2020-09-15 00:00:00,Rain until afternoon.,rain,2020-09-15 05:50:00,2020-09-15 18:10:00,0.93,0.5334,1.0462,2020-09-15 13:59:00,0.78,rain,26.02,2020-09-15 13:31:00,17.5,2020-09-16 05:41:00,26.65,2020-09-15 13:38:00,18.1,2020-09-16 05:41:00,21.77,0.97,1007.2,0.78,1.91,1600159560,193,0.8,8,1600150140,15.208,256.0,18.87,2020-09-15 05:41:00,26.02,2020-09-15 13:31:00,19.8,2020-09-15 05:41:00,26.65,2020-09-15 13:38:00
Lalitpur,Lalitpur (Kopundol),27.659325,85.3697083,2020-09-15 00:00:00,Rain until afternoon.,rain,2020-09-15 05:50:00,2020-09-15 18:10:00,0.93,0.5458,1.0665,2020-09-15 14:08:00,0.79,rain,25.77,2020-09-15 13:20:00,17.66,2020-09-16 05:41:00,26.46,2020-09-15 13:26:00,18.28,2020-09-16 05:42:00,21.72,0.98,1007.2,0.73,1.9,1600159500,187,0.81,8,1600150020,15.618,255.9,18.63,2020-09-15 05:40:00,25.77,2020-09-15 13:20:00,19.57,2020-09-15 05:40:00,26.46,2020-09-15 13:26:00
Lalitpur,Lubhu,27.60325833,85.32656389,2020-09-15 00:00:00,Rain until afternoon.,rain,2020-09-15 05:51:00,2020-09-15 18:10:00,0.93,0.5483,1.0383,2020-09-15 14:01:00,0.79,rain,24.37,2020-09-15 12:29:00,17.66,2020-09-16 05:41:00,25.28,2020-09-15 12:50:00,18.44,2020-09-16 05:42:00,20.89,1.0,1007.0,0.73,1.88,1600158960,184,0.84,8,1600149540,15.893,255.7,18.07,2020-09-15 05:39:00,24.37,2020-09-15 12:29:00,19.16,2020-09-15 05:38:00,25.28,2020-09-15 12:50:00
Lalitpur,Tikathali,27.576825,85.3540444,2020-09-15 00:00:00,Rain until afternoon.,rain,2020-09-15 05:50:00,2020-09-15 18:10:00,0.93,0.5584,1.0595,2020-09-15 14:05:00,0.79,rain,23.48,2020-09-15 12:05:00,16.97,2020-09-16 05:43:00,24.45,2020-09-15 12:14:00,17.84,2020-09-16 05:43:00,19.82,1.0,1007.0,0.73,1.91,1600158780,188,0.84,8,1600149360,15.877,255.6,17.24,2020-09-15 05:40:00,23.48,2020-09-15 12:05:00,18.4,2020-09-15 05:39:00,24.45,2020-09-15 12:14:00
Lamiung,Khudi Bazar,28.12677778,84.34494167,2020-09-15 00:00:00,Mostly cloudy throughout the day.,rain,2020-09-15 05:54:00,2020-09-15 18:14:00,0.93,0.3257,0.6687,2020-09-15 02:49:00,0.71,rain,27.83,2020-09-15 13:53:00,18.8,2020-09-16 05:46:00,29.18,2020-09-15 14:02:00,19.07,2020-09-16 05:46:00,18.03,0.74,1007.8,1.16,1.54,1600159380,337,0.76,7,1600150740,15.537,258.6,18.72,2020-09-15 05:51:00,27.83,2020-09-15 13:53:00,19.13,2020-09-15 05:51:00,29.18,2020-09-15 14:02:00
Lamjung,Besishahar,28.25596667,84.47929722,2020-09-14 21:45:00,Foggy in the afternoon.,rain,2020-09-15 05:54:00,2020-09-15 18:14:00,0.93,0.2375,0.4344,2020-09-15 13:02:00,0.7,rain,23.85,2020-09-15 14:46:00,16.56,2020-09-16 05:44:00,24.03,2020-09-15 14:46:00,16.83,2020-09-16 05:44:00,17.26,0.9,1008.2,1.39,1.97,1600117560,1,0.78,7,1600149900,11.484,256.8,15.27,2020-09-15 05:49:00,23.85,2020-09-15 14:46:00,15.64,2020-09-15 05:48:00,24.03,2020-09-15 14:46:00
Lamjung,Bhorletar,28.21813889,84.24153889,2020-09-15 00:00:00,Mostly cloudy throughout the day.,rain,2020-09-15 05:55:00,2020-09-15 18:14:00,0.93,0.3277,0.4946,2020-09-15 14:18:00,0.73,rain,23.75,2020-09-15 13:43:00,16.51,2020-09-16 05:59:00,23.83,2020-09-15 13:45:00,16.78,2020-09-16 05:59:00,16.29,0.83,1008.2,1.59,2.05,1600193700,348,0.77,7,1600149900,14.832,258.3,15.53,2020-09-15 05:54:00,23.75,2020-09-15 13:43:00,15.87,2020-09-15 05:53:00,23.83,2020-09-15 13:45:00
Lamjung,Faleni,28.30964722,84.26600278,2020-09-15 00:00:00,Mostly cloudy throughout the day.,rain,2020-09-15 05:55:00,2020-09-15 18:14:00,0.93,0.2664,0.4431,2020-09-15 13:05:00,0.7,rain,21.09,2020-09-15 13:44:00,14.66,2020-09-16 05:55:00,21.34,2020-09-15 13:46:00,14.93,2020-09-16 05:55:00,16.27,0.95,1008.5,1.63,2.0,1600193700,346,0.82,7,1600149660,13.576,256.3,13.36,2020-09-15 05:51:00,21.09,2020-09-15 13:44:00,13.8,2020-09-15 05:50:00,21.34,2020-09-15 13:46:00
Lamjung,Gausala,28.07621667,84.47669444,2020-09-15 00:00:00,Mostly cloudy throughout the day.,rain,2020-09-15 05:54:00,2020-09-15 18:13:00,0.93,0.3381,0.9761,2020-09-15 02:51:00,0.73,rain,29.93,2020-09-15 13:49:00,20.57,2020-09-16 05:47:00,31.86,2020-09-15 13:56:00,20.85,2020-09-16 05:50:00,18.98,0.7,1007.5,0.94,1.57,1600108200,322,0.74,8,1600150380,15.431,258.7,20.42,2020-09-15 05:45:00,29.93,2020-09-15 13:49:00,20.94,2020-09-15 05:47:00,31.86,2020-09-15 13:56:00
Lamjung,Gharedhunga,28.282208299999997,84.3454164,2020-09-15 00:00:00,Mostly cloudy throughout the day.,rain,2020-09-15 05:54:00,2020-09-15 18:14:00,0.93,0.2625,0.4483,2020-09-15 13:08:00,0.7,rain,23.09,2020-09-15 14:03:00,16.39,2020-09-16 00:36:00,23.17,2020-09-15 14:04:00,16.66,2020-09-16 00:36:00,15.81,0.83,1008.3,1.56,2.08,1600193700,353,0.8,7,1600149720,13.143,256.5,15.28,2020-09-15 05:48:00,23.09,2020-09-15 14:03:00,15.56,2020-09-15 05:48:00,23.17,2020-09-15 14:04:00
Mahottari,Chisapani Gadhi,26.65224722,85.807275,2020-09-15 00:00:00,Rain and humid throughout the day.,rain,2020-09-15 05:49:00,2020-09-15 18:08:00,0.93,0.6847,1.9248,2020-09-15 09:41:00,0.97,rain,28.48,2020-09-15 15:08:00,24.08,2020-09-16 05:27:00,34.75,2020-09-15 15:41:00,25.56,2020-09-16 05:30:00,25.94,0.98,1005.1,2.51,6.52,1600136940,93,0.81,7,1600153560,16.093,255.3,24.49,2020-09-15 05:07:00,28.48,2020-09-15 15:08:00,25.92,2020-09-15 05:19:00,34.75,2020-09-15 15:41:00
Mahottari,Jalesore,26.88333333,85.78333333,2020-09-15 00:00:00,Rain until afternoon.,rain,2020-09-15 05:49:00,2020-09-15 18:08:00,0.93,1.0328,3.6507,2020-09-15 08:54:00,0.96,rain,29.2,2020-09-15 15:01:00,24.13,2020-09-16 05:27:00,36.43,2020-09-15 15:13:00,25.51,2020-09-16 05:29:00,25.92,0.97,1005.5,1.91,5.03,1600145220,105,0.74,8,1600153140,16.081,255.9,24.42,2020-09-15 05:05:00,29.2,2020-09-15 15:01:00,25.76,2020-09-15 05:18:00,36.43,2020-09-15 15:13:00
Makwanpur,Daman,27.5599456,85.1386067,2020-09-15 00:00:00,Rain until afternoon.,rain,2020-09-15 05:51:00,2020-09-15 18:11:00,0.93,0.5216,1.0521,2020-09-15 12:54:00,0.8,rain,22.49,2020-09-15 12:14:00,16.31,2020-09-16 05:45:00,23.58,2020-09-15 12:31:00,17.29,2020-09-16 05:45:00,19.3,1.0,1006.8,0.82,1.74,1600151400,167,0.82,8,1600148940,15.641,256.2,16.55,2020-09-15 05:43:00,22.49,2020-09-15 12:14:00,17.83,2020-09-15 05:43:00,23.58,2020-09-15 12:31:00
Makwanpur,Hetanuda(Ind. Dist),27.619,85.1496,2020-09-15 00:00:00,Rain overnight and in the morning.,rain,2020-09-15 05:51:00,2020-09-15 18:11:00,0.93,0.5081,1.0288,2020-09-15 12:59:00,0.79,rain,23.3,2020-09-15 12:24:00,17.05,2020-09-16 05:45:00,24.23,2020-09-15 12:39:00,17.92,2020-09-16 05:45:00,19.7,1.0,1006.9,0.79,1.78,1600154640,172,0.81,8,1600149360,15.73,256.3,17.08,2020-09-15 05:41:00,23.3,2020-09-15 12:24:00,18.24,2020-09-15 05:40:00,24.23,2020-09-15 12:39:00
Makwanpur,Makwanpur Gadhi,27.43333333,85.03333333,2020-09-15 00:00:00,Rain until afternoon.,rain,2020-09-15 05:52:00,2020-09-15 18:11:00,0.93,0.46,1.0365,2020-09-15 12:18:00,0.81,rain,29.25,2020-09-15 11:54:00,22.76,2020-09-16 05:37:00,37.62,2020-09-15 15:46:00,23.93,2020-09-16 05:34:00,25.87,0.98,1006.4,1.07,2.52,1600140600,121,0.79,8,1600149360,16.093,256.8,22.87,2020-09-15 05:37:00,29.25,2020-09-15 11:54:00,24.17,2020-09-15 05:35:00,37.62,2020-09-15 15:46:00
Makwanpur,Manang Bhot,27.635081899999996,84.7416103,2020-09-15 00:00:00,Possible light rain overnight.,rain,2020-09-15 05:53:00,2020-09-15 18:12:00,0.93,0.3404,0.9426,2020-09-15 00:00:00,0.8,rain,28.56,2020-09-15 12:03:00,21.52,2020-09-16 05:34:00,32.52,2020-09-15 12:15:00,22.52,2020-09-16 05:36:00,23.25,0.94,1006.6,0.88,2.3,1600154220,163,0.77,9,1600148820,15.896,258.0,21.32,2020-09-15 05:29:00,28.56,2020-09-15 12:03:00,22.46,2020-09-15 05:29:00,32.52,2020-09-15 12:15:00
Makwanpur,Markhu Gaun,27.4227,85.0279,2020-09-15 00:00:00,Rain until afternoon.,rain,2020-09-15 05:52:00,2020-09-15 18:11:00,0.93,0.4498,1.0117,2020-09-15 12:16:00,0.81,rain,29.34,2020-09-15 11:57:00,22.87,2020-09-16 05:37:00,37.86,2020-09-15 15:47:00,24.05,2020-09-16 05:33:00,25.89,0.98,1006.3,1.1,2.62,1600140540,119,0.79,8,1600149480,16.093,256.9,22.98,2020-09-15 05:37:00,29.34,2020-09-15 11:57:00,24.27,2020-09-15 05:35:00,37.86,2020-09-15 15:47:00
Manang,Goga,28.63989694,84.08811583,2020-09-15 00:00:00,Foggy in the morning and afternoon.,rain,2020-09-15 05:55:00,2020-09-15 18:15:00,0.93,0.0625,0.1434,2020-09-15 12:21:00,0.42,rain,8.47,2020-09-15 12:54:00,3.69,2020-09-16 05:27:00,7.15,2020-09-15 12:39:00,3.96,2020-09-16 05:27:00,5.58,1.0,1009.4,1.38,2.7,1600159440,359,0.97,7,1600150020,11.466,249.2,3.08,2020-09-15 05:44:00,8.47,2020-09-15 12:54:00,3.35,2020-09-15 05:44:00,7.15,2020-09-15 12:39:00
Manang,Humde,28.66627083,84.02257194,2020-09-15 00:00:00,Foggy in the morning and afternoon.,fog,2020-09-15 05:55:00,2020-09-15 18:15:00,0.93,0.0502,0.1153,2020-09-15 12:22:00,0.35,rain,8.28,2020-09-15 13:35:00,3.45,2020-09-16 05:31:00,6.86,2020-09-15 13:19:00,3.52,2020-09-15 20:28:00,5.32,1.0,1009.3,1.38,2.65,1600159740,106,0.97,7,1600150020,12.426,249.0,2.61,2020-09-15 05:45:00,8.28,2020-09-15 13:35:00,2.88,2020-09-15 05:46:00,6.86,2020-09-15 13:19:00
Manang,Naar,28.76666667,84.28333333,2020-09-15 00:00:00,Foggy throughout the day.,fog,2020-09-15 05:54:00,2020-09-15 18:14:00,0.93,0.0264,0.0781,2020-09-15 14:48:00,0.37,rain,5.94,2020-09-15 12:51:00,-1.69,2020-09-16 05:11:00,4.6,2020-09-15 12:41:00,-1.42,2020-09-16 05:11:00,1.95,1.0,1009.8,1.11,3.1,1600160220,308,0.96,7,1600150440,6.912,247.7,-0.68,2020-09-15 00:10:00,5.94,2020-09-15 12:51:00,-0.41,2020-09-15 00:10:00,4.6,2020-09-15 12:41:00
Manang,Phu Gaun,28.55,84.2333333,2020-09-15 00:00:00,Foggy in the morning and afternoon.,rain,2020-09-15 05:55:00,2020-09-15 18:15:00,0.93,0.096,0.2313,2020-09-15 12:25:00,0.57,rain,11.41,2020-09-15 11:48:00,5.92,2020-09-16 00:40:00,12.61,2020-09-15 12:19:00,5.69,2020-09-16 05:42:00,8.06,1.0,1009.3,1.4,2.5,1600158120,328,0.96,7,1600149900,9.631,250.2,5.93,2020-09-15 05:38:00,11.41,2020-09-15 11:48:00,6.62,2020-09-16 00:00:00,12.61,2020-09-15 12:19:00
Morang,Biratnagar,29.2160678,83.983333,2020-09-14 21:45:00,Mostly cloudy throughout the day.,partly-cloudy-day,2020-09-15 05:55:00,2020-09-15 18:16:00,0.93,0.0055,0.0189,2020-09-15 02:48:00,0.21,rain,17.44,2020-09-15 13:44:00,-0.05,2020-09-16 05:22:00,17.16,2020-09-15 13:44:00,-0.2,2020-09-16 02:31:00,4.84,0.87,1009.3,2.52,7.2,1600162380,189,0.82,9,1600150080,15.6,250.8,-0.01,2020-09-15 05:35:00,17.44,2020-09-15 13:44:00,-1.34,2020-09-15 05:32:00,17.16,2020-09-15 13:44:00
Morang,Biratnagar Airport,26.61000889,87.37074778,2020-09-15 00:00:00,Rain and humid throughout the day.,rain,2020-09-15 05:43:00,2020-09-15 18:01:00,0.93,0.8045,1.5715,2020-09-15 14:17:00,0.99,rain,29.24,2020-09-15 15:04:00,23.7,2020-09-16 05:39:00,37.93,2020-09-15 15:38:00,24.96,2020-09-16 05:38:00,26.32,0.97,1006.3,1.79,3.85,1600113180,96,0.85,7,1600152120,14.358,253.2,24.65,2020-09-15 05:27:00,29.24,2020-09-15 15:04:00,25.95,2020-09-15 05:26:00,37.93,2020-09-15 15:38:00
Morang,Gam Shree Nagar,26.73416667,87.50166667,2020-09-15 00:00:00,Rain and humid throughout the day.,rain,2020-09-15 05:42:00,2020-09-15 18:01:00,0.93,0.6841,1.5283,2020-09-15 00:12:00,0.96,rain,30.21,2020-09-15 15:15:00,23.89,2020-09-16 06:09:00,41.67,2020-09-15 15:42:00,25.14,2020-09-16 06:01:00,26.25,0.98,1006.7,1.28,2.54,1600112760,84,0.88,7,1600153980,12.8,252.7,24.13,2020-09-15 05:47:00,30.21,2020-09-15 15:15:00,25.6,2020-09-15 05:46:00,41.67,2020-09-15 15:42:00
Morang,Haraincha,28.46717,84.37307390000001,2020-09-15 00:00:00,Foggy in the morning and afternoon.,rain,2020-09-15 05:54:00,2020-09-15 18:14:00,0.93,0.1271,0.2809,2020-09-15 12:58:00,0.6,rain,13.72,2020-09-15 11:54:00,8.05,2020-09-16 00:44:00,14.13,2020-09-15 12:02:00,8.11,2020-09-16 01:41:00,10.21,1.0,1008.9,1.46,2.52,1600156620,357,0.94,6,1600149780,9.422,251.1,7.75,2020-09-15 05:49:00,13.72,2020-09-15 11:54:00,8.25,2020-09-15 05:46:00,14.13,2020-09-15 12:02:00
Morang,Letang,26.46666667,87.28333333,2020-09-15 00:00:00,Rain and humid throughout the day.,rain,2020-09-15 05:43:00,2020-09-15 18:02:00,0.93,1.0356,1.9037,2020-09-15 01:34:00,1.0,rain,27.56,2020-09-15 13:41:00,23.4,2020-09-16 05:31:00,33.11,2020-09-15 13:06:00,24.86,2020-09-16 05:33:00,25.66,0.99,1006.0,2.2,4.89,1600113240,103,0.85,8,1600150200,13.604,253.3,23.87,2020-09-15 04:40:00,27.56,2020-09-15 13:41:00,25.36,2020-09-15 04:40:00,33.11,2020-09-15 13:06:00
Morang,Mugu,26.483967,87.26700600000001,2020-09-15 00:00:00,Rain and humid throughout the day.,rain,2020-09-15 05:43:00,2020-09-15 18:02:00,0.93,1.001,1.8467,2020-09-15 01:34:00,1.0,rain,27.58,2020-09-15 13:47:00,23.41,2020-09-16 05:32:00,33.12,2020-09-15 13:07:00,24.87,2020-09-16 05:33:00,25.68,0.99,1006.0,2.2,4.96,1600113240,103,0.85,8,1600150200,13.342,253.3,23.9,2020-09-15 04:40:00,27.58,2020-09-15 13:47:00,25.4,2020-09-15 04:41:00,33.12,2020-09-15 13:07:00
Mugu,Jomsom,29.50867889,81.89267389,2020-09-15 00:00:00,Mostly cloudy throughout the day.,partly-cloudy-day,2020-09-15 06:04:00,2020-09-15 18:24:00,0.93,0.0265,0.0975,2020-09-15 17:14:00,0.32,rain,23.59,2020-09-15 12:53:00,9.92,2020-09-16 05:30:00,23.31,2020-09-15 12:52:00,10.19,2020-09-16 05:30:00,12.76,0.85,1009.3,1.0,3.88,1600161480,258,0.74,7,1600154880,16.093,257.0,8.9,2020-09-15 05:41:00,23.59,2020-09-15 12:53:00,9.17,2020-09-15 05:41:00,23.31,2020-09-15 12:52:00
Mugu,Mangri,29.540125,82.081825,2020-09-15 00:00:00,Mostly cloudy throughout the day.,partly-cloudy-day,2020-09-15 06:03:00,2020-09-15 18:23:00,0.93,0.0389,0.1601,2020-09-15 17:44:00,0.37,rain,19.06,2020-09-15 12:54:00,7.27,2020-09-16 05:34:00,18.78,2020-09-15 12:54:00,7.54,2020-09-16 05:34:00,10.69,0.94,1009.3,1.2,3.52,1600160640,72,0.81,7,1600154340,16.093,255.7,6.6,2020-09-15 05:44:00,19.06,2020-09-15 12:54:00,6.87,2020-09-15 05:44:00,18.78,2020-09-15 12:54:00
Mugu,Rara,29.75,82.55,2020-09-15 00:00:00,Mostly cloudy throughout the day.,fog,2020-09-15 06:01:00,2020-09-15 18:22:00,0.93,0.0276,0.1155,2020-09-15 17:32:00,0.3,rain,5.58,2020-09-15 12:46:00,-1.17,2020-09-16 01:52:00,3.28,2020-09-15 12:39:00,-0.99,2020-09-15 21:31:00,1.63,1.0,1009.8,1.63,4.97,1600158900,49,0.79,9,1600149360,15.048,250.9,-0.95,2020-09-15 05:38:00,5.58,2020-09-15 12:46:00,-0.99,2020-09-15 21:31:00,3.28,2020-09-15 12:39:00
Mugu,Seroge,29.58904306,82.30580306,2020-09-15 00:00:00,Mostly cloudy throughout the day.,rain,2020-09-15 06:02:00,2020-09-15 18:23:00,0.93,0.0486,0.2093,2020-09-15 17:47:00,0.4,rain,16.73,2020-09-15 12:48:00,6.88,2020-09-16 05:39:00,16.45,2020-09-15 12:48:00,6.37,2020-09-16 05:38:00,10.07,0.97,1009.5,1.41,3.8,1600158480,73,0.82,7,1600151340,16.093,253.3,6.16,2020-09-15 05:46:00,16.73,2020-09-15 12:48:00,6.43,2020-09-15 05:46:00,16.45,2020-09-15 12:48:00
Mustang,Lete,28.78401111,83.72981667,2020-09-15 00:00:00,Mostly cloudy throughout the day.,fog,2020-09-15 05:57:00,2020-09-15 18:17:00,0.93,0.0158,0.0461,2020-09-15 16:29:00,0.33,rain,12.22,2020-09-15 12:46:00,5.79,2020-09-16 05:45:00,12.27,2020-09-15 12:50:00,5.05,2020-09-16 00:51:00,7.97,1.0,1009.3,1.92,5.81,1600160640,202,0.85,10,1600149720,13.869,250.1,4.71,2020-09-15 05:50:00,12.22,2020-09-15 12:46:00,5.21,2020-09-15 05:49:00,12.27,2020-09-15 12:50:00
Mustang,Mustang(Lomangthang),28.81555556,83.86222222,2020-09-15 00:00:00,Mostly cloudy throughout the day.,partly-cloudy-day,2020-09-15 05:56:00,2020-09-15 18:16:00,0.93,0.012,0.0337,2020-09-15 15:38:00,0.26,rain,11.24,2020-09-15 13:14:00,4.49,2020-09-16 00:55:00,11.7,2020-09-15 13:23:00,3.74,2020-09-16 00:32:00,7.07,1.0,1009.3,1.72,4.77,1600160820,185,0.88,9,1600149720,15.182,249.5,3.89,2020-09-15 05:48:00,11.24,2020-09-15 13:14:00,3.93,2020-09-16 00:00:00,11.7,2020-09-15 13:23:00
Mustang,Ranipauwa (M.Nath),28.73887222,83.68183333,2020-09-15 00:00:00,Foggy in the afternoon and evening.,fog,2020-09-15 05:57:00,2020-09-15 18:17:00,0.93,0.0245,0.0751,2020-09-15 16:25:00,0.36,rain,12.16,2020-09-15 12:44:00,5.7,2020-09-16 00:56:00,12.39,2020-09-15 12:49:00,5.11,2020-09-16 01:00:00,7.9,1.0,1009.2,1.77,5.16,1600160400,210,0.86,9,1600149720,12.644,250.2,4.62,2020-09-15 05:49:00,12.16,2020-09-15 12:44:00,5.06,2020-09-15 05:49:00,12.39,2020-09-15 12:49:00
Mustang,Tatopani,28.9,83.68333333,2020-09-15 00:00:00,Mostly cloudy throughout the day.,partly-cloudy-day,2020-09-15 05:57:00,2020-09-15 18:17:00,0.93,0.011,0.0292,2020-09-15 16:40:00,0.29,rain,10.46,2020-09-15 13:13:00,3.91,2020-09-16 05:49:00,11.42,2020-09-15 13:19:00,2.99,2020-09-16 00:51:00,6.49,1.0,1009.3,1.93,5.82,1600160820,235,0.85,10,1600149600,15.549,249.6,3.27,2020-09-15 05:50:00,10.46,2020-09-15 13:13:00,3.21,2020-09-16 00:00:00,11.42,2020-09-15 13:19:00
Myagdi,Bega,28.4,83.73333333,2020-09-15 00:00:00,Mostly cloudy throughout the day.,rain,2020-09-15 05:57:00,2020-09-15 18:16:00,0.93,0.1488,0.3681,2020-09-15 14:41:00,0.54,rain,17.87,2020-09-15 13:03:00,10.61,2020-09-16 05:54:00,18.75,2020-09-15 13:10:00,10.88,2020-09-16 06:00:00,12.89,1.0,1008.1,1.0,1.72,1600151280,68,0.88,8,1600149660,14.682,254.8,9.34,2020-09-15 05:48:00,17.87,2020-09-15 13:03:00,10.44,2020-09-15 05:48:00,18.75,2020-09-15 13:10:00
Myagdi,Beni Bazar,29.22713194,83.979815,2020-09-14 21:45:00,Mostly cloudy throughout the day.,partly-cloudy-day,2020-09-15 05:55:00,2020-09-15 18:16:00,0.93,0.0055,0.0194,2020-09-15 02:48:00,0.21,rain,17.39,2020-09-15 13:45:00,-0.43,2020-09-16 05:23:00,17.11,2020-09-15 13:45:00,-0.49,2020-09-16 02:33:00,4.61,0.87,1009.3,2.55,7.3,1600162380,190,0.82,9,1600150140,15.537,250.8,-0.39,2020-09-15 05:34:00,17.39,2020-09-15 13:45:00,-1.78,2020-09-15 05:32:00,17.11,2020-09-15 13:45:00
Myagdi,Dumkauli,28.56666667,83.38333333,2020-09-15 00:00:00,Foggy in the afternoon and evening.,rain,2020-09-15 05:58:00,2020-09-15 18:18:00,0.93,0.1076,0.3613,2020-09-15 15:40:00,0.49,rain,16.74,2020-09-15 12:42:00,9.39,2020-09-16 00:47:00,16.96,2020-09-15 12:49:00,9.29,2020-09-16 05:43:00,11.75,0.99,1008.7,1.45,2.68,1600153680,352,0.89,8,1600149660,11.345,253.3,8.62,2020-09-15 05:47:00,16.74,2020-09-15 12:42:00,8.35,2020-09-15 05:48:00,16.96,2020-09-15 12:49:00
Myagdi,Ghorepani,28.35083333,83.56666667,2020-09-15 00:00:00,Mostly cloudy throughout the day.,rain,2020-09-15 05:57:00,2020-09-15 18:17:00,0.93,0.1674,0.5241,2020-09-15 15:11:00,0.54,rain,23.87,2020-09-15 13:12:00,15.9,2020-09-16 05:47:00,23.96,2020-09-15 13:19:00,16.17,2020-09-16 05:47:00,15.74,0.84,1008.1,1.1,1.97,1600150680,342,0.86,8,1600149540,14.068,256.3,14.76,2020-09-15 05:45:00,23.87,2020-09-15 13:12:00,15.03,2020-09-15 05:45:00,23.96,2020-09-15 13:19:00
Myagdi,Muna,28.44271389,83.576185,2020-09-15 00:00:00,Mostly cloudy throughout the day.,rain,2020-09-15 05:57:00,2020-09-15 18:17:00,0.93,0.1357,0.438,2020-09-15 15:18:00,0.51,rain,20.83,2020-09-15 12:58:00,13.42,2020-09-16 05:44:00,21.11,2020-09-15 13:07:00,13.69,2020-09-16 05:44:00,15.35,0.97,1008.3,1.22,2.08,1600150920,348,0.88,8,1600149600,13.44,255.0,12.08,2020-09-15 05:47:00,20.83,2020-09-15 12:58:00,12.35,2020-09-15 05:47:00,21.11,2020-09-15 13:07:00
Nawalparasi,Bara Ghat,27.680675,84.22854170000001,2020-09-15 00:00:00,Humid and mostly cloudy throughout the day.,rain,2020-09-15 05:55:00,2020-09-15 18:14:00,0.93,0.2262,0.6561,2020-09-15 00:47:00,0.76,rain,33.31,2020-09-15 12:39:00,23.45,2020-09-16 05:30:00,38.3,2020-09-15 14:59:00,24.21,2020-09-16 05:32:00,23.02,0.74,1006.2,1.04,1.78,1600152540,87,0.88,7,1600151220,15.905,259.2,23.99,2020-09-15 05:20:00,33.31,2020-09-15 12:39:00,24.91,2020-09-15 05:24:00,38.3,2020-09-15 14:59:00
Nawalparasi,Dumkibas,27.51925,83.66218333,2020-09-15 00:00:00,Possible light rain in the morning.,rain,2020-09-15 05:57:00,2020-09-15 18:17:00,0.93,0.2568,0.9445,2020-09-15 02:55:00,0.81,rain,33.21,2020-09-15 12:27:00,24.06,2020-09-16 05:28:00,39.5,2020-09-15 14:44:00,25.15,2020-09-16 05:33:00,24.56,0.81,1005.2,1.87,4.17,1600139640,113,0.78,8,1600152300,16.069,259.8,24.11,2020-09-15 05:16:00,33.21,2020-09-15 12:27:00,25.15,2020-09-15 05:23:00,39.5,2020-09-15 14:44:00
Nawalparasi,Parasi,27.67488333,84.07438333,2020-09-15 00:00:00,Humid and mostly cloudy throughout the day.,rain,2020-09-15 05:56:00,2020-09-15 18:15:00,0.93,0.2238,0.5576,2020-09-15 16:45:00,0.74,rain,33.18,2020-09-15 12:46:00,23.16,2020-09-16 05:30:00,37.43,2020-09-15 14:52:00,23.84,2020-09-16 05:32:00,22.69,0.73,1006.1,1.15,2.02,1600141380,80,0.86,7,1600151940,15.651,259.1,23.79,2020-09-15 05:15:00,33.18,2020-09-15 12:46:00,24.71,2020-09-15 05:18:00,37.43,2020-09-15 14:52:00
Nawalparasi,Rambas,27.56666667,82.95,2020-09-15 00:00:00,Humid and mostly cloudy throughout the day.,rain,2020-09-15 06:00:00,2020-09-15 18:19:00,0.93,0.2167,0.7223,2020-09-15 02:54:00,0.72,rain,32.9,2020-09-15 12:44:00,24.66,2020-09-16 05:25:00,40.42,2020-09-15 12:25:00,25.94,2020-09-16 05:27:00,25.09,0.82,1004.7,2.34,7.29,1600118460,100,0.83,8,1600151640,15.826,260.3,24.91,2020-09-15 04:45:00,32.9,2020-09-15 12:44:00,26.15,2020-09-15 05:17:00,40.42,2020-09-15 12:25:00
Nawalparasi,Trisuli,27.68333333,84.13333333,2020-09-15 00:00:00,Humid and mostly cloudy throughout the day.,rain,2020-09-15 05:55:00,2020-09-15 18:15:00,0.93,0.223,0.5386,2020-09-15 16:44:00,0.74,rain,33.04,2020-09-15 12:43:00,23.16,2020-09-16 05:31:00,37.29,2020-09-15 14:51:00,23.85,2020-09-16 05:33:00,22.61,0.73,1006.1,1.08,1.87,1600143660,82,0.87,7,1600151700,15.744,259.1,23.78,2020-09-15 05:20:00,33.04,2020-09-15 12:43:00,24.68,2020-09-15 05:24:00,37.29,2020-09-15 14:51:00
Nuwakot,Kakani,27.91666667,85.15,2020-09-15 00:00:00,Humid and mostly cloudy throughout the day.,rain,2020-09-15 05:51:00,2020-09-15 18:11:00,0.93,0.3225,0.6208,2020-09-15 13:06:00,0.71,rain,29.24,2020-09-15 13:48:00,20.42,2020-09-16 05:36:00,32.35,2020-09-15 13:55:00,20.69,2020-09-16 05:36:00,20.69,0.82,1007.4,0.84,1.89,1600158060,218,0.82,8,1600150080,15.209,256.5,20.48,2020-09-15 05:43:00,29.24,2020-09-15 13:48:00,21.2,2020-09-15 05:42:00,32.35,2020-09-15 13:55:00
