district,formal_name,lat,long,time,summary,icon,sunriseTime,sunsetTime,moonPhase,precipIntensity,precipIntensityMax,precipIntensityMaxTime,precipProbability,precipType,temperatureHigh,temperatureHighTime,temperatureLow,temperatureLowTime,apparentTemperatureHigh,apparentTemperatureHighTime,apparentTemperatureLow,apparentTemperatureLowTime,dewPoint,humidity,pressure,windSpeed,windGust,windGustTime,windBearing,cloudCover,uvIndex,uvIndexTime,visibility,ozone,temperatureMin,temperatureMinTime,temperatureMax,temperatureMaxTime,apparentTemperatureMin,apparentTemperatureMinTime,apparentTemperatureMax,apparentTemperatureMaxTime
Achham,Asara Ghat,28.95029444,81.44431944,2020-10-14 00:00:00,Partly cloudy throughout the day.,partly-cloudy-day,2020-10-14 06:21:00,2020-10-14 17:52:00,0.91,0.0103,0.1071,2020-10-14 23:44:00,0.04,rain,31.18,2020-10-14 13:53:00,18.47,2020-10-15 06:07:00,30.96,2020-10-14 14:13:00,18.74,2020-10-15 06:07:00,16.3,0.65,1010.4,1.3,3.44,1602631500,34,0.32,7,1602657600,16.093,252.7,18.45,2020-10-14 05:52:00,31.18,2020-10-14 13:53:00,18.72,2020-10-14 05:52:00,30.96,2020-10-14 14:13:00
Achham,Basti,29.03098333,81.17113333,2020-10-14 00:00:00,Humid and partly cloudy throughout the day.,partly-cloudy-day,2020-10-14 06:22:00,2020-10-14 17:53:00,0.91,0.0101,0.0983,2020-10-14 23:44:00,0.06,rain,32.38,2020-10-14 13:54:00,18.79,2020-10-15 05:52:00,32.44,2020-10-14 15:12:00,19.06,2020-10-15 05:52:00,17.76,0.69,1010.4,1.08,2.49,1602631800,12,0.39,6,1602656580,16.093,253.4,19.11,2020-10-14 05:50:00,32.38,2020-10-14 13:54:00,19.38,2020-10-14 05:51:00,32.44,2020-10-14 15:12:00
Achham,Mangalsen,29.13611389,81.25009167,2020-10-14 00:00:00,Partly cloudy throughout the day.,partly-cloudy-day,2020-10-14 06:22:00,2020-10-14 17:52:00,0.91,0.0076,0.0848,2020-10-14 23:44:00,0.04,rain,28.98,2020-10-14 13:51:00,17.2,2020-10-15 06:08:00,28.7,2020-10-14 13:50:00,17.47,2020-10-15 06:08:00,13.74,0.64,1010.7,1.19,2.72,1602631740,42,0.35,7,1602655980,16.093,252.2,17.35,2020-10-14 06:06:00,28.98,2020-10-14 13:51:00,17.62,2020-10-14 06:06:00,28.7,2020-10-14 13:50:00
Achham,Sugali,29.17980694,81.37293889,2020-10-14 00:00:00,Partly cloudy throughout the day.,partly-cloudy-day,2020-10-14 06:21:00,2020-10-14 17:52:00,0.91,0.0054,0.0554,2020-10-14 23:44:00,0.04,rain,26.06,2020-10-14 13:37:00,15.54,2020-10-15 06:17:00,25.78,2020-10-14 13:37:00,15.81,2020-10-15 06:17:00,11.76,0.65,1011.3,1.44,3.68,1602631560,43,0.36,7,1602656160,16.093,250.5,15.63,2020-10-14 06:18:00,26.06,2020-10-14 13:37:00,15.9,2020-10-14 06:18:00,25.78,2020-10-14 13:37:00
Arghakhanchi,Rangsing,27.80330278,82.78400833,2020-10-14 00:00:00,Partly cloudy throughout the day.,partly-cloudy-day,2020-10-14 06:15:00,2020-10-14 17:47:00,0.91,0.005,0.0219,2020-10-14 02:46:00,0.03,rain,33.12,2020-10-14 14:04:00,21.47,2020-10-15 05:21:00,34.77,2020-10-14 14:41:00,21.74,2020-10-15 05:21:00,19.7,0.67,1007.9,1.42,2.15,1602623340,32,0.24,7,1602658740,16.093,255.6,21.58,2020-10-14 05:03:00,33.12,2020-10-14 14:04:00,22.27,2020-10-14 05:05:00,34.77,2020-10-14 14:41:00
Arghakhanchi,Sandhikharka,27.96402222,83.12056944,2020-10-14 00:00:00,Partly cloudy throughout the day.,partly-cloudy-day,2020-10-14 06:14:00,2020-10-14 17:46:00,0.91,0.0178,0.0854,2020-10-14 02:58:00,0.03,rain,28.59,2020-10-14 13:48:00,17.64,2020-10-15 05:29:00,28.31,2020-10-14 13:48:00,17.91,2020-10-15 05:29:00,14.43,0.63,1009.6,1.24,2.06,1602665880,7,0.31,6,1602656940,16.093,253.5,17.5,2020-10-14 05:38:00,28.59,2020-10-14 13:48:00,17.77,2020-10-14 05:38:00,28.31,2020-10-14 13:48:00
Arghakhanchi,Sidhara,27.7945,82.82838333,2020-10-14 00:00:00,Clear throughout the day.,clear-day,2020-10-14 06:15:00,2020-10-14 17:47:00,0.91,0.0069,0.0388,2020-10-14 02:49:00,0.03,rain,32.49,2020-10-14 14:01:00,21.72,2020-10-15 05:31:00,33.54,2020-10-14 14:42:00,21.99,2020-10-15 05:31:00,18.76,0.64,1007.8,1.43,2.16,1602624240,30,0.23,7,1602658620,16.093,255.7,21.76,2020-10-14 05:13:00,32.49,2020-10-14 14:01:00,22.34,2020-10-14 05:14:00,33.54,2020-10-14 14:42:00
Baglung,Baglung,28.26363611,83.60032222,2020-10-14 00:00:00,Partly cloudy throughout the day.,partly-cloudy-day,2020-10-14 06:12:00,2020-10-14 17:43:00,0.91,0.0501,0.3645,2020-10-14 15:53:00,0.09,rain,26.67,2020-10-14 13:43:00,16.64,2020-10-15 06:11:00,26.39,2020-10-14 13:43:00,16.91,2020-10-15 06:11:00,12.78,0.63,1011.7,1.39,2.56,1602631860,308,0.43,6,1602657480,16.093,250.3,16.32,2020-10-14 05:55:00,26.67,2020-10-14 13:43:00,16.59,2020-10-14 05:55:00,26.39,2020-10-14 13:43:00
Baglung,Dhorpatan,28.48333333,83.08333333,2020-10-14 00:00:00,Partly cloudy throughout the day.,partly-cloudy-day,2020-10-14 06:14:00,2020-10-14 17:45:00,0.91,0.0119,0.0398,2020-10-14 00:32:00,0.11,rain,16.59,2020-10-14 13:19:00,7.94,2020-10-15 01:56:00,16.3,2020-10-14 13:19:00,7.22,2020-10-15 02:02:00,10.32,0.96,1013.0,1.65,2.76,1602663480,17,0.47,7,1602655380,16.093,246.6,8.26,2020-10-14 06:06:00,16.59,2020-10-14 13:19:00,7.51,2020-10-14 05:48:00,16.3,2020-10-14 13:19:00
Baglung,Galkot,28.21869167,83.41881111,2020-10-14 00:00:00,Partly cloudy throughout the day.,partly-cloudy-day,2020-10-14 06:13:00,2020-10-14 17:44:00,0.91,0.0496,0.4114,2020-10-14 15:49:00,0.08,rain,25.75,2020-10-14 13:41:00,14.88,2020-10-15 06:06:00,25.47,2020-10-14 13:41:00,15.15,2020-10-15 06:06:00,10.93,0.6,1011.5,1.5,2.56,1602631020,325,0.42,6,1602657720,16.093,250.7,14.7,2020-10-14 06:03:00,25.75,2020-10-14 13:41:00,14.97,2020-10-14 06:03:00,25.47,2020-10-14 13:41:00
Baglung,Rangkhani,28.14408889,83.55824444,2020-10-14 00:00:00,Partly cloudy throughout the day.,partly-cloudy-day,2020-10-14 06:12:00,2020-10-14 17:44:00,0.91,0.036,0.2756,2020-10-14 15:51:00,0.05,rain,24.39,2020-10-14 13:39:00,15.4,2020-10-15 05:36:00,24.11,2020-10-14 13:39:00,15.67,2020-10-15 05:36:00,10.89,0.63,1010.7,1.28,2.28,1602630000,311,0.36,7,1602657420,16.093,251.4,15.25,2020-10-14 05:39:00,24.39,2020-10-14 13:39:00,15.52,2020-10-14 05:39:00,24.11,2020-10-14 13:39:00
Baitadi,Patan (West),29.467137,80.54575109999999,2020-10-14 00:00:00,Partly cloudy throughout the day.,partly-cloudy-day,2020-10-14 06:25:00,2020-10-14 17:55:00,0.91,0.0032,0.0126,2020-10-14 17:42:00,0.04,rain,28.83,2020-10-14 13:46:00,15.59,2020-10-15 06:12:00,28.55,2020-10-14 13:46:00,15.85,2020-10-15 06:12:00,16.18,0.77,1011.0,1.09,2.21,1602665100,168,0.32,6,1602657240,16.093,252.2,15.91,2020-10-14 06:06:00,28.83,2020-10-14 13:46:00,16.23,2020-10-14 06:12:00,28.55,2020-10-14 13:46:00
Baitadi,Satbanjh,29.4973,80.49741194,2020-10-14 00:00:00,Partly cloudy throughout the day.,partly-cloudy-day,2020-10-14 06:25:00,2020-10-14 17:55:00,0.91,0.0014,0.0051,2020-10-14 17:44:00,0.03,rain,25.33,2020-10-14 13:42:00,13.87,2020-10-14 23:50:00,25.05,2020-10-14 13:42:00,14.36,2020-10-15 05:41:00,14.17,0.82,1010.6,1.13,2.33,1602664680,183,0.32,6,1602656580,16.093,252.4,13.87,2020-10-14 23:50:00,25.33,2020-10-14 13:42:00,14.73,2020-10-14 05:25:00,25.05,2020-10-14 13:42:00
Bajhang,Chainpur (West),29.55,81.21666667,2020-10-14 00:00:00,Partly cloudy throughout the day.,partly-cloudy-day,2020-10-14 06:22:00,2020-10-14 17:52:00,0.91,0.0014,0.0054,2020-10-14 17:47:00,0.01,rain,24.93,2020-10-14 12:58:00,12.53,2020-10-15 05:35:00,24.65,2020-10-14 12:58:00,12.8,2020-10-15 05:35:00,6.14,0.51,1013.3,1.39,3.3,1602631560,42,0.32,8,1602656340,16.093,247.9,12.76,2020-10-14 05:39:00,24.93,2020-10-14 12:58:00,13.03,2020-10-14 05:39:00,24.65,2020-10-14 12:58:00
Bajhang,Chainpur Bajhang Aws Climate,29.545890000000004,81.20114000000001,2020-10-14 00:00:00,Partly cloudy throughout the day.,partly-cloudy-day,2020-10-14 06:22:00,2020-10-14 17:52:00,0.91,0.0017,0.0073,2020-10-14 17:47:00,0.01,rain,25.03,2020-10-14 13:02:00,12.91,2020-10-15 05:40:00,24.75,2020-10-14 13:02:00,13.18,2020-10-15 05:40:00,6.21,0.51,1013.2,1.37,3.27,1602631440,42,0.31,8,1602656520,16.093,248.1,13.12,2020-10-15 00:00:00,25.03,2020-10-14 13:02:00,13.39,2020-10-15 00:00:00,24.75,2020-10-14 13:02:00
Bajhang,Kalukheti,29.447359999999996,81.16838,2020-10-14 00:00:00,Partly cloudy throughout the day.,partly-cloudy-day,2020-10-14 06:22:00,2020-10-14 17:52:00,0.91,0.0024,0.0111,2020-10-14 17:46:00,0.02,rain,27.8,2020-10-14 13:26:00,14.01,2020-10-15 06:11:00,27.52,2020-10-14 13:26:00,14.28,2020-10-15 06:11:00,7.95,0.5,1011.9,1.29,3.2,1602631500,48,0.3,8,1602656820,16.093,249.5,14.37,2020-10-14 06:02:00,27.8,2020-10-14 13:26:00,14.64,2020-10-14 06:02:00,27.52,2020-10-14 13:26:00
Bajhang,Rayal,29.464595000000003,80.95405,2020-10-14 00:00:00,Partly cloudy throughout the day.,partly-cloudy-day,2020-10-14 06:23:00,2020-10-14 17:53:00,0.91,0.0055,0.0363,2020-10-14 17:46:00,0.04,rain,30.28,2020-10-14 13:47:00,16.37,2020-10-15 05:56:00,30.0,2020-10-14 13:47:00,16.64,2020-10-15 05:56:00,10.73,0.53,1011.5,1.1,2.56,1602629580,75,0.28,8,1602658620,16.093,250.4,16.66,2020-10-14 05:45:00,30.28,2020-10-14 13:47:00,16.93,2020-10-14 05:45:00,30.0,2020-10-14 13:47:00
Bajura,Bajura (Martadi),29.45697889,81.48038389,2020-10-14 00:00:00,Partly cloudy throughout the day.,partly-cloudy-day,2020-10-14 06:21:00,2020-10-14 17:51:00,0.91,0.0014,0.0048,2020-10-14 17:45:00,0.03,rain,24.48,2020-10-14 12:55:00,12.29,2020-10-15 06:23:00,24.2,2020-10-14 12:55:00,12.56,2020-10-15 06:23:00,7.78,0.59,1013.3,1.55,3.88,1602631920,39,0.31,8,1602656220,16.093,247.1,12.36,2020-10-14 00:52:00,24.48,2020-10-14 12:55:00,12.63,2020-10-14 00:52:00,24.2,2020-10-14 12:55:00
Bajura,Kailasmandu,29.35291694,81.33385889,2020-10-14 00:00:00,Partly cloudy throughout the day.,partly-cloudy-day,2020-10-14 06:22:00,2020-10-14 17:52:00,0.91,0.002,0.0123,2020-10-14 23:44:00,0.02,rain,27.25,2020-10-14 13:17:00,15.39,2020-10-15 05:41:00,26.97,2020-10-14 13:17:00,15.66,2020-10-15 05:41:00,9.97,0.56,1012.4,1.45,3.61,1602631680,45,0.33,8,1602655980,16.093,249.2,15.53,2020-10-14 05:42:00,27.25,2020-10-14 13:17:00,15.8,2020-10-14 05:42:00,26.97,2020-10-14 13:17:00
Bajura,Kolti,29.50348694,81.66617611,2020-10-14 00:00:00,Partly cloudy throughout the day.,partly-cloudy-day,2020-10-14 06:21:00,2020-10-14 17:50:00,0.91,0.0013,0.0051,2020-10-14 17:45:00,0.03,rain,25.22,2020-10-14 13:26:00,9.14,2020-10-15 06:19:00,24.94,2020-10-14 13:26:00,9.41,2020-10-15 06:19:00,6.76,0.58,1013.6,1.11,3.41,1602666000,289,0.38,8,1602656640,16.093,247.3,9.77,2020-10-14 06:07:00,25.22,2020-10-14 13:26:00,10.04,2020-10-14 06:07:00,24.94,2020-10-14 13:26:00
Banke,Amlekhganj,27.94748333,81.78569444,2020-10-14 00:15:00,Humid and partly cloudy throughout the day.,partly-cloudy-day,2020-10-14 06:19:00,2020-10-14 17:51:00,0.91,0.096,0.4671,2020-10-14 04:03:00,0.12,rain,33.53,2020-10-14 13:55:00,22.38,2020-10-15 05:32:00,36.72,2020-10-14 15:36:00,23.43,2020-10-15 05:33:00,22.04,0.73,1007.2,1.4,2.18,1602661740,108,0.25,7,1602658200,16.093,255.3,22.31,2020-10-14 04:59:00,33.53,2020-10-14 13:55:00,23.34,2020-10-14 04:58:00,36.72,2020-10-14 15:36:00
Banke,Dhakeri,28.10055556,81.66824722,2020-10-14 00:15:00,Humid and partly cloudy throughout the day.,partly-cloudy-day,2020-10-14 06:19:00,2020-10-14 17:51:00,0.91,0.0326,0.1519,2020-10-14 03:57:00,0.05,rain,33.31,2020-10-14 13:48:00,22.58,2020-10-15 05:32:00,36.67,2020-10-14 15:38:00,23.53,2020-10-15 05:33:00,22.19,0.73,1007.4,1.45,2.26,1602662220,109,0.29,7,1602658140,16.093,255.2,22.54,2020-10-14 05:12:00,33.31,2020-10-14 13:48:00,23.53,2020-10-14 05:13:00,36.67,2020-10-14 15:38:00
Banke,Khajura (Nepalganj),28.11368333,81.59030556,2020-10-14 00:15:00,Humid throughout the day.,clear-day,2020-10-14 06:20:00,2020-10-14 17:52:00,0.91,0.0177,0.0785,2020-10-14 03:57:00,0.04,rain,33.42,2020-10-14 13:51:00,22.62,2020-10-15 05:33:00,36.73,2020-10-14 13:08:00,23.59,2020-10-15 05:34:00,22.23,0.73,1007.3,1.45,2.13,1602661560,105,0.3,7,1602658140,16.093,255.3,22.55,2020-10-14 05:18:00,33.42,2020-10-14 13:51:00,23.59,2020-10-14 05:18:00,36.73,2020-10-14 13:08:00
Banke,Naubasta,28.230225,81.65270278,2020-10-14 00:00:00,Humid and partly cloudy throughout the day.,partly-cloudy-day,2020-10-14 06:20:00,2020-10-14 17:51:00,0.91,0.0065,0.0262,2020-10-14 02:54:00,0.02,rain,33.15,2020-10-14 14:02:00,22.91,2020-10-15 05:31:00,36.6,2020-10-14 15:33:00,23.79,2020-10-15 05:34:00,22.42,0.74,1007.6,1.41,2.3,1602663840,91,0.33,7,1602657480,16.093,255.1,22.81,2020-10-14 05:16:00,33.15,2020-10-14 14:02:00,23.78,2020-10-14 05:18:00,36.6,2020-10-14 15:33:00
Banke,Nepalgunj Airport,28.051994399999995,81.6228389,2020-10-14 00:15:00,Humid and partly cloudy throughout the day.,partly-cloudy-day,2020-10-14 06:20:00,2020-10-14 17:51:00,0.91,0.0318,0.1481,2020-10-14 04:08:00,0.06,rain,33.32,2020-10-14 13:56:00,22.53,2020-10-15 05:34:00,36.43,2020-10-14 13:19:00,23.54,2020-10-15 05:34:00,21.99,0.73,1007.2,1.47,2.17,1602660600,110,0.28,7,1602658320,16.093,255.3,22.47,2020-10-14 05:11:00,33.32,2020-10-14 13:56:00,23.51,2020-10-14 05:11:00,36.43,2020-10-14 13:19:00
Bara,Gulariya,27.164166700000003,84.98,2020-10-14 00:00:00,Humid throughout the day.,clear-day,2020-10-14 06:06:00,2020-10-14 17:39:00,0.91,0.0578,0.2643,2020-10-14 04:39:00,0.1,rain,33.27,2020-10-14 13:53:00,23.32,2020-10-15 05:29:00,38.48,2020-10-14 14:31:00,24.45,2020-10-15 05:27:00,23.65,0.79,1007.6,1.99,2.83,1602665940,57,0.23,7,1602654180,16.093,259.8,23.26,2020-10-14 05:15:00,33.27,2020-10-14 13:53:00,24.43,2020-10-14 05:12:00,38.48,2020-10-14 14:31:00
Bara,Kalaiya,27.079,84.9329,2020-10-14 00:00:00,Humid and partly cloudy throughout the day.,partly-cloudy-day,2020-10-14 06:06:00,2020-10-14 17:39:00,0.91,0.0246,0.1042,2020-10-14 04:18:00,0.05,rain,33.3,2020-10-14 13:55:00,23.34,2020-10-15 05:31:00,37.8,2020-10-14 13:08:00,24.48,2020-10-15 05:28:00,23.19,0.77,1007.3,2.0,2.53,1602643380,58,0.25,7,1602653760,16.093,260.4,23.36,2020-10-14 05:06:00,33.3,2020-10-14 13:55:00,24.53,2020-10-14 05:06:00,37.8,2020-10-14 13:08:00
Bara,Nijgadh,27.16416667,84.98,2020-10-14 00:00:00,Humid throughout the day.,clear-day,2020-10-14 06:06:00,2020-10-14 17:39:00,0.91,0.0578,0.2643,2020-10-14 04:39:00,0.1,rain,33.27,2020-10-14 13:53:00,23.32,2020-10-15 05:29:00,38.48,2020-10-14 14:31:00,24.45,2020-10-15 05:27:00,23.65,0.79,1007.6,1.99,2.83,1602665940,57,0.23,7,1602654180,16.093,259.8,23.26,2020-10-14 05:15:00,33.27,2020-10-14 13:53:00,24.43,2020-10-14 05:12:00,38.48,2020-10-14 14:31:00
Bara,Parwanipur,27.20300556,85.170475,2020-10-14 00:00:00,Humid throughout the day.,clear-day,2020-10-14 06:05:00,2020-10-14 17:38:00,0.91,0.1569,0.8624,2020-10-14 05:39:00,0.15,rain,32.71,2020-10-14 14:04:00,22.83,2020-10-15 05:30:00,38.68,2020-10-14 14:44:00,23.95,2020-10-15 05:29:00,23.78,0.82,1008.0,1.84,2.68,1602665820,46,0.21,8,1602654720,16.093,259.5,22.9,2020-10-14 05:28:00,32.71,2020-10-14 14:04:00,24.03,2020-10-14 05:26:00,38.68,2020-10-14 14:44:00
Bara,Simara Airport,27.2813,84.9919,2020-10-14 00:00:00,Humid throughout the day.,clear-day,2020-10-14 06:06:00,2020-10-14 17:39:00,0.91,0.0939,0.4252,2020-10-14 04:31:00,0.16,rain,31.97,2020-10-14 13:56:00,22.97,2020-10-15 05:25:00,35.85,2020-10-14 15:04:00,24.09,2020-10-15 05:22:00,23.12,0.82,1008.2,1.85,3.08,1602665640,57,0.24,7,1602654540,16.093,258.9,22.78,2020-10-14 05:13:00,31.97,2020-10-14 13:56:00,23.94,2020-10-14 05:09:00,35.85,2020-10-14 15:04:00
Bardiya,Chisapani(Karnali),28.21278611,81.34521111,2020-10-14 00:00:00,Humid throughout the day.,clear-day,2020-10-14 06:21:00,2020-10-14 17:52:00,0.91,0.0294,0.2249,2020-10-14 02:51:00,0.07,rain,33.45,2020-10-14 13:56:00,22.39,2020-10-15 05:36:00,36.66,2020-10-14 13:02:00,23.4,2020-10-15 05:36:00,22.12,0.75,1007.3,1.34,2.1,1602686760,85,0.31,7,1602657240,16.093,255.8,22.11,2020-10-14 05:26:00,33.45,2020-10-14 13:56:00,23.19,2020-10-14 05:23:00,36.66,2020-10-14 13:02:00
Bardiya,Kumalgaun,28.33735833,81.33784167,2020-10-14 00:00:00,Humid throughout the day.,clear-day,2020-10-14 06:21:00,2020-10-14 17:52:00,0.91,0.0213,0.1673,2020-10-14 02:49:00,0.05,rain,33.59,2020-10-14 13:48:00,22.22,2020-10-15 05:35:00,37.01,2020-10-14 13:01:00,23.14,2020-10-15 05:36:00,22.15,0.75,1007.5,1.37,2.08,1602687360,79,0.3,7,1602657360,16.093,255.8,21.94,2020-10-14 05:23:00,33.59,2020-10-14 13:48:00,22.97,2020-10-14 05:23:00,37.01,2020-10-14 13:01:00
Bardiya,Manpur,28.36353889,81.41428333,2020-10-14 00:00:00,Humid throughout the day.,clear-day,2020-10-14 06:21:00,2020-10-14 17:52:00,0.91,0.0113,0.0875,2020-10-14 02:48:00,0.04,rain,33.88,2020-10-14 13:52:00,22.31,2020-10-15 05:31:00,37.27,2020-10-14 15:34:00,23.2,2020-10-15 05:33:00,22.41,0.75,1007.6,1.36,2.03,1602688500,80,0.31,7,1602656880,16.093,255.6,22.02,2020-10-14 05:17:00,33.88,2020-10-14 13:52:00,23.0,2020-10-14 05:19:00,37.27,2020-10-14 15:34:00
Bardiya,Rajapur,28.64721944,81.28542778,2020-10-14 00:00:00,Humid throughout the day.,clear-day,2020-10-14 06:21:00,2020-10-14 17:52:00,0.91,0.0027,0.0187,2020-10-14 02:41:00,0.02,rain,33.14,2020-10-14 14:03:00,21.55,2020-10-15 06:09:00,35.1,2020-10-14 15:15:00,22.05,2020-10-15 06:14:00,20.57,0.72,1008.4,1.36,2.11,1602625020,51,0.28,7,1602656940,16.093,255.7,21.27,2020-10-14 05:21:00,33.14,2020-10-14 14:03:00,21.98,2020-10-14 05:27:00,35.1,2020-10-14 15:15:00
Bardiya,Rambhapur,28.307825,81.27586389,2020-10-14 00:00:00,Humid throughout the day.,clear-day,2020-10-14 06:21:00,2020-10-14 17:53:00,0.91,0.0323,0.2545,2020-10-14 02:50:00,0.07,rain,33.32,2020-10-14 13:54:00,22.18,2020-10-15 05:39:00,36.48,2020-10-14 13:06:00,23.15,2020-10-15 05:39:00,21.9,0.75,1007.4,1.36,2.16,1602681960,78,0.29,7,1602657600,16.093,256.0,21.85,2020-10-14 05:28:00,33.32,2020-10-14 13:54:00,22.9,2020-10-14 05:26:00,36.48,2020-10-14 13:06:00
Bardiya,Rani Jaruwa Nursery,28.42588611,81.33803611,2020-10-14 00:00:00,Humid throughout the day.,clear-day,2020-10-14 06:21:00,2020-10-14 17:52:00,0.91,0.0123,0.0967,2020-10-14 02:47:00,0.04,rain,33.75,2020-10-14 13:50:00,22.12,2020-10-15 05:33:00,37.14,2020-10-14 13:23:00,22.97,2020-10-15 05:35:00,22.1,0.74,1007.6,1.42,2.12,1602688740,75,0.28,7,1602657600,16.093,255.8,21.86,2020-10-14 05:20:00,33.75,2020-10-14 13:50:00,22.78,2020-10-14 05:23:00,37.14,2020-10-14 13:23:00
Bhaktapur,Bhaktapur,27.63333333,85.43333333,2020-10-14 00:00:00,Partly cloudy throughout the day.,partly-cloudy-day,2020-10-14 06:04:00,2020-10-14 17:37:00,0.91,0.0845,0.3599,2020-10-14 06:16:00,0.11,rain,25.81,2020-10-14 13:35:00,15.28,2020-10-15 05:34:00,25.58,2020-10-14 13:37:00,15.55,2020-10-15 05:34:00,17.02,0.87,1010.3,0.81,2.39,1602664080,38,0.34,8,1602654000,16.093,254.2,15.68,2020-10-14 05:31:00,25.81,2020-10-14 13:35:00,16.21,2020-10-14 05:35:00,25.58,2020-10-14 13:37:00
Bhaktapur,Changu Narayan,27.67668056,85.42396944,2020-10-14 00:00:00,Partly cloudy throughout the day.,partly-cloudy-day,2020-10-14 06:04:00,2020-10-14 17:37:00,0.91,0.0543,0.2295,2020-10-14 06:11:00,0.08,rain,27.97,2020-10-14 13:41:00,15.48,2020-10-15 05:43:00,28.17,2020-10-14 14:01:00,15.75,2020-10-15 05:43:00,17.35,0.81,1010.4,0.77,2.43,1602664260,32,0.34,7,1602654300,16.093,254.0,16.11,2020-10-14 05:43:00,27.97,2020-10-14 13:41:00,16.44,2020-10-14 05:46:00,28.17,2020-10-14 14:01:00
Bhaktapur,Nagarkot,27.645725,85.4615833,2020-10-14 00:00:00,Partly cloudy throughout the day.,partly-cloudy-day,2020-10-14 06:04:00,2020-10-14 17:36:00,0.91,0.0746,0.3112,2020-10-14 06:42:00,0.1,rain,27.22,2020-10-14 13:42:00,15.37,2020-10-15 05:40:00,27.55,2020-10-14 13:45:00,15.64,2020-10-15 05:40:00,17.34,0.84,1010.4,0.78,2.38,1602664200,37,0.32,8,1602654180,16.093,254.1,15.77,2020-10-14 05:37:00,27.22,2020-10-14 13:42:00,16.16,2020-10-14 05:40:00,27.55,2020-10-14 13:45:00
Bhaktapur,Sanga,27.71605833,85.42675556,2020-10-14 00:00:00,Partly cloudy throughout the day.,partly-cloudy-day,2020-10-14 06:04:00,2020-10-14 17:36:00,0.91,0.0265,0.1058,2020-10-14 06:12:00,0.05,rain,27.3,2020-10-14 13:31:00,14.99,2020-10-15 05:42:00,27.34,2020-10-14 13:26:00,15.26,2020-10-15 05:42:00,16.1,0.77,1010.4,0.72,2.45,1602664440,24,0.35,7,1602654540,16.093,253.8,15.72,2020-10-14 05:39:00,27.3,2020-10-14 13:31:00,15.99,2020-10-14 05:40:00,27.34,2020-10-14 13:26:00
Bhojpur,Dingla,27.1944798,87.04862659999999,2020-10-14 00:00:00,Humid and partly cloudy throughout the day.,partly-cloudy-day,2020-10-14 05:57:00,2020-10-14 17:30:00,0.91,0.0707,0.1737,2020-10-14 15:00:00,0.22,rain,23.48,2020-10-14 12:50:00,15.55,2020-10-15 06:02:00,23.93,2020-10-14 12:55:00,16.15,2020-10-15 05:42:00,18.0,0.99,1010.2,0.86,2.59,1602657780,277,0.37,8,1602654660,16.093,256.4,15.7,2020-10-15 00:00:00,23.48,2020-10-14 12:50:00,16.77,2020-10-14 06:00:00,23.93,2020-10-14 12:55:00
Bhojpur,Rampur,27.5282716,87.2177064,2020-10-14 00:00:00,Partly cloudy throughout the day.,partly-cloudy-day,2020-10-14 05:57:00,2020-10-14 17:29:00,0.91,0.041,0.0925,2020-10-14 12:46:00,0.16,rain,24.88,2020-10-14 13:32:00,16.6,2020-10-15 05:12:00,24.63,2020-10-14 13:34:00,16.87,2020-10-15 05:12:00,14.1,0.72,1011.9,1.15,2.5,1602699300,354,0.58,7,1602655260,16.093,253.7,16.62,2020-10-15 00:00:00,24.88,2020-10-14 13:32:00,16.89,2020-10-15 00:00:00,24.63,2020-10-14 13:34:00
Chitawan,Bharatpur,27.5909,84.5223,2020-10-14 00:00:00,Humid and partly cloudy throughout the day.,partly-cloudy-day,2020-10-14 06:08:00,2020-10-14 17:40:00,0.91,0.044,0.2376,2020-10-14 00:52:00,0.12,rain,34.52,2020-10-14 14:12:00,22.73,2020-10-15 05:26:00,37.83,2020-10-14 14:32:00,23.63,2020-10-15 05:28:00,22.76,0.77,1008.2,1.1,1.8,1602666300,40,0.3,6,1602651660,16.093,257.6,21.98,2020-10-14 05:23:00,34.52,2020-10-14 14:12:00,23.09,2020-10-14 05:24:00,37.83,2020-10-14 14:32:00
Chitawan,Bharatpur,27.72113611,84.58525556,2020-10-14 00:00:00,Humid and partly cloudy throughout the day.,partly-cloudy-day,2020-10-14 06:08:00,2020-10-14 17:40:00,0.91,0.0444,0.1772,2020-10-14 02:21:00,0.11,rain,33.81,2020-10-14 14:12:00,21.94,2020-10-15 05:43:00,36.23,2020-10-14 14:40:00,22.53,2020-10-15 06:06:00,21.46,0.75,1008.7,1.04,1.83,1602628380,44,0.3,7,1602651780,16.093,256.7,21.31,2020-10-14 05:39:00,33.81,2020-10-14 14:12:00,22.29,2020-10-14 05:41:00,36.23,2020-10-14 14:40:00
Chitawan,Jhuwani,27.654025,84.3507944,2020-10-14 00:00:00,Humid and partly cloudy throughout the day.,partly-cloudy-day,2020-10-14 06:08:00,2020-10-14 17:41:00,0.91,0.0385,0.3911,2020-10-14 00:00:00,0.11,rain,34.68,2020-10-14 14:11:00,22.32,2020-10-15 05:35:00,37.83,2020-10-14 14:37:00,23.04,2020-10-15 06:05:00,22.26,0.75,1008.2,1.19,1.88,1602666720,28,0.27,6,1602659340,16.093,257.3,22.04,2020-10-14 05:26:00,34.68,2020-10-14 14:11:00,23.12,2020-10-14 05:26:00,37.83,2020-10-14 14:37:00
Chitwan,Gobindabasti,27.423171500000002,84.30374090000001,2020-10-14 00:00:00,Humid and partly cloudy throughout the day.,partly-cloudy-day,2020-10-14 06:08:00,2020-10-14 17:41:00,0.91,0.0118,0.1656,2020-10-14 00:00:00,0.06,rain,33.14,2020-10-14 13:50:00,22.45,2020-10-15 05:06:00,35.48,2020-10-14 13:31:00,23.48,2020-10-15 05:07:00,21.69,0.75,1007.6,1.49,2.24,1602666840,47,0.3,7,1602658980,16.093,258.6,22.03,2020-10-14 05:15:00,33.14,2020-10-14 13:50:00,23.15,2020-10-14 05:15:00,35.48,2020-10-14 13:31:00
Chitwan,Madi Kalyanpur,27.580483299999997,84.2242222,2020-10-14 00:00:00,Humid and partly cloudy throughout the day.,partly-cloudy-day,2020-10-14 06:09:00,2020-10-14 17:41:00,0.91,0.0208,0.3765,2020-10-14 00:00:00,0.08,rain,34.35,2020-10-14 14:18:00,21.97,2020-10-15 05:21:00,37.62,2020-10-14 14:50:00,22.81,2020-10-15 05:26:00,22.26,0.75,1007.9,1.36,2.18,1602666960,29,0.29,7,1602659100,16.093,257.7,21.64,2020-10-14 05:25:00,34.35,2020-10-14 14:18:00,22.7,2020-10-14 05:26:00,37.62,2020-10-14 14:50:00
Chitwan,Meghauli,27.67303333,84.42227222,2020-10-14 00:00:00,Humid throughout the day.,clear-day,2020-10-14 06:08:00,2020-10-14 17:41:00,0.91,0.046,0.3205,2020-10-14 00:00:00,0.12,rain,34.65,2020-10-14 14:12:00,22.54,2020-10-15 05:38:00,37.61,2020-10-14 14:36:00,23.22,2020-10-15 06:07:00,22.13,0.74,1008.2,1.13,1.77,1602623580,31,0.27,6,1602651600,16.093,257.2,22.19,2020-10-14 05:31:00,34.65,2020-10-14 14:12:00,23.28,2020-10-14 05:30:00,37.61,2020-10-14 14:36:00
Dadeldhura,Dadeldhura,29.301352,80.58775194,2020-10-14 00:00:00,Partly cloudy throughout the day.,partly-cloudy-day,2020-10-14 06:25:00,2020-10-14 17:55:00,0.91,0.0062,0.0415,2020-10-14 14:49:00,0.04,rain,25.26,2020-10-14 13:15:00,14.38,2020-10-15 05:04:00,24.98,2020-10-14 13:15:00,15.08,2020-10-15 05:17:00,15.2,0.84,1010.5,1.05,2.11,1602629820,121,0.37,7,1602658560,16.093,252.3,14.9,2020-10-14 01:25:00,25.26,2020-10-14 13:15:00,15.72,2020-10-14 04:47:00,24.98,2020-10-14 13:15:00
Dadeldhura,Dailekh,29.12785778,80.34740778,2020-10-14 00:00:00,Humid and partly cloudy throughout the day.,partly-cloudy-day,2020-10-14 06:26:00,2020-10-14 17:56:00,0.91,0.0062,0.0397,2020-10-14 14:46:00,0.03,rain,32.44,2020-10-14 13:49:00,20.45,2020-10-15 05:30:00,34.22,2020-10-14 15:17:00,21.02,2020-10-15 05:30:00,20.07,0.73,1009.4,1.48,2.94,1602625380,26,0.34,7,1602658980,16.093,254.4,20.4,2020-10-14 05:27:00,32.44,2020-10-14 13:49:00,20.95,2020-10-14 05:26:00,34.22,2020-10-14 15:17:00
Dadeldhura,Sahukharka,29.288393100000004,80.37301500000001,2020-10-14 00:00:00,Partly cloudy throughout the day.,partly-cloudy-day,2020-10-14 06:26:00,2020-10-14 17:56:00,0.91,0.0086,0.0593,2020-10-14 14:46:00,0.03,rain,26.5,2020-10-14 13:16:00,15.91,2020-10-15 05:30:00,26.22,2020-10-14 13:16:00,16.58,2020-10-15 05:39:00,17.01,0.85,1010.0,1.31,2.74,1602630000,35,0.34,7,1602658920,16.093,253.0,16.55,2020-10-14 04:57:00,26.5,2020-10-14 13:16:00,17.27,2020-10-14 04:54:00,26.22,2020-10-14 13:16:00
Dailekh,Bale Budha (Tallo Dhungeshwor),28.83811111,81.70848333,2020-10-14 00:00:00,Humid and partly cloudy throughout the day.,partly-cloudy-day,2020-10-14 06:20:00,2020-10-14 17:51:00,0.91,0.0352,0.1885,2020-10-14 02:41:00,0.08,rain,28.58,2020-10-14 13:30:00,17.32,2020-10-15 06:15:00,28.8,2020-10-14 13:40:00,17.59,2020-10-15 06:15:00,17.1,0.76,1010.7,1.3,2.59,1602630900,89,0.33,7,1602655260,16.093,251.1,17.55,2020-10-14 05:42:00,28.58,2020-10-14 13:30:00,17.82,2020-10-14 05:42:00,28.8,2020-10-14 13:40:00
Dailekh,Katti,28.92202778,81.62608333,2020-10-14 00:00:00,Partly cloudy throughout the day.,partly-cloudy-day,2020-10-14 06:20:00,2020-10-14 17:51:00,0.91,0.0195,0.0715,2020-10-14 02:38:00,0.05,rain,28.39,2020-10-14 13:35:00,17.24,2020-10-15 06:16:00,28.16,2020-10-14 13:55:00,17.51,2020-10-15 06:16:00,15.19,0.69,1010.7,1.4,3.28,1602631140,54,0.32,7,1602653400,16.093,251.1,17.43,2020-10-14 05:40:00,28.39,2020-10-14 13:35:00,17.7,2020-10-14 05:40:00,28.16,2020-10-14 13:55:00
Dailekh,Nayabasti (Dang),28.78022222,81.82144444,2020-10-14 00:00:00,Humid and partly cloudy throughout the day.,partly-cloudy-day,2020-10-14 06:19:00,2020-10-14 17:50:00,0.91,0.0478,0.2504,2020-10-14 02:42:00,0.1,rain,29.03,2020-10-14 13:41:00,17.7,2020-10-15 06:11:00,29.35,2020-10-14 13:48:00,17.97,2020-10-15 06:11:00,17.83,0.77,1010.9,1.19,2.36,1602630780,112,0.32,7,1602655920,16.093,251.1,17.85,2020-10-14 05:46:00,29.03,2020-10-14 13:41:00,18.12,2020-10-14 05:46:00,29.35,2020-10-14 13:48:00
Dailekh,Ranimatta,28.90711111,81.75019167,2020-10-14 00:00:00,Partly cloudy throughout the day.,partly-cloudy-day,2020-10-14 06:20:00,2020-10-14 17:50:00,0.91,0.0316,0.1566,2020-10-14 02:39:00,0.07,rain,26.11,2020-10-14 13:14:00,16.06,2020-10-15 06:20:00,25.83,2020-10-14 13:13:00,16.33,2020-10-15 06:20:00,14.44,0.74,1011.0,1.43,2.95,1602630840,97,0.33,7,1602654360,16.093,249.8,16.56,2020-10-14 05:44:00,26.11,2020-10-14 13:14:00,16.83,2020-10-14 05:44:00,25.83,2020-10-14 13:13:00
Dang,Ghorahi (Masina),28.13174722,82.30278333,2020-10-14 00:00:00,Humid and partly cloudy throughout the day.,partly-cloudy-day,2020-10-14 06:17:00,2020-10-14 17:49:00,0.91,0.0144,0.0507,2020-10-14 02:54:00,0.04,rain,31.07,2020-10-14 14:04:00,20.25,2020-10-15 05:30:00,32.47,2020-10-14 14:37:00,20.69,2020-10-15 05:35:00,20.73,0.8,1009.3,1.37,2.17,1602665520,69,0.34,6,1602656580,16.093,253.1,19.88,2020-10-14 05:31:00,31.07,2020-10-14 14:04:00,20.6,2020-10-14 05:34:00,32.47,2020-10-14 14:37:00
Dang,Ghorai (Dang),27.69233306,82.52512694,2020-10-14 00:00:00,Partly cloudy throughout the day.,partly-cloudy-day,2020-10-14 06:16:00,2020-10-14 17:48:00,0.91,0.001,0.0062,2020-10-14 00:00:00,0.01,rain,33.01,2020-10-14 13:49:00,22.19,2020-10-15 05:00:00,34.84,2020-10-14 13:53:00,22.75,2020-10-15 05:02:00,20.42,0.69,1007.3,1.39,1.92,1602659760,60,0.22,7,1602656820,16.093,256.2,22.19,2020-10-14 04:43:00,33.01,2020-10-14 13:49:00,23.03,2020-10-14 04:46:00,34.84,2020-10-14 13:53:00
Dang,Koilabas,28.05,82.5,2020-10-14 00:00:00,Humid and partly cloudy throughout the day.,partly-cloudy-day,2020-10-14 06:16:00,2020-10-14 17:48:00,0.91,0.0113,0.0531,2020-10-14 14:51:00,0.03,rain,31.12,2020-10-14 14:03:00,20.92,2020-10-15 05:32:00,32.29,2020-10-14 14:33:00,21.22,2020-10-15 05:35:00,20.53,0.78,1009.1,1.36,2.2,1602666000,52,0.31,6,1602657900,16.093,253.5,20.85,2020-10-14 05:36:00,31.12,2020-10-14 14:03:00,21.51,2020-10-14 05:38:00,32.29,2020-10-14 14:33:00
Dang,Lalmatiya,27.87055556,82.53666667,2020-10-14 00:00:00,Humid and partly cloudy throughout the day.,partly-cloudy-day,2020-10-14 06:16:00,2020-10-14 17:48:00,0.91,0.0029,0.0124,2020-10-14 12:39:00,0.02,rain,33.87,2020-10-14 14:00:00,21.67,2020-10-15 05:15:00,36.7,2020-10-14 14:23:00,22.17,2020-10-15 05:18:00,21.45,0.72,1008.2,1.37,2.05,1602665460,51,0.27,6,1602657780,16.093,254.9,21.98,2020-10-14 04:58:00,33.87,2020-10-14 14:00:00,22.79,2020-10-14 05:03:00,36.7,2020-10-14 14:23:00
Dang,Lamahi,27.88486889,82.33509611,2020-10-14 00:00:00,Humid and partly cloudy throughout the day.,partly-cloudy-day,2020-10-14 06:17:00,2020-10-14 17:49:00,0.91,0.0185,0.1271,2020-10-14 02:54:00,0.04,rain,33.95,2020-10-14 14:07:00,22.2,2020-10-15 05:07:00,36.96,2020-10-14 14:41:00,22.89,2020-10-15 05:12:00,21.96,0.73,1007.9,1.4,2.18,1602665280,62,0.28,6,1602658080,16.093,254.9,22.47,2020-10-14 05:05:00,33.95,2020-10-14 14:07:00,23.35,2020-10-14 05:10:00,36.96,2020-10-14 14:41:00
Dang,Padhampur,28.03719889,82.484156,2020-10-14 00:00:00,Humid and partly cloudy throughout the day.,partly-cloudy-day,2020-10-14 06:16:00,2020-10-14 17:48:00,0.91,0.01,0.04,2020-10-14 14:51:00,0.03,rain,31.14,2020-10-14 14:06:00,21.1,2020-10-15 05:31:00,32.29,2020-10-14 14:38:00,21.41,2020-10-15 05:34:00,20.5,0.77,1009.0,1.36,2.18,1602666000,52,0.31,6,1602657960,16.093,253.6,21.01,2020-10-14 05:33:00,31.14,2020-10-14 14:06:00,21.68,2020-10-14 05:35:00,32.29,2020-10-14 14:38:00
Dang,Tulsipur,28.201323,82.1393939,2020-10-14 00:00:00,Humid and partly cloudy throughout the day.,partly-cloudy-day,2020-10-14 06:18:00,2020-10-14 17:49:00,0.91,0.0125,0.0541,2020-10-14 03:03:00,0.03,rain,30.93,2020-10-14 13:45:00,20.46,2020-10-15 05:55:00,32.28,2020-10-14 14:18:00,20.91,2020-10-15 05:57:00,20.67,0.79,1009.2,1.37,2.17,1602664860,81,0.34,7,1602657000,16.093,253.0,20.24,2020-10-14 05:37:00,30.93,2020-10-14 13:45:00,20.92,2020-10-14 05:38:00,32.28,2020-10-14 14:18:00
Darchula,Darchula New,29.666666999999997,80.55,2020-10-14 00:15:00,Partly cloudy throughout the day.,partly-cloudy-day,2020-10-14 06:25:00,2020-10-14 17:55:00,0.91,0.0017,0.0082,2020-10-14 17:45:00,0.01,rain,30.74,2020-10-14 14:11:00,17.29,2020-10-15 06:09:00,30.46,2020-10-14 14:11:00,17.56,2020-10-15 06:09:00,11.36,0.52,1011.5,1.15,2.34,1602629520,100,0.32,6,1602655920,16.093,252.0,17.08,2020-10-14 06:08:00,30.74,2020-10-14 14:11:00,17.35,2020-10-14 06:08:00,30.46,2020-10-14 14:11:00
Darchula,Dhaulatiya (Dallekhdhar),29.78255194,80.82215806,2020-10-14 00:00:00,Partly cloudy throughout the day.,partly-cloudy-day,2020-10-14 06:24:00,2020-10-14 17:53:00,0.91,0.0013,0.0051,2020-10-14 17:45:00,0.01,rain,22.29,2020-10-14 13:32:00,12.0,2020-10-15 00:47:00,22.01,2020-10-14 13:32:00,12.27,2020-10-15 00:47:00,1.31,0.41,1013.7,1.58,3.27,1602629220,123,0.36,6,1602655680,16.093,248.1,12.08,2020-10-15 00:00:00,22.29,2020-10-14 13:32:00,12.35,2020-10-15 00:00:00,22.01,2020-10-14 13:32:00
Darchula,Gokuleshwar,29.84287806,80.53884806,2020-10-14 00:15:00,Partly cloudy throughout the day.,partly-cloudy-day,2020-10-14 06:25:00,2020-10-14 17:54:00,0.91,0.0,0.0,2020-10-14 17:45:00,0.0,,27.53,2020-10-14 13:40:00,15.82,2020-10-15 01:11:00,27.25,2020-10-14 13:40:00,16.09,2020-10-15 01:11:00,5.19,0.4,1012.2,1.31,2.69,1602629700,41,0.32,7,1602655020,16.093,250.7,15.87,2020-10-14 05:46:00,27.53,2020-10-14 13:40:00,16.14,2020-10-14 05:46:00,27.25,2020-10-14 13:40:00
Darchula,Lumpthi,29.84496194,80.54539389,2020-10-14 00:15:00,Partly cloudy throughout the day.,partly-cloudy-day,2020-10-14 06:25:00,2020-10-14 17:54:00,0.91,0.0,0.0,2020-10-14 17:45:00,0.0,,27.41,2020-10-14 13:37:00,15.71,2020-10-15 01:10:00,27.13,2020-10-14 13:37:00,15.98,2020-10-15 01:10:00,5.01,0.4,1012.3,1.32,2.72,1602629700,45,0.32,7,1602654960,16.093,250.6,15.74,2020-10-14 05:45:00,27.41,2020-10-14 13:37:00,16.01,2020-10-14 05:45:00,27.13,2020-10-14 13:37:00
Dhading,Dhading,28.05,84.82,2020-10-14 00:00:00,Partly cloudy throughout the day.,partly-cloudy-day,2020-10-14 06:07:00,2020-10-14 17:39:00,0.91,0.0064,0.0284,2020-10-14 15:12:00,0.02,rain,29.91,2020-10-14 13:44:00,18.91,2020-10-15 05:42:00,29.67,2020-10-14 14:18:00,19.18,2020-10-15 05:42:00,14.82,0.59,1010.6,1.07,1.94,1602632460,332,0.47,6,1602652680,16.093,253.6,18.76,2020-10-14 05:42:00,29.91,2020-10-14 13:44:00,19.03,2020-10-14 05:42:00,29.67,2020-10-14 14:18:00
Dhading,Dhunibesi,27.912505600000003,84.8961333,2020-10-14 00:00:00,Partly cloudy throughout the day.,partly-cloudy-day,2020-10-14 06:06:00,2020-10-14 17:38:00,0.91,0.0098,0.036,2020-10-14 02:49:00,0.03,rain,31.91,2020-10-14 14:04:00,19.45,2020-10-15 05:42:00,32.1,2020-10-14 14:34:00,19.72,2020-10-15 05:42:00,16.84,0.62,1010.1,0.99,1.84,1602632580,278,0.46,7,1602654240,16.093,254.6,19.26,2020-10-14 05:41:00,31.91,2020-10-14 14:04:00,19.53,2020-10-14 05:41:00,32.1,2020-10-14 14:34:00
Dhading,Gajuri,27.8053359,84.7055012,2020-10-14 00:00:00,Humid and partly cloudy throughout the day.,partly-cloudy-day,2020-10-14 06:07:00,2020-10-14 17:39:00,0.91,0.0216,0.0826,2020-10-14 03:11:00,0.07,rain,33.16,2020-10-14 14:07:00,20.17,2020-10-15 05:36:00,35.11,2020-10-14 14:36:00,20.62,2020-10-15 05:39:00,20.06,0.73,1009.6,0.95,1.79,1602631440,106,0.38,6,1602652500,16.093,255.8,19.26,2020-10-14 05:37:00,33.16,2020-10-14 14:07:00,19.86,2020-10-14 05:39:00,35.11,2020-10-14 14:36:00
Dhading,Majhimtar,27.72311667,85.1642,2020-10-14 00:00:00,Partly cloudy throughout the day.,partly-cloudy-day,2020-10-14 06:05:00,2020-10-14 17:38:00,0.91,0.0283,0.0887,2020-10-14 05:35:00,0.07,rain,30.46,2020-10-14 13:01:00,17.62,2020-10-15 05:43:00,30.6,2020-10-14 13:03:00,17.89,2020-10-15 05:43:00,18.83,0.78,1010.1,0.88,2.31,1602664380,355,0.41,7,1602654060,16.093,254.1,18.06,2020-10-14 05:44:00,30.46,2020-10-14 13:01:00,18.49,2020-10-14 05:49:00,30.6,2020-10-14 13:03:00
Dhading,Pakhribas,27.802707399999996,84.8797782,2020-10-14 00:00:00,Partly cloudy throughout the day.,partly-cloudy-day,2020-10-14 06:06:00,2020-10-14 17:39:00,0.91,0.0162,0.0788,2020-10-14 02:50:00,0.06,rain,33.21,2020-10-14 14:18:00,19.87,2020-10-15 05:43:00,34.25,2020-10-14 14:39:00,20.24,2020-10-15 05:44:00,19.12,0.7,1010.0,0.94,1.84,1602632460,241,0.39,7,1602654240,16.093,255.0,19.5,2020-10-14 05:42:00,33.21,2020-10-14 14:18:00,19.95,2020-10-14 05:43:00,34.25,2020-10-14 14:39:00
Dhankuta,Barahkshetra,26.91424278,87.15986,2020-10-14 00:00:00,Humid throughout the day.,clear-day,2020-10-14 05:57:00,2020-10-14 17:30:00,0.91,0.0055,0.026,2020-10-14 23:34:00,0.06,rain,32.55,2020-10-14 13:26:00,22.59,2020-10-15 05:39:00,38.8,2020-10-14 14:43:00,23.28,2020-10-15 05:40:00,22.55,0.78,1008.9,1.3,2.42,1602699300,29,0.19,8,1602654660,16.093,260.2,22.3,2020-10-14 05:32:00,32.55,2020-10-14 13:26:00,22.98,2020-10-14 05:32:00,38.8,2020-10-14 14:43:00
Dhankuta,Dhankuta,26.93805556,87.15472222,2020-10-14 00:00:00,Humid throughout the day.,clear-day,2020-10-14 05:57:00,2020-10-14 17:30:00,0.91,0.006,0.0268,2020-10-14 23:30:00,0.06,rain,32.2,2020-10-14 13:22:00,22.33,2020-10-15 05:43:00,38.5,2020-10-14 14:43:00,23.0,2020-10-15 05:44:00,22.53,0.8,1009.1,1.29,2.45,1602631620,29,0.19,8,1602654720,16.093,259.9,22.1,2020-10-14 05:39:00,32.2,2020-10-14 13:22:00,22.78,2020-10-14 05:39:00,38.5,2020-10-14 14:43:00
Dhankuta,Dhankuta,27.0500025,87.24444444,2020-10-14 00:00:00,Clear throughout the day.,clear-day,2020-10-14 05:56:00,2020-10-14 17:30:00,0.91,0.0086,0.0373,2020-10-14 20:46:00,0.08,rain,25.39,2020-10-14 12:56:00,16.72,2020-10-15 05:45:00,25.54,2020-10-14 13:00:00,17.2,2020-10-15 05:45:00,18.24,0.91,1009.5,1.22,2.88,1602632040,34,0.2,9,1602654840,16.093,258.8,16.91,2020-10-14 05:41:00,25.39,2020-10-14 12:56:00,17.47,2020-10-14 05:42:00,25.54,2020-10-14 13:00:00
Dhankuta,Leguwa Ghat,27.04633889,87.2925,2020-10-14 00:00:00,Clear throughout the day.,clear-day,2020-10-14 05:56:00,2020-10-14 17:30:00,0.91,0.0225,0.0518,2020-10-14 20:41:00,0.1,rain,25.28,2020-10-14 12:52:00,15.71,2020-10-15 05:40:00,25.45,2020-10-14 12:57:00,16.28,2020-10-15 05:40:00,18.07,0.93,1009.6,1.21,2.87,1602632040,36,0.22,9,1602654780,16.093,258.7,15.67,2020-10-14 05:37:00,25.28,2020-10-14 12:52:00,16.31,2020-10-14 05:38:00,25.45,2020-10-14 12:57:00
Dhankuta,Muga,27.15338889,87.28919444,2020-10-14 00:00:00,Humid throughout the day.,clear-day,2020-10-14 05:56:00,2020-10-14 17:29:00,0.91,0.0244,0.0668,2020-10-14 15:56:00,0.11,rain,30.63,2020-10-14 13:27:00,19.12,2020-10-15 05:48:00,33.61,2020-10-14 14:43:00,19.68,2020-10-15 05:48:00,20.31,0.81,1010.1,1.03,2.33,1602657360,102,0.25,8,1602654960,16.093,257.9,18.72,2020-10-14 05:42:00,30.63,2020-10-14 13:27:00,19.28,2020-10-14 05:43:00,33.61,2020-10-14 14:43:00
Dhankuta,Mul Ghat,26.98321944,87.34595556,2020-10-14 00:00:00,Clear throughout the day.,clear-day,2020-10-14 05:56:00,2020-10-14 17:29:00,0.91,0.0419,0.0994,2020-10-14 16:40:00,0.11,rain,26.19,2020-10-14 12:46:00,18.0,2020-10-15 05:43:00,26.29,2020-10-14 12:50:00,18.7,2020-10-15 05:44:00,18.98,0.9,1009.5,1.28,2.94,1602631680,34,0.24,8,1602654540,16.093,259.1,17.85,2020-10-14 05:38:00,26.19,2020-10-14 12:46:00,18.57,2020-10-14 05:40:00,26.29,2020-10-14 12:50:00
Dhankuta,Mul Ghat,26.98321944,87.34595556,2020-10-14 00:00:00,Clear throughout the day.,clear-day,2020-10-14 05:56:00,2020-10-14 17:29:00,0.91,0.0419,0.0994,2020-10-14 16:40:00,0.11,rain,26.19,2020-10-14 12:46:00,18.0,2020-10-15 05:43:00,26.29,2020-10-14 12:50:00,18.7,2020-10-15 05:44:00,18.98,0.9,1009.5,1.28,2.94,1602631680,34,0.24,8,1602654540,16.093,259.1,17.85,2020-10-14 05:38:00,26.19,2020-10-14 12:46:00,18.57,2020-10-14 05:40:00,26.29,2020-10-14 12:50:00
Dhanusa,Chisapani Bazar,27.01295556,85.92089722,2020-10-14 00:00:00,Humid throughout the day.,clear-day,2020-10-14 06:02:00,2020-10-14 17:35:00,0.91,0.004,0.0247,2020-10-14 08:40:00,0.03,rain,32.45,2020-10-14 14:06:00,23.21,2020-10-15 05:07:00,37.51,2020-10-14 14:27:00,24.25,2020-10-15 05:04:00,23.07,0.79,1007.9,1.58,2.05,1602666000,30,0.2,7,1602655500,16.093,260.4,23.27,2020-10-14 04:47:00,32.45,2020-10-14 14:06:00,24.26,2020-10-14 04:46:00,37.51,2020-10-14 14:27:00
Dhanusa,Janakpur Airport,26.8,85.9833333,2020-10-14 00:00:00,Humid throughout the day.,clear-day,2020-10-14 06:01:00,2020-10-14 17:35:00,0.91,0.0074,0.0584,2020-10-14 08:42:00,0.03,rain,32.91,2020-10-14 14:09:00,23.35,2020-10-15 05:25:00,38.0,2020-10-14 14:35:00,24.54,2020-10-15 05:23:00,22.99,0.76,1007.3,1.32,2.15,1602697860,31,0.19,7,1602656100,16.093,261.7,23.31,2020-10-14 04:51:00,32.91,2020-10-14 14:09:00,24.28,2020-10-14 04:52:00,38.0,2020-10-14 14:35:00
Dhanusa,Tulsi,26.71666667,85.96666667,2020-10-14 00:00:00,Humid throughout the day.,clear-day,2020-10-14 06:01:00,2020-10-14 17:35:00,0.91,0.0071,0.0553,2020-10-14 08:42:00,0.03,rain,32.92,2020-10-14 14:10:00,23.26,2020-10-15 05:24:00,37.38,2020-10-14 14:25:00,24.46,2020-10-15 05:22:00,22.73,0.75,1007.2,1.28,2.24,1602697920,32,0.19,7,1602656100,16.093,262.2,23.36,2020-10-14 04:53:00,32.92,2020-10-14 14:10:00,24.34,2020-10-14 04:55:00,37.38,2020-10-14 14:25:00
Dolakha,Charikot,27.67633111,86.10399389,2020-10-14 00:00:00,Partly cloudy throughout the day.,partly-cloudy-day,2020-10-14 06:01:00,2020-10-14 17:34:00,0.91,0.0217,0.0604,2020-10-14 23:35:00,0.12,rain,26.68,2020-10-14 12:55:00,16.81,2020-10-15 05:36:00,26.54,2020-10-14 12:56:00,17.08,2020-10-15 05:36:00,17.05,0.83,1011.4,1.26,2.54,1602631020,194,0.37,7,1602654360,16.093,251.9,16.82,2020-10-14 05:38:00,26.68,2020-10-14 12:55:00,17.09,2020-10-14 05:38:00,26.54,2020-10-14 12:56:00
Dolakha,Dunai,27.63333333,86.13333333,2020-10-14 00:00:00,Partly cloudy throughout the day.,partly-cloudy-day,2020-10-14 06:01:00,2020-10-14 17:34:00,0.91,0.028,0.0838,2020-10-14 23:41:00,0.14,rain,25.98,2020-10-14 12:53:00,15.62,2020-10-15 06:14:00,26.05,2020-10-14 12:54:00,15.89,2020-10-15 06:14:00,18.11,0.91,1011.1,1.25,2.62,1602629700,181,0.35,8,1602654360,16.093,252.3,15.96,2020-10-14 06:02:00,25.98,2020-10-14 12:53:00,16.3,2020-10-14 05:45:00,26.05,2020-10-14 12:54:00
Dolakha,Jiri,27.6666667,86.05,2020-10-14 00:00:00,Partly cloudy throughout the day.,partly-cloudy-day,2020-10-14 06:02:00,2020-10-14 17:34:00,0.91,0.0135,0.0392,2020-10-14 15:41:00,0.1,rain,23.85,2020-10-14 13:00:00,14.31,2020-10-15 05:44:00,23.74,2020-10-14 13:01:00,14.58,2020-10-15 05:44:00,16.54,0.94,1011.1,1.19,2.38,1602630960,204,0.4,7,1602654180,16.093,252.3,14.43,2020-10-14 05:42:00,23.85,2020-10-14 13:00:00,14.83,2020-10-14 05:39:00,23.74,2020-10-14 13:01:00
Dolakha,Nagdaha,27.616666700000003,86.35,2020-10-14 00:00:00,Partly cloudy throughout the day.,partly-cloudy-day,2020-10-14 06:00:00,2020-10-14 17:33:00,0.91,0.0701,0.1934,2020-10-14 23:43:00,0.23,rain,18.12,2020-10-14 12:35:00,10.44,2020-10-15 05:50:00,18.64,2020-10-14 12:42:00,10.71,2020-10-15 05:50:00,13.06,1.0,1011.9,1.27,2.64,1602656700,192,0.37,8,1602654000,16.093,250.6,10.59,2020-10-14 05:45:00,18.12,2020-10-14 12:35:00,11.18,2020-10-14 05:41:00,18.64,2020-10-14 12:42:00
Dolpa,Kaigaun,29.03154722,82.76287778,2020-10-14 00:00:00,Clear throughout the day.,clear-day,2020-10-14 06:16:00,2020-10-14 17:46:00,0.91,0.0013,0.0051,2020-10-14 17:45:00,0.05,rain,18.03,2020-10-14 12:41:00,6.21,2020-10-15 00:26:00,17.75,2020-10-14 12:41:00,6.48,2020-10-15 00:26:00,6.84,0.83,1014.9,1.18,2.58,1602665220,11,0.23,9,1602655680,16.093,244.0,6.23,2020-10-15 00:00:00,18.03,2020-10-14 12:41:00,6.5,2020-10-15 00:00:00,17.75,2020-10-14 12:41:00
Dolpa,Silgadhi Doti,28.98363333,82.82074444,2020-10-14 00:00:00,Clear throughout the day.,clear-day,2020-10-14 06:16:00,2020-10-14 17:46:00,0.91,0.0013,0.0049,2020-10-14 17:45:00,0.04,rain,18.0,2020-10-14 12:41:00,6.47,2020-10-15 06:21:00,17.72,2020-10-14 12:41:00,6.74,2020-10-15 06:21:00,6.8,0.82,1014.7,1.21,2.58,1602664680,25,0.24,9,1602655320,16.093,244.2,6.48,2020-10-15 00:00:00,18.0,2020-10-14 12:41:00,6.75,2020-10-15 00:00:00,17.72,2020-10-14 12:41:00
Doti,Dipayal (Doti),29.12015194,80.70944778,2020-10-14 00:00:00,Partly cloudy throughout the day.,partly-cloudy-day,2020-10-14 06:24:00,2020-10-14 17:54:00,0.91,0.007,0.0389,2020-10-14 15:40:00,0.05,rain,27.21,2020-10-14 13:13:00,16.89,2020-10-15 06:10:00,27.4,2020-10-14 13:18:00,17.34,2020-10-15 06:18:00,17.46,0.84,1010.4,1.0,1.89,1602629100,100,0.43,7,1602658380,16.093,253.2,16.95,2020-10-14 05:21:00,27.21,2020-10-14 13:13:00,17.57,2020-10-14 05:32:00,27.4,2020-10-14 13:18:00
Doti,Dumrakot,29.16385278,80.600738,2020-10-14 00:00:00,Partly cloudy throughout the day.,partly-cloudy-day,2020-10-14 06:25:00,2020-10-14 17:55:00,0.91,0.0069,0.0449,2020-10-14 14:57:00,0.05,rain,25.33,2020-10-14 13:17:00,15.04,2020-10-15 06:19:00,25.05,2020-10-14 13:16:00,15.57,2020-10-15 06:26:00,15.96,0.87,1009.9,1.13,2.19,1602629400,88,0.39,7,1602658620,16.093,253.2,15.48,2020-10-14 00:22:00,25.33,2020-10-14 13:17:00,16.07,2020-10-14 06:28:00,25.05,2020-10-14 13:16:00
Doti,Gaira,29.34106083,81.045105,2020-10-14 00:00:00,Partly cloudy throughout the day.,partly-cloudy-day,2020-10-14 06:23:00,2020-10-14 17:53:00,0.91,0.0031,0.018,2020-10-14 00:00:00,0.03,rain,24.09,2020-10-14 13:44:00,13.38,2020-10-14 23:44:00,23.81,2020-10-14 13:44:00,13.65,2020-10-14 23:43:00,9.21,0.66,1010.8,1.13,2.72,1602631080,53,0.35,8,1602657540,16.093,251.1,13.38,2020-10-14 23:44:00,24.09,2020-10-14 13:44:00,13.65,2020-10-14 23:43:00,23.81,2020-10-14 13:44:00
Doti,Jhingrana,29.26209694,80.93690083,2020-10-14 00:00:00,Partly cloudy throughout the day.,partly-cloudy-day,2020-10-14 06:23:00,2020-10-14 17:53:00,0.91,0.0019,0.0148,2020-10-14 00:00:00,0.05,rain,30.37,2020-10-14 13:52:00,17.6,2020-10-15 05:41:00,30.09,2020-10-14 13:51:00,17.87,2020-10-15 05:41:00,15.67,0.69,1011.4,0.95,2.16,1602631320,60,0.41,7,1602657000,16.093,252.1,17.64,2020-10-14 05:40:00,30.37,2020-10-14 13:52:00,17.91,2020-10-14 05:40:00,30.09,2020-10-14 13:51:00
Doti,Khaptad,29.0,81.13333333,2020-10-14 00:00:00,Partly cloudy throughout the day.,partly-cloudy-day,2020-10-14 06:22:00,2020-10-14 17:53:00,0.91,0.0102,0.0949,2020-10-14 00:00:00,0.06,rain,28.53,2020-10-14 13:40:00,18.08,2020-10-15 05:38:00,28.25,2020-10-14 13:45:00,18.35,2020-10-15 05:38:00,16.95,0.77,1009.9,1.08,2.51,1602631740,1,0.41,6,1602656760,16.093,253.8,18.19,2020-10-14 05:17:00,28.53,2020-10-14 13:40:00,18.48,2020-10-14 06:19:00,28.25,2020-10-14 13:45:00
Doti,Kola Gaun,29.38804889,81.14630111,2020-10-14 00:00:00,Partly cloudy throughout the day.,partly-cloudy-day,2020-10-14 06:22:00,2020-10-14 17:52:00,0.91,0.0027,0.0118,2020-10-14 00:00:00,0.02,rain,23.17,2020-10-14 13:34:00,10.87,2020-10-15 05:35:00,22.89,2020-10-14 13:34:00,11.14,2020-10-15 05:35:00,7.72,0.66,1011.2,1.25,3.05,1602631380,50,0.32,9,1602656760,16.093,250.2,11.01,2020-10-14 05:39:00,23.17,2020-10-14 13:34:00,11.28,2020-10-14 05:39:00,22.89,2020-10-14 13:34:00
Gorkha,Barpak,28.2,84.73333333,2020-10-13 21:45:00,Partly cloudy throughout the day.,partly-cloudy-day,2020-10-14 06:07:00,2020-10-14 17:39:00,0.91,0.0114,0.0739,2020-10-14 15:38:00,0.07,rain,24.51,2020-10-14 12:04:00,16.87,2020-10-14 23:53:00,24.23,2020-10-14 12:04:00,17.14,2020-10-14 23:53:00,13.08,0.67,1011.3,1.41,2.67,1602631920,4,0.36,6,1602652920,15.138,250.3,16.8,2020-10-14 01:36:00,24.51,2020-10-14 12:04:00,17.07,2020-10-14 01:36:00,24.23,2020-10-14 12:04:00
Gorkha,Chhekampar,27.97138889,84.58944444,2020-10-14 00:00:00,Partly cloudy throughout the day.,partly-cloudy-day,2020-10-14 06:08:00,2020-10-14 17:40:00,0.91,0.0171,0.0478,2020-10-14 02:54:00,0.04,rain,31.69,2020-10-14 14:24:00,18.69,2020-10-15 05:42:00,32.0,2020-10-14 14:45:00,18.96,2020-10-15 05:42:00,16.62,0.63,1009.5,0.83,1.5,1602699300,138,0.37,7,1602656760,16.093,255.4,18.46,2020-10-14 05:39:00,31.69,2020-10-14 14:24:00,18.73,2020-10-14 05:39:00,32.0,2020-10-14 14:45:00
Gorkha,Chumchet,28.48333333,85.0,2020-10-13 21:45:00,Clear throughout the day.,clear-day,2020-10-14 06:06:00,2020-10-14 17:38:00,0.91,0.0062,0.0296,2020-10-14 15:09:00,0.12,rain,10.43,2020-10-14 11:50:00,4.65,2020-10-14 17:40:00,10.63,2020-10-14 11:46:00,5.39,2020-10-15 05:45:00,6.4,1.0,1014.8,1.0,2.74,1602656400,67,0.29,10,1602655380,15.933,243.4,4.65,2020-10-14 17:40:00,10.43,2020-10-14 11:50:00,5.45,2020-10-14 06:21:00,10.63,2020-10-14 11:46:00
Gorkha,Gorkha,28.66666667,84.61666667,2020-10-13 21:45:00,Partly cloudy throughout the day.,partly-cloudy-day,2020-10-14 06:08:00,2020-10-14 17:39:00,0.91,0.0056,0.021,2020-10-14 14:59:00,0.15,rain,4.46,2020-10-14 13:28:00,-2.19,2020-10-15 05:41:00,2.76,2020-10-14 13:33:00,-1.92,2020-10-15 05:41:00,0.56,1.0,1015.9,1.16,2.47,1602658620,280,0.4,9,1602657660,16.058,240.7,-1.96,2020-10-14 05:45:00,4.46,2020-10-14 13:28:00,-1.69,2020-10-14 05:45:00,2.76,2020-10-14 13:33:00
Gorkha,Laprak,28.2,84.75,2020-10-13 21:45:00,Partly cloudy throughout the day.,partly-cloudy-day,2020-10-14 06:07:00,2020-10-14 17:39:00,0.91,0.0115,0.0759,2020-10-14 15:37:00,0.07,rain,23.28,2020-10-14 11:59:00,15.42,2020-10-15 05:45:00,23.0,2020-10-14 11:58:00,15.69,2020-10-15 05:45:00,12.92,0.73,1011.1,1.4,2.7,1602631980,3,0.36,6,1602652980,15.157,250.2,14.79,2020-10-14 06:28:00,23.28,2020-10-14 11:59:00,15.06,2020-10-14 06:28:00,23.0,2020-10-14 11:58:00
Gorkha,Sama Gaun,28.42693611,84.90264444,2020-10-13 21:45:00,Partly cloudy throughout the day.,partly-cloudy-day,2020-10-14 06:07:00,2020-10-14 17:38:00,0.91,0.0077,0.0428,2020-10-14 15:21:00,0.12,rain,13.66,2020-10-14 11:48:00,6.98,2020-10-14 22:44:00,13.38,2020-10-14 11:48:00,7.25,2020-10-14 22:44:00,8.28,0.95,1014.8,1.08,2.63,1602656400,40,0.32,9,1602655260,14.73,244.4,6.89,2020-10-13 23:55:00,13.66,2020-10-14 11:48:00,7.16,2020-10-13 23:55:00,13.38,2020-10-14 11:48:00
Gulmi,Darma,27.9365,83.33811667,2020-10-14 00:00:00,Partly cloudy throughout the day.,partly-cloudy-day,2020-10-14 06:13:00,2020-10-14 17:45:00,0.91,0.0155,0.058,2020-10-14 03:10:00,0.03,rain,29.06,2020-10-14 13:45:00,18.0,2020-10-15 05:30:00,28.78,2020-10-14 13:45:00,18.27,2020-10-15 05:30:00,13.97,0.6,1009.6,1.26,1.93,1602628320,350,0.31,7,1602656160,16.093,253.4,17.77,2020-10-14 05:35:00,29.06,2020-10-14 13:45:00,18.04,2020-10-14 05:35:00,28.78,2020-10-14 13:45:00
Gulmi,Musikot,27.93856667,83.44315278,2020-10-14 00:00:00,Partly cloudy throughout the day.,partly-cloudy-day,2020-10-14 06:12:00,2020-10-14 17:44:00,0.91,0.0109,0.0372,2020-10-14 02:50:00,0.02,rain,32.08,2020-10-14 13:59:00,19.36,2020-10-15 05:31:00,31.92,2020-10-14 14:23:00,19.63,2020-10-15 05:31:00,15.26,0.57,1009.8,1.23,1.96,1602625440,339,0.28,7,1602656940,16.093,253.3,18.76,2020-10-14 05:39:00,32.08,2020-10-14 13:59:00,19.03,2020-10-14 05:39:00,31.92,2020-10-14 14:23:00
Gulmi,Tamghas,28.16998056,83.26802778,2020-10-14 00:00:00,Partly cloudy throughout the day.,partly-cloudy-day,2020-10-14 06:13:00,2020-10-14 17:45:00,0.91,0.0248,0.1877,2020-10-14 15:46:00,0.06,rain,25.83,2020-10-14 13:47:00,14.98,2020-10-15 05:36:00,25.55,2020-10-14 13:47:00,15.25,2020-10-15 05:36:00,11.8,0.64,1011.2,1.51,2.3,1602629760,351,0.37,6,1602657240,16.093,251.3,14.83,2020-10-14 06:16:00,25.83,2020-10-14 13:47:00,15.1,2020-10-14 06:16:00,25.55,2020-10-14 13:47:00
Humla,Simikot,29.73056889,82.07185,2020-10-14 00:00:00,Partly cloudy throughout the day.,partly-cloudy-day,2020-10-14 06:19:00,2020-10-14 17:48:00,0.91,0.0013,0.0051,2020-10-14 17:45:00,0.02,rain,22.18,2020-10-14 13:49:00,8.96,2020-10-15 05:10:00,21.9,2020-10-14 13:49:00,9.23,2020-10-15 05:10:00,2.58,0.5,1014.6,1.0,2.79,1602664020,118,0.4,7,1602659280,16.093,246.8,9.08,2020-10-14 04:59:00,22.18,2020-10-14 13:49:00,9.35,2020-10-14 04:59:00,21.9,2020-10-14 13:49:00
Humla,Simikot Airport,29.77827806,81.95264499999999,2020-10-14 00:00:00,Partly cloudy throughout the day.,partly-cloudy-day,2020-10-14 06:20:00,2020-10-14 17:49:00,0.91,0.0013,0.0051,2020-10-14 17:45:00,0.02,rain,23.19,2020-10-14 13:52:00,9.57,2020-10-15 05:10:00,22.91,2020-10-14 13:52:00,9.84,2020-10-15 05:10:00,1.41,0.44,1014.6,0.94,2.51,1602663600,166,0.44,6,1602658740,16.093,247.2,9.58,2020-10-14 05:09:00,23.19,2020-10-14 13:52:00,9.85,2020-10-14 05:09:00,22.91,2020-10-14 13:52:00
Humla,Thali,29.91966194,81.87920194,2020-10-14 00:00:00,Partly cloudy throughout the day.,partly-cloudy-day,2020-10-14 06:20:00,2020-10-14 17:49:00,0.91,0.0013,0.0051,2020-10-14 17:45:00,0.02,rain,16.52,2020-10-14 13:46:00,5.45,2020-10-15 01:27:00,16.24,2020-10-14 13:46:00,5.72,2020-10-15 01:27:00,-0.05,0.55,1016.2,1.09,3.03,1602659880,72,0.47,6,1602655860,16.093,245.0,5.48,2020-10-14 01:16:00,16.52,2020-10-14 13:46:00,5.75,2020-10-14 01:16:00,16.24,2020-10-14 13:46:00
Ilam,Himali Gaun,26.90963889,87.92308333,2020-10-14 00:00:00,Humid and partly cloudy throughout the day.,partly-cloudy-day,2020-10-14 05:54:00,2020-10-14 17:27:00,0.91,0.0706,0.3472,2020-10-14 11:52:00,0.18,rain,27.79,2020-10-14 12:48:00,19.14,2020-10-15 05:37:00,30.1,2020-10-14 13:09:00,19.84,2020-10-15 05:36:00,21.4,0.94,1009.8,1.17,2.2,1602631980,39,0.28,7,1602654900,16.093,259.0,19.42,2020-10-14 05:34:00,27.79,2020-10-14 12:48:00,20.26,2020-10-14 05:31:00,30.1,2020-10-14 13:09:00
Ilam,Ilam Tea Estate,27.06666667,88.0,2020-10-14 00:00:00,Partly cloudy throughout the day.,partly-cloudy-day,2020-10-14 05:53:00,2020-10-14 17:27:00,0.91,0.0974,0.4164,2020-10-14 11:54:00,0.27,rain,20.58,2020-10-14 12:42:00,12.3,2020-10-15 05:45:00,21.37,2020-10-14 12:47:00,13.58,2020-10-15 05:44:00,15.12,1.0,1011.2,0.94,2.03,1602633360,79,0.35,7,1602654240,16.093,256.1,12.56,2020-10-14 05:48:00,20.58,2020-10-14 12:42:00,14.25,2020-10-14 05:44:00,21.37,2020-10-14 12:47:00
Ilam,Kanyam Tea Estate,26.8,87.9,2020-10-14 00:00:00,Humid and partly cloudy throughout the day.,partly-cloudy-day,2020-10-14 05:54:00,2020-10-14 17:27:00,0.91,0.0478,0.2602,2020-10-14 11:51:00,0.11,rain,32.25,2020-10-14 12:53:00,22.52,2020-10-15 05:40:00,37.21,2020-10-14 14:37:00,23.19,2020-10-15 05:40:00,22.58,0.78,1008.7,1.32,2.26,1602612900,11,0.23,7,1602654840,16.093,261.1,22.68,2020-10-14 05:38:00,32.25,2020-10-14 12:53:00,23.45,2020-10-14 05:37:00,37.21,2020-10-14 14:37:00
Ilam,Soktim Tea E,26.88652778,88.02738889,2020-10-14 00:00:00,Partly cloudy throughout the day.,partly-cloudy-day,2020-10-14 05:53:00,2020-10-14 17:27:00,0.91,0.0593,0.3743,2020-10-14 11:49:00,0.15,rain,25.31,2020-10-14 12:44:00,17.62,2020-10-15 05:41:00,25.59,2020-10-14 12:47:00,18.26,2020-10-15 05:40:00,19.45,0.96,1009.6,1.18,2.03,1602632220,30,0.29,7,1602654660,16.093,259.4,17.69,2020-10-15 00:00:00,25.31,2020-10-14 12:44:00,18.6,2020-10-15 00:00:00,25.59,2020-10-14 12:47:00
Jajarkot,Bhanu Thana,28.961315000000003,82.268888,2020-10-14 00:00:00,Partly cloudy throughout the day.,partly-cloudy-day,2020-10-14 06:18:00,2020-10-14 17:48:00,0.91,0.0034,0.0221,2020-10-14 17:43:00,0.06,rain,21.4,2020-10-14 12:57:00,10.44,2020-10-15 01:24:00,21.12,2020-10-14 12:57:00,10.71,2020-10-15 01:24:00,10.05,0.77,1013.4,1.6,3.85,1602630960,94,0.39,8,1602652680,16.093,247.0,10.54,2020-10-15 00:00:00,21.4,2020-10-14 12:57:00,10.81,2020-10-15 00:00:00,21.12,2020-10-14 12:57:00
Jajarkot,Maina Gaun (D.Bas),28.69860389,82.200792,2020-10-14 00:00:00,Clear throughout the day.,clear-day,2020-10-14 06:18:00,2020-10-14 17:49:00,0.91,0.0167,0.0699,2020-10-14 23:45:00,0.07,rain,29.57,2020-10-14 13:55:00,18.02,2020-10-15 06:19:00,29.3,2020-10-14 13:59:00,18.29,2020-10-15 06:19:00,16.37,0.69,1011.0,1.04,2.33,1602630720,46,0.32,7,1602658500,16.093,251.3,18.26,2020-10-14 05:58:00,29.57,2020-10-14 13:55:00,18.53,2020-10-14 05:58:00,29.3,2020-10-14 13:59:00
Jhapa,Anarmani Birta,26.6706658,87.7004293,2020-10-14 00:00:00,Humid throughout the day.,clear-day,2020-10-14 05:54:00,2020-10-14 17:28:00,0.91,0.0363,0.115,2020-10-14 12:55:00,0.08,rain,33.76,2020-10-14 13:39:00,23.97,2020-10-15 05:33:00,38.72,2020-10-14 14:32:00,24.85,2020-10-15 05:32:00,22.95,0.73,1007.6,1.5,2.5,1602691620,29,0.19,8,1602654900,16.093,262.6,23.85,2020-10-14 05:23:00,33.76,2020-10-14 13:39:00,24.74,2020-10-14 05:24:00,38.72,2020-10-14 14:32:00
Jhapa,Chnadra Gadhi,26.39616667,88.00375,2020-10-14 00:00:00,Humid and partly cloudy throughout the day.,partly-cloudy-day,2020-10-14 05:53:00,2020-10-14 17:27:00,0.91,0.0128,0.1061,2020-10-14 20:41:00,0.04,rain,33.29,2020-10-14 14:25:00,22.68,2020-10-15 05:00:00,37.81,2020-10-14 12:33:00,23.54,2020-10-15 04:59:00,22.26,0.73,1007.3,1.65,2.59,1602699000,43,0.25,7,1602654480,16.093,264.4,22.86,2020-10-14 05:18:00,33.29,2020-10-14 14:25:00,23.66,2020-10-14 05:20:00,37.81,2020-10-14 12:33:00
Jhapa,Gaida (Kankai),26.68972222,87.98861111,2020-10-14 00:00:00,Humid and partly cloudy throughout the day.,partly-cloudy-day,2020-10-14 05:53:00,2020-10-14 17:27:00,0.91,0.0268,0.216,2020-10-14 11:45:00,0.06,rain,33.13,2020-10-14 13:31:00,23.32,2020-10-15 05:30:00,38.93,2020-10-14 14:38:00,24.1,2020-10-15 05:29:00,23.09,0.76,1008.1,1.37,2.21,1602693900,17,0.24,7,1602654540,16.093,262.7,23.67,2020-10-14 05:26:00,33.13,2020-10-14 13:31:00,24.57,2020-10-14 05:25:00,38.93,2020-10-14 14:38:00
Jhapa,Jumla,26.5647011,88.0614307,2020-10-14 00:00:00,Humid and partly cloudy throughout the day.,partly-cloudy-day,2020-10-14 05:53:00,2020-10-14 17:27:00,0.91,0.016,0.0769,2020-10-14 20:41:00,0.04,rain,33.14,2020-10-14 13:08:00,22.67,2020-10-15 05:11:00,38.56,2020-10-14 12:48:00,23.46,2020-10-15 05:11:00,22.72,0.74,1007.7,1.57,2.38,1602698340,40,0.23,7,1602654600,16.093,263.6,22.87,2020-10-14 05:11:00,33.14,2020-10-14 13:08:00,23.69,2020-10-14 05:12:00,38.56,2020-10-14 12:48:00
Jhapa,Kechana,26.65688889,87.86072222,2020-10-14 00:00:00,Humid throughout the day.,clear-day,2020-10-14 05:54:00,2020-10-14 17:28:00,0.91,0.0282,0.1303,2020-10-14 11:53:00,0.06,rain,33.38,2020-10-14 13:35:00,23.52,2020-10-15 05:27:00,38.6,2020-10-14 14:35:00,24.38,2020-10-15 05:26:00,23.09,0.75,1007.8,1.45,2.35,1602692880,27,0.22,7,1602654840,16.093,262.8,23.63,2020-10-14 05:21:00,33.38,2020-10-14 13:35:00,24.55,2020-10-14 05:22:00,38.6,2020-10-14 14:35:00
Jhapa,Sanischare,26.625063899999997,87.98858059999999,2020-10-14 00:00:00,Humid and partly cloudy throughout the day.,partly-cloudy-day,2020-10-14 05:53:00,2020-10-14 17:27:00,0.91,0.0226,0.1424,2020-10-14 11:45:00,0.05,rain,33.13,2020-10-14 13:13:00,23.09,2020-10-15 05:17:00,38.69,2020-10-14 14:36:00,23.92,2020-10-15 05:16:00,23.18,0.76,1007.8,1.43,2.27,1602697920,31,0.25,7,1602654600,16.093,263.1,23.39,2020-10-14 05:16:00,33.13,2020-10-14 13:13:00,24.3,2020-10-14 05:17:00,38.69,2020-10-14 14:36:00
Jumla,Dipal Gaun,29.23088056,82.33041944,2020-10-14 00:00:00,Partly cloudy throughout the day.,partly-cloudy-day,2020-10-14 06:18:00,2020-10-14 17:48:00,0.91,0.0014,0.0059,2020-10-14 17:45:00,0.04,rain,19.28,2020-10-14 13:27:00,4.54,2020-10-15 05:41:00,19.0,2020-10-14 13:27:00,3.75,2020-10-15 05:33:00,3.58,0.68,1014.3,1.24,2.53,1602660900,48,0.36,9,1602657660,16.093,243.9,4.35,2020-10-14 05:28:00,19.28,2020-10-14 13:27:00,3.58,2020-10-14 05:22:00,19.0,2020-10-14 13:27:00
Jumla,Jacha,29.43111111,82.10744444,2020-10-14 00:00:00,Partly cloudy throughout the day.,partly-cloudy-day,2020-10-14 06:19:00,2020-10-14 17:49:00,0.91,0.0011,0.0043,2020-10-14 17:45:00,0.02,rain,18.87,2020-10-14 13:24:00,5.29,2020-10-15 05:41:00,18.59,2020-10-14 13:24:00,4.33,2020-10-15 05:37:00,3.13,0.65,1013.9,1.46,2.86,1602662760,64,0.43,8,1602656160,16.093,245.9,5.36,2020-10-14 05:40:00,18.87,2020-10-14 13:24:00,4.4,2020-10-14 05:36:00,18.59,2020-10-14 13:24:00
Jumla,Jumla,29.26385556,82.22301111,2020-10-14 00:00:00,Partly cloudy throughout the day.,partly-cloudy-day,2020-10-14 06:18:00,2020-10-14 17:48:00,0.91,0.0012,0.0046,2020-10-14 17:45:00,0.03,rain,20.83,2020-10-14 13:39:00,5.1,2020-10-15 05:37:00,20.55,2020-10-14 13:39:00,4.19,2020-10-15 05:28:00,3.17,0.63,1014.2,1.28,2.33,1602661020,54,0.42,8,1602657360,16.093,244.6,4.5,2020-10-14 05:06:00,20.83,2020-10-14 13:39:00,3.54,2020-10-14 05:08:00,20.55,2020-10-14 13:39:00
Jumla,Tatopani,29.316667,82.283333,2020-10-14 00:00:00,Partly cloudy throughout the day.,partly-cloudy-day,2020-10-14 06:18:00,2020-10-14 17:48:00,0.91,0.0013,0.0051,2020-10-14 17:45:00,0.03,rain,17.99,2020-10-14 13:34:00,3.63,2020-10-15 05:43:00,17.71,2020-10-14 13:34:00,2.45,2020-10-15 05:34:00,2.69,0.69,1014.1,1.34,2.59,1602660000,56,0.39,9,1602657420,16.093,244.3,3.41,2020-10-14 05:31:00,17.99,2020-10-14 13:34:00,2.23,2020-10-14 05:25:00,17.71,2020-10-14 13:34:00
Kabhre,Budal (Banepa),27.61611667,85.56550278,2020-10-14 00:00:00,Partly cloudy throughout the day.,partly-cloudy-day,2020-10-14 06:04:00,2020-10-14 17:36:00,0.91,0.0709,0.2956,2020-10-14 07:23:00,0.1,rain,26.99,2020-10-14 13:45:00,15.38,2020-10-15 05:37:00,27.43,2020-10-14 13:45:00,15.65,2020-10-15 05:37:00,17.45,0.86,1010.5,0.8,2.21,1602664320,32,0.3,8,1602654240,16.093,254.3,15.57,2020-10-14 05:34:00,26.99,2020-10-14 13:45:00,16.04,2020-10-14 05:37:00,27.43,2020-10-14 13:45:00
Kabhre,Dhulikhel,27.63882194,85.70498083,2020-10-14 00:00:00,Clear throughout the day.,clear-day,2020-10-14 06:03:00,2020-10-14 17:35:00,0.91,0.0187,0.0631,2020-10-14 07:30:00,0.06,rain,30.91,2020-10-14 14:19:00,16.42,2020-10-15 05:43:00,31.49,2020-10-14 14:38:00,16.69,2020-10-15 05:43:00,17.95,0.77,1010.8,0.8,1.9,1602664380,15,0.3,8,1602654660,16.093,254.3,16.45,2020-10-14 05:40:00,30.91,2020-10-14 14:19:00,16.81,2020-10-14 05:41:00,31.49,2020-10-14 14:38:00
Kabhre,Dolal Ghat,27.69382389,85.635637,2020-10-14 00:00:00,Partly cloudy throughout the day.,partly-cloudy-day,2020-10-14 06:03:00,2020-10-14 17:36:00,0.91,0.0203,0.0798,2020-10-14 07:29:00,0.04,rain,29.62,2020-10-14 13:49:00,15.38,2020-10-15 06:03:00,29.59,2020-10-14 13:53:00,15.65,2020-10-15 06:03:00,16.68,0.75,1010.6,0.73,2.01,1602664020,18,0.31,8,1602654720,16.093,253.9,15.84,2020-10-14 05:45:00,29.62,2020-10-14 13:49:00,16.11,2020-10-14 05:45:00,29.59,2020-10-14 13:53:00
Kabhre,Panchkhal,27.63333333,85.51666667,2020-10-14 00:00:00,Partly cloudy throughout the day.,partly-cloudy-day,2020-10-14 06:04:00,2020-10-14 17:36:00,0.91,0.0767,0.325,2020-10-14 07:23:00,0.09,rain,27.16,2020-10-14 13:45:00,15.29,2020-10-15 05:39:00,27.54,2020-10-14 13:46:00,15.56,2020-10-15 05:39:00,17.29,0.84,1010.5,0.77,2.32,1602664260,36,0.3,8,1602654240,16.093,254.1,15.56,2020-10-14 05:35:00,27.16,2020-10-14 13:45:00,15.96,2020-10-14 05:38:00,27.54,2020-10-14 13:46:00
Kailali,Dhangadhi,28.68333333,80.6,2020-10-14 00:00:00,Humid and partly cloudy throughout the day.,partly-cloudy-day,2020-10-14 06:24:00,2020-10-14 17:55:00,0.91,0.0034,0.0189,2020-10-14 14:55:00,0.02,rain,32.83,2020-10-14 13:58:00,22.8,2020-10-15 05:23:00,35.81,2020-10-14 13:20:00,23.65,2020-10-15 05:22:00,21.54,0.73,1007.5,1.22,2.28,1602693960,39,0.38,7,1602657840,16.093,257.2,21.86,2020-10-14 05:23:00,32.83,2020-10-14 13:58:00,22.64,2020-10-14 05:23:00,35.81,2020-10-14 13:20:00
Kailali,Godavari(West),28.554054999999998,80.831765,2020-10-14 00:00:00,Humid throughout the day.,clear-day,2020-10-14 06:23:00,2020-10-14 17:54:00,0.91,0.0017,0.0052,2020-10-14 17:36:00,0.01,rain,33.04,2020-10-14 14:03:00,22.29,2020-10-15 05:32:00,36.12,2020-10-14 16:09:00,23.14,2020-10-15 05:34:00,21.76,0.74,1007.4,1.38,2.55,1602679260,49,0.28,7,1602656400,16.093,256.9,21.97,2020-10-14 05:13:00,33.04,2020-10-14 14:03:00,22.85,2020-10-14 05:14:00,36.12,2020-10-14 16:09:00
Kailali,Malakheti,28.83333333,80.56666667,2020-10-14 00:00:00,Humid and partly cloudy throughout the day.,partly-cloudy-day,2020-10-14 06:24:00,2020-10-14 17:55:00,0.91,0.005,0.0289,2020-10-14 15:08:00,0.03,rain,33.16,2020-10-14 14:12:00,22.56,2020-10-15 05:29:00,36.79,2020-10-14 15:45:00,23.33,2020-10-15 05:29:00,21.5,0.73,1008.2,1.25,2.19,1602696120,42,0.4,7,1602658260,16.093,256.4,21.41,2020-10-14 05:29:00,33.16,2020-10-14 14:12:00,22.1,2020-10-14 05:30:00,36.79,2020-10-14 15:45:00
Kailali,Sitapur,28.66417611,80.97850889,2020-10-14 00:00:00,Humid and partly cloudy throughout the day.,partly-cloudy-day,2020-10-14 06:23:00,2020-10-14 17:54:00,0.91,0.0015,0.0051,2020-10-14 17:42:00,0.01,rain,33.61,2020-10-14 14:15:00,22.85,2020-10-15 05:39:00,36.83,2020-10-14 15:28:00,23.53,2020-10-15 05:44:00,21.57,0.71,1007.9,1.46,2.53,1602699300,47,0.34,7,1602655440,16.093,256.6,22.73,2020-10-14 05:33:00,33.61,2020-10-14 14:15:00,23.53,2020-10-14 05:35:00,36.83,2020-10-14 15:28:00
Kailali,Teghari,28.87623,80.57918889,2020-10-14 00:00:00,Humid and partly cloudy throughout the day.,partly-cloudy-day,2020-10-14 06:24:00,2020-10-14 17:55:00,0.91,0.0057,0.0326,2020-10-14 15:19:00,0.03,rain,32.69,2020-10-14 14:04:00,22.34,2020-10-15 05:32:00,35.77,2020-10-14 15:32:00,23.0,2020-10-15 05:32:00,21.06,0.73,1008.5,1.28,2.19,1602699300,43,0.4,7,1602658380,16.093,256.0,21.37,2020-10-14 05:27:00,32.69,2020-10-14 14:04:00,22.0,2020-10-14 05:27:00,35.77,2020-10-14 15:32:00
Kalikot,Mahendra Nagar,29.09644444,81.70052778,2020-10-14 00:00:00,Partly cloudy throughout the day.,partly-cloudy-day,2020-10-14 06:20:00,2020-10-14 17:50:00,0.91,0.0116,0.0367,2020-10-14 14:59:00,0.04,rain,26.08,2020-10-14 12:58:00,15.01,2020-10-15 06:17:00,25.8,2020-10-14 12:58:00,15.28,2020-10-15 06:17:00,10.59,0.61,1011.8,1.59,3.81,1602631680,50,0.34,7,1602655440,16.093,248.5,15.48,2020-10-14 06:08:00,26.08,2020-10-14 12:58:00,15.75,2020-10-14 06:08:00,25.8,2020-10-14 12:58:00
Kalikot,Manma,29.2495,81.63913889,2020-10-14 00:00:00,Partly cloudy throughout the day.,partly-cloudy-day,2020-10-14 06:20:00,2020-10-14 17:51:00,0.91,0.0022,0.0094,2020-10-14 23:44:00,0.03,rain,25.11,2020-10-14 12:48:00,12.81,2020-10-15 06:21:00,24.83,2020-10-14 12:48:00,13.08,2020-10-15 06:21:00,8.15,0.59,1012.4,1.66,4.29,1602632280,41,0.38,7,1602655800,16.093,247.4,13.14,2020-10-14 06:19:00,25.11,2020-10-14 12:48:00,13.41,2020-10-14 06:19:00,24.83,2020-10-14 12:48:00
Kalikot,Nagma,29.12995833,81.58836111,2020-10-14 00:00:00,Partly cloudy throughout the day.,partly-cloudy-day,2020-10-14 06:21:00,2020-10-14 17:51:00,0.91,0.0081,0.0461,2020-10-14 23:44:00,0.04,rain,27.22,2020-10-14 13:05:00,16.23,2020-10-15 05:39:00,26.94,2020-10-14 13:05:00,16.5,2020-10-15 05:39:00,11.55,0.6,1012.0,1.59,4.2,1602631620,42,0.36,7,1602656100,16.093,249.1,16.5,2020-10-14 05:39:00,27.22,2020-10-14 13:05:00,16.77,2020-10-14 05:39:00,26.94,2020-10-14 13:05:00
Kanchanpur,Dodhara,28.86185889,80.44044194,2020-10-14 00:00:00,Humid and partly cloudy throughout the day.,partly-cloudy-day,2020-10-14 06:25:00,2020-10-14 17:56:00,0.91,0.0035,0.02,2020-10-14 14:54:00,0.02,rain,32.97,2020-10-14 14:11:00,22.56,2020-10-15 05:33:00,36.55,2020-10-14 15:45:00,23.32,2020-10-15 05:32:00,21.44,0.73,1008.1,1.29,2.26,1602696360,38,0.4,6,1602658560,16.093,256.4,21.32,2020-10-14 05:29:00,32.97,2020-10-14 14:11:00,21.99,2020-10-14 05:29:00,36.55,2020-10-14 15:45:00
Kanchanpur,Hanmannagar,28.698575,80.37540389,2020-10-14 00:00:00,Humid and mostly cloudy throughout the day.,partly-cloudy-day,2020-10-14 06:25:00,2020-10-14 17:56:00,0.91,0.0023,0.0085,2020-10-14 14:56:00,0.02,rain,32.27,2020-10-14 14:11:00,22.04,2020-10-15 05:39:00,34.39,2020-10-14 13:34:00,22.94,2020-10-15 05:38:00,20.9,0.73,1007.6,1.14,2.16,1602694500,39,0.45,6,1602658260,16.093,257.2,20.97,2020-10-14 05:31:00,32.27,2020-10-14 14:11:00,21.77,2020-10-14 05:31:00,34.39,2020-10-14 13:34:00
Kanchanpur,Taulihawa,28.89702,80.36996389,2020-10-14 00:00:00,Humid and partly cloudy throughout the day.,partly-cloudy-day,2020-10-14 06:25:00,2020-10-14 17:56:00,0.91,0.0028,0.0134,2020-10-14 14:53:00,0.02,rain,33.07,2020-10-14 14:09:00,22.6,2020-10-15 05:40:00,36.55,2020-10-14 15:40:00,23.32,2020-10-15 05:38:00,21.33,0.72,1008.1,1.39,2.5,1602620940,31,0.4,6,1602658680,16.093,256.2,21.5,2020-10-14 05:29:00,33.07,2020-10-14 14:09:00,22.16,2020-10-14 05:28:00,36.55,2020-10-14 15:40:00
Kapilbastu,Banganga,27.669936100000005,82.7911917,2020-10-14 00:00:00,Clear throughout the day.,clear-day,2020-10-14 06:15:00,2020-10-14 17:47:00,0.91,0.0028,0.0132,2020-10-14 02:49:00,0.02,rain,34.22,2020-10-14 14:10:00,22.28,2020-10-15 05:12:00,37.06,2020-10-14 15:05:00,22.62,2020-10-15 05:13:00,20.6,0.66,1007.2,1.51,2.34,1602622560,35,0.22,7,1602658680,16.093,256.7,22.28,2020-10-14 04:56:00,34.22,2020-10-14 14:10:00,22.99,2020-10-14 04:59:00,37.06,2020-10-14 15:05:00
Kapilvastu,Bahadur Ganj,27.693294399999996,83.1612556,2020-10-14 00:00:00,Partly cloudy throughout the day.,partly-cloudy-day,2020-10-14 06:13:00,2020-10-14 17:46:00,0.91,0.0179,0.082,2020-10-14 03:10:00,0.03,rain,34.36,2020-10-14 14:19:00,22.96,2020-10-15 05:20:00,37.52,2020-10-14 14:58:00,23.25,2020-10-15 05:20:00,19.28,0.6,1007.8,1.54,2.43,1602692040,30,0.28,7,1602656820,16.093,256.2,22.65,2020-10-14 05:28:00,34.36,2020-10-14 14:19:00,23.11,2020-10-14 05:28:00,37.52,2020-10-14 14:58:00
Kapilvastu,Sallyan (Kaski),27.55,83.85,2020-10-14 00:00:00,Partly cloudy throughout the day.,partly-cloudy-day,2020-10-14 06:10:00,2020-10-14 17:43:00,0.91,0.0111,0.1478,2020-10-14 00:00:00,0.05,rain,32.05,2020-10-14 13:50:00,22.04,2020-10-15 05:35:00,33.04,2020-10-14 13:57:00,22.76,2020-10-15 06:14:00,19.49,0.69,1007.6,1.46,2.34,1602675960,37,0.39,6,1602656940,16.093,257.5,21.63,2020-10-14 04:50:00,32.05,2020-10-14 13:50:00,22.51,2020-10-14 04:57:00,33.04,2020-10-14 13:57:00
Kaski,Begnas,28.212011100000005,83.8915417,2020-10-14 00:00:00,Partly cloudy throughout the day.,partly-cloudy-day,2020-10-14 06:11:00,2020-10-14 17:42:00,0.91,0.0148,0.0651,2020-10-14 16:41:00,0.06,rain,26.72,2020-10-14 13:45:00,17.08,2020-10-15 06:16:00,26.45,2020-10-14 13:45:00,17.35,2020-10-15 06:16:00,14.85,0.71,1010.4,1.19,1.99,1602629340,313,0.32,7,1602655620,16.093,251.6,16.98,2020-10-14 06:11:00,26.72,2020-10-14 13:45:00,17.25,2020-10-14 06:11:00,26.45,2020-10-14 13:45:00
Kaski,Begnas Tal,28.35805556,84.105175,2020-10-14 00:00:00,Partly cloudy throughout the day.,partly-cloudy-day,2020-10-14 06:10:00,2020-10-14 17:41:00,0.91,0.0175,0.0696,2020-10-14 15:07:00,0.1,rain,22.42,2020-10-14 12:58:00,13.25,2020-10-15 06:30:00,22.28,2020-10-14 13:01:00,13.52,2020-10-15 06:30:00,14.13,0.86,1011.8,1.36,2.16,1602656640,12,0.38,8,1602654780,15.526,247.8,12.91,2020-10-14 06:29:00,22.42,2020-10-14 12:58:00,13.18,2020-10-14 06:29:00,22.28,2020-10-14 13:01:00
Kaski,Bhadaure Deurali,28.21849444,83.9742,2020-10-14 00:00:00,Partly cloudy throughout the day.,partly-cloudy-day,2020-10-14 06:10:00,2020-10-14 17:42:00,0.91,0.0111,0.0448,2020-10-14 16:26:00,0.05,rain,30.24,2020-10-14 13:48:00,18.12,2020-10-15 06:20:00,30.54,2020-10-14 13:54:00,18.39,2020-10-15 06:20:00,16.52,0.67,1010.4,1.23,1.94,1602625500,358,0.31,7,1602655380,16.093,251.7,18.23,2020-10-14 06:09:00,30.24,2020-10-14 13:48:00,18.5,2020-10-14 06:09:00,30.54,2020-10-14 13:54:00
Kaski,Ghandruk,28.26168056,83.96873333,2020-10-14 00:00:00,Partly cloudy throughout the day.,partly-cloudy-day,2020-10-14 06:10:00,2020-10-14 17:42:00,0.91,0.0119,0.0553,2020-10-14 16:28:00,0.06,rain,29.2,2020-10-14 13:45:00,17.62,2020-10-15 06:21:00,29.48,2020-10-14 13:50:00,17.89,2020-10-15 06:21:00,16.07,0.68,1010.6,1.27,2.0,1602657360,8,0.33,7,1602655200,16.093,251.0,17.79,2020-10-14 06:07:00,29.2,2020-10-14 13:45:00,18.06,2020-10-14 06:07:00,29.48,2020-10-14 13:50:00
Kaski,Lamachaur,28.29653889,83.81791111,2020-10-14 00:00:00,Partly cloudy throughout the day.,partly-cloudy-day,2020-10-14 06:11:00,2020-10-14 17:43:00,0.91,0.022,0.0977,2020-10-14 16:42:00,0.09,rain,24.3,2020-10-14 13:43:00,15.21,2020-10-15 06:29:00,24.07,2020-10-14 13:45:00,15.48,2020-10-15 06:29:00,14.15,0.78,1011.2,1.21,2.05,1602632100,303,0.38,6,1602655380,16.093,249.8,14.98,2020-10-14 06:24:00,24.3,2020-10-14 13:43:00,15.25,2020-10-14 06:24:00,24.07,2020-10-14 13:45:00
Kaski,Lumle,28.26555556,83.82211944,2020-10-14 00:00:00,Partly cloudy throughout the day.,partly-cloudy-day,2020-10-14 06:11:00,2020-10-14 17:43:00,0.91,0.0204,0.0972,2020-10-14 16:43:00,0.08,rain,25.32,2020-10-14 13:46:00,16.04,2020-10-15 06:24:00,25.08,2020-10-14 13:48:00,16.31,2020-10-15 06:24:00,14.32,0.74,1010.9,1.2,2.16,1602631800,305,0.37,6,1602655920,16.093,250.6,15.83,2020-10-14 06:20:00,25.32,2020-10-14 13:46:00,16.1,2020-10-14 06:20:00,25.08,2020-10-14 13:48:00
Kaski,Pokhara Airport,28.23333333,84.0,2020-10-14 00:00:00,Partly cloudy throughout the day.,partly-cloudy-day,2020-10-14 06:10:00,2020-10-14 17:42:00,0.91,0.0096,0.0418,2020-10-14 15:56:00,0.05,rain,30.07,2020-10-14 13:49:00,17.94,2020-10-15 06:23:00,30.36,2020-10-14 13:53:00,18.21,2020-10-15 06:23:00,16.44,0.68,1010.3,1.27,1.98,1602624540,30,0.31,7,1602655320,16.093,251.6,18.12,2020-10-14 06:09:00,30.07,2020-10-14 13:49:00,18.39,2020-10-14 06:09:00,30.36,2020-10-14 13:53:00
Kaski,Pokhara Airport,28.22,84.0,2020-10-14 00:00:00,Partly cloudy throughout the day.,partly-cloudy-day,2020-10-14 06:10:00,2020-10-14 17:42:00,0.91,0.0099,0.0395,2020-10-14 15:57:00,0.05,rain,30.35,2020-10-14 13:49:00,18.1,2020-10-15 06:21:00,30.65,2020-10-14 13:54:00,18.37,2020-10-15 06:21:00,16.62,0.67,1010.3,1.25,1.95,1602624540,25,0.3,7,1602655320,16.093,251.8,18.25,2020-10-14 06:09:00,30.35,2020-10-14 13:49:00,18.52,2020-10-14 06:09:00,30.65,2020-10-14 13:54:00
Kathmandu,Budhanilakan,27.78333333,85.31666667,2020-10-14 00:00:00,Partly cloudy throughout the day.,partly-cloudy-day,2020-10-14 06:05:00,2020-10-14 17:37:00,0.91,0.0079,0.0453,2020-10-14 14:22:00,0.04,rain,27.49,2020-10-14 12:53:00,15.81,2020-10-15 05:42:00,27.34,2020-10-14 13:01:00,16.08,2020-10-15 05:42:00,15.93,0.75,1010.3,0.86,2.45,1602663840,17,0.41,7,1602654060,16.093,253.2,16.35,2020-10-14 05:42:00,27.49,2020-10-14 12:53:00,16.62,2020-10-14 05:42:00,27.34,2020-10-14 13:01:00
Kathmandu,Kathmandu Airport,27.703825,85.35624722,2020-10-14 00:00:00,Partly cloudy throughout the day.,partly-cloudy-day,2020-10-14 06:04:00,2020-10-14 17:37:00,0.91,0.0374,0.1628,2020-10-14 05:53:00,0.06,rain,26.65,2020-10-14 14:26:00,15.31,2020-10-15 05:43:00,26.47,2020-10-14 14:31:00,15.58,2020-10-15 05:43:00,17.57,0.78,1010.4,0.77,2.48,1602664140,22,0.42,7,1602654120,13.673,253.9,17.44,2020-10-14 05:18:00,26.65,2020-10-14 14:26:00,18.11,2020-10-14 05:20:00,26.47,2020-10-14 14:31:00
Kathmandu,Naikap,27.7726953,85.4277003,2020-10-14 00:00:00,Partly cloudy throughout the day.,partly-cloudy-day,2020-10-14 06:04:00,2020-10-14 17:36:00,0.91,0.007,0.0578,2020-10-14 14:48:00,0.03,rain,25.02,2020-10-14 13:17:00,14.2,2020-10-15 05:39:00,24.74,2020-10-14 13:17:00,14.47,2020-10-15 05:39:00,14.08,0.77,1010.3,0.75,2.42,1602664320,10,0.35,8,1602654720,16.093,253.2,14.9,2020-10-14 05:36:00,25.02,2020-10-14 13:17:00,15.17,2020-10-14 05:36:00,24.74,2020-10-14 13:17:00
Kathmandu,Pharping,27.76666667,85.31666667,2020-10-14 00:00:00,Partly cloudy throughout the day.,partly-cloudy-day,2020-10-14 06:05:00,2020-10-14 17:37:00,0.91,0.0068,0.0409,2020-10-14 13:53:00,0.04,rain,27.76,2020-10-14 12:53:00,15.82,2020-10-15 05:42:00,27.6,2020-10-14 13:01:00,16.09,2020-10-15 05:42:00,16.3,0.76,1010.3,0.82,2.49,1602664080,12,0.42,7,1602654060,16.093,253.4,16.42,2020-10-14 05:43:00,27.76,2020-10-14 12:53:00,16.7,2020-10-14 05:56:00,27.6,2020-10-14 13:01:00
Kathmandu,Sankhu,27.73333333,85.33333333,2020-10-14 00:00:00,Partly cloudy throughout the day.,partly-cloudy-day,2020-10-14 06:05:00,2020-10-14 17:37:00,0.91,0.0171,0.0612,2020-10-14 05:50:00,0.04,rain,27.45,2020-10-14 12:59:00,15.63,2020-10-15 05:42:00,27.46,2020-10-14 13:07:00,15.9,2020-10-15 05:42:00,16.73,0.78,1010.3,0.78,2.51,1602664200,15,0.41,7,1602654120,16.093,253.7,16.48,2020-10-14 05:40:00,27.45,2020-10-14 12:59:00,16.83,2020-10-14 05:43:00,27.46,2020-10-14 13:07:00
Kathmandu,Sankhu,27.73333333,85.33333333,2020-10-14 00:00:00,Partly cloudy throughout the day.,partly-cloudy-day,2020-10-14 06:05:00,2020-10-14 17:37:00,0.91,0.0171,0.0612,2020-10-14 05:50:00,0.04,rain,27.45,2020-10-14 12:59:00,15.63,2020-10-15 05:42:00,27.46,2020-10-14 13:07:00,15.9,2020-10-15 05:42:00,16.73,0.78,1010.3,0.78,2.51,1602664200,15,0.41,7,1602654120,16.093,253.7,16.48,2020-10-14 05:40:00,27.45,2020-10-14 12:59:00,16.83,2020-10-14 05:43:00,27.46,2020-10-14 13:07:00
Kathmandu,Sivapuri,27.75,85.43333333,2020-10-14 00:00:00,Partly cloudy throughout the day.,partly-cloudy-day,2020-10-14 06:04:00,2020-10-14 17:36:00,0.91,0.0024,0.0146,2020-10-14 13:46:00,0.02,rain,27.45,2020-10-14 13:26:00,14.7,2020-10-15 05:43:00,27.3,2020-10-14 13:23:00,14.97,2020-10-15 05:43:00,15.25,0.74,1010.5,0.68,2.47,1602664620,14,0.34,8,1602654720,16.093,253.6,15.49,2020-10-14 05:42:00,27.45,2020-10-14 13:26:00,15.76,2020-10-14 05:41:00,27.3,2020-10-14 13:23:00
Kathmandu,Sundarijal,27.8,85.43333333,2020-10-14 00:00:00,Partly cloudy throughout the day.,partly-cloudy-day,2020-10-14 06:04:00,2020-10-14 17:36:00,0.91,0.0126,0.1244,2020-10-14 14:50:00,0.03,rain,23.57,2020-10-14 13:13:00,12.57,2020-10-15 05:44:00,23.29,2020-10-14 13:13:00,12.84,2020-10-15 05:44:00,13.01,0.8,1010.2,0.81,2.35,1602663840,7,0.36,8,1602654720,16.093,252.8,13.17,2020-10-14 05:44:00,23.57,2020-10-14 13:13:00,13.44,2020-10-14 05:44:00,23.29,2020-10-14 13:13:00
Kathmandu,Tarebhir,27.78419167,85.29049444,2020-10-14 00:00:00,Partly cloudy throughout the day.,partly-cloudy-day,2020-10-14 06:05:00,2020-10-14 17:37:00,0.91,0.0077,0.0445,2020-10-14 13:56:00,0.04,rain,26.56,2020-10-14 12:48:00,15.84,2020-10-15 05:39:00,26.28,2020-10-14 12:48:00,16.11,2020-10-15 05:39:00,15.68,0.77,1010.1,0.88,2.46,1602663780,26,0.43,7,1602653820,16.093,253.3,16.36,2020-10-14 05:39:00,26.56,2020-10-14 12:48:00,16.63,2020-10-14 05:40:00,26.28,2020-10-14 12:48:00
Kathmandu,Tokha,27.7972222,85.3577778,2020-10-14 00:00:00,Partly cloudy throughout the day.,partly-cloudy-day,2020-10-14 06:05:00,2020-10-14 17:37:00,0.91,0.01,0.0769,2020-10-14 14:46:00,0.04,rain,23.96,2020-10-14 12:55:00,13.73,2020-10-15 05:43:00,23.68,2020-10-14 12:55:00,14.0,2020-10-15 05:43:00,13.72,0.8,1010.1,0.86,2.4,1602663720,13,0.39,7,1602654360,16.093,253.0,14.24,2020-10-14 05:44:00,23.96,2020-10-14 12:55:00,14.51,2020-10-14 05:44:00,23.68,2020-10-14 12:55:00
Khotang,Diktel,27.02930083,86.84337278,2020-10-14 00:00:00,Humid throughout the day.,clear-day,2020-10-14 05:58:00,2020-10-14 17:31:00,0.91,0.0273,0.0938,2020-10-14 23:33:00,0.12,rain,28.29,2020-10-14 13:21:00,19.48,2020-10-15 05:38:00,30.59,2020-10-14 13:40:00,20.14,2020-10-15 05:36:00,20.86,0.89,1009.3,1.15,2.06,1602657000,20,0.22,8,1602654720,16.093,258.4,19.36,2020-10-14 05:29:00,28.29,2020-10-14 13:21:00,20.0,2020-10-14 05:27:00,30.59,2020-10-14 13:40:00
Khotang,Dwarpa,27.359795000000002,86.7486619,2020-10-14 00:00:00,Partly cloudy throughout the day.,partly-cloudy-day,2020-10-14 05:59:00,2020-10-14 17:31:00,0.91,0.0705,0.1683,2020-10-14 17:28:00,0.22,rain,21.08,2020-10-14 12:53:00,14.0,2020-10-15 01:43:00,21.44,2020-10-14 13:03:00,14.32,2020-10-15 05:50:00,16.38,0.99,1010.9,1.17,2.57,1602699300,59,0.35,8,1602654120,16.067,254.5,14.13,2020-10-15 00:00:00,21.08,2020-10-14 12:53:00,14.77,2020-10-14 05:58:00,21.44,2020-10-14 13:03:00
Khotang,Khotang Bazar,27.1408985,86.4317585,2020-10-14 00:00:00,Humid throughout the day.,clear-day,2020-10-14 06:00:00,2020-10-14 17:33:00,0.91,0.0368,0.1656,2020-10-14 17:38:00,0.13,rain,31.35,2020-10-14 14:15:00,21.34,2020-10-15 05:46:00,37.98,2020-10-14 14:43:00,22.16,2020-10-15 05:44:00,22.51,0.83,1009.5,1.19,2.08,1602659100,58,0.21,8,1602654300,16.093,257.9,21.43,2020-10-14 05:41:00,31.35,2020-10-14 14:15:00,22.01,2020-10-14 05:41:00,37.98,2020-10-14 14:43:00
Khotang,Kurle Ghat,27.21666667,86.85,2020-10-14 00:00:00,Partly cloudy throughout the day.,partly-cloudy-day,2020-10-14 05:58:00,2020-10-14 17:31:00,0.91,0.0714,0.1611,2020-10-14 17:23:00,0.23,rain,23.21,2020-10-14 13:22:00,15.33,2020-10-15 05:44:00,23.67,2020-10-14 13:25:00,16.02,2020-10-15 05:43:00,17.87,0.99,1010.4,0.98,2.38,1602656700,105,0.32,8,1602654660,16.093,256.3,15.54,2020-10-15 00:00:00,23.21,2020-10-14 13:22:00,16.43,2020-10-14 05:44:00,23.67,2020-10-14 13:25:00
Lalitpur,Chapa Gaun,27.566666700000003,85.3166667,2020-10-14 00:00:00,Partly cloudy throughout the day.,partly-cloudy-day,2020-10-14 06:05:00,2020-10-14 17:37:00,0.91,0.1373,0.6927,2020-10-14 05:48:00,0.16,rain,25.57,2020-10-14 13:35:00,15.98,2020-10-15 05:32:00,25.49,2020-10-14 13:39:00,16.4,2020-10-15 05:34:00,18.14,0.91,1010.1,0.93,2.43,1602663480,47,0.39,7,1602653460,16.093,254.7,16.5,2020-10-14 05:40:00,25.57,2020-10-14 13:35:00,17.34,2020-10-14 05:41:00,25.49,2020-10-14 13:39:00
Lalitpur,Godavari,27.68333333,85.3,2020-10-14 00:00:00,Partly cloudy throughout the day.,partly-cloudy-day,2020-10-14 06:05:00,2020-10-14 17:37:00,0.91,0.0541,0.2592,2020-10-14 05:47:00,0.08,rain,27.7,2020-10-14 13:02:00,16.12,2020-10-15 05:41:00,27.9,2020-10-14 13:07:00,16.39,2020-10-15 05:41:00,18.03,0.83,1010.3,0.85,2.5,1602663900,30,0.42,7,1602653760,16.093,254.0,16.87,2020-10-14 05:59:00,27.7,2020-10-14 13:02:00,17.35,2020-10-14 06:00:00,27.9,2020-10-14 13:07:00
Lalitpur,Khokana,27.65,85.38333333,2020-10-14 00:00:00,Partly cloudy throughout the day.,partly-cloudy-day,2020-10-14 06:04:00,2020-10-14 17:37:00,0.91,0.0748,0.3359,2020-10-14 05:57:00,0.1,rain,27.62,2020-10-14 13:37:00,15.81,2020-10-15 05:41:00,28.01,2020-10-14 14:02:00,16.08,2020-10-15 05:41:00,18.08,0.84,1010.4,0.82,2.43,1602664020,37,0.37,7,1602654000,16.093,254.1,16.5,2020-10-14 05:41:00,27.62,2020-10-14 13:37:00,16.97,2020-10-14 05:43:00,28.01,2020-10-14 14:02:00
Lalitpur,Khumaltar,27.5929167,85.3788333,2020-10-14 00:00:00,Partly cloudy throughout the day.,partly-cloudy-day,2020-10-14 06:04:00,2020-10-14 17:37:00,0.91,0.1155,0.5318,2020-10-14 05:56:00,0.14,rain,25.66,2020-10-14 13:34:00,15.71,2020-10-15 05:32:00,25.53,2020-10-14 13:37:00,15.99,2020-10-15 05:34:00,17.76,0.89,1010.2,0.88,2.4,1602663720,43,0.36,7,1602653640,16.093,254.5,16.12,2020-10-14 05:34:00,25.66,2020-10-14 13:34:00,16.84,2020-10-14 05:36:00,25.53,2020-10-14 13:37:00
Lalitpur,Kritipur (Bagban),27.68333333,85.33333333,2020-10-14 00:00:00,Partly cloudy throughout the day.,partly-cloudy-day,2020-10-14 06:05:00,2020-10-14 17:37:00,0.91,0.0529,0.2448,2020-10-14 05:50:00,0.08,rain,27.42,2020-10-14 13:24:00,15.85,2020-10-15 05:42:00,27.72,2020-10-14 14:13:00,16.12,2020-10-15 05:42:00,17.98,0.82,1010.3,0.82,2.48,1602664020,30,0.41,7,1602653940,16.093,254.0,16.99,2020-10-14 05:38:00,27.42,2020-10-14 13:24:00,17.52,2020-10-14 05:40:00,27.72,2020-10-14 14:13:00
Lalitpur,Lalitpur (Kopundol),27.659325,85.3697083,2020-10-14 00:00:00,Partly cloudy throughout the day.,partly-cloudy-day,2020-10-14 06:04:00,2020-10-14 17:37:00,0.91,0.0687,0.3121,2020-10-14 05:55:00,0.09,rain,27.64,2020-10-14 13:38:00,15.82,2020-10-15 05:42:00,28.01,2020-10-14 14:07:00,16.09,2020-10-15 05:42:00,18.12,0.83,1010.4,0.82,2.45,1602664020,35,0.38,7,1602654000,16.093,254.1,16.67,2020-10-14 05:40:00,27.64,2020-10-14 13:38:00,17.15,2020-10-14 05:43:00,28.01,2020-10-14 14:07:00
Lalitpur,Lubhu,27.60325833,85.32656389,2020-10-14 00:00:00,Partly cloudy throughout the day.,partly-cloudy-day,2020-10-14 06:04:00,2020-10-14 17:37:00,0.91,0.1105,0.5451,2020-10-14 05:49:00,0.13,rain,26.36,2020-10-14 13:29:00,16.03,2020-10-15 05:34:00,26.26,2020-10-14 13:33:00,16.3,2020-10-15 05:36:00,18.23,0.89,1010.2,0.9,2.44,1602663660,43,0.39,7,1602653580,16.093,254.4,16.58,2020-10-14 05:40:00,26.36,2020-10-14 13:29:00,17.27,2020-10-14 05:42:00,26.26,2020-10-14 13:33:00
Lalitpur,Tikathali,27.576825,85.3540444,2020-10-14 00:00:00,Partly cloudy throughout the day.,partly-cloudy-day,2020-10-14 06:04:00,2020-10-14 17:37:00,0.91,0.1282,0.6129,2020-10-14 05:52:00,0.15,rain,25.05,2020-10-14 13:36:00,15.59,2020-10-15 05:31:00,24.92,2020-10-14 13:39:00,15.95,2020-10-15 05:33:00,17.54,0.91,1010.1,0.91,2.41,1602663600,45,0.37,7,1602653520,16.093,254.6,16.02,2020-10-14 05:32:00,25.05,2020-10-14 13:36:00,16.85,2020-10-14 05:35:00,24.92,2020-10-14 13:39:00
Lamiung,Khudi Bazar,28.12677778,84.34494167,2020-10-14 00:00:00,Partly cloudy throughout the day.,partly-cloudy-day,2020-10-14 06:09:00,2020-10-14 17:41:00,0.91,0.0154,0.0798,2020-10-14 00:00:00,0.05,rain,30.47,2020-10-14 13:16:00,18.35,2020-10-15 05:43:00,30.18,2020-10-14 13:14:00,18.62,2020-10-15 05:43:00,15.32,0.61,1010.0,1.13,1.64,1602629640,18,0.35,7,1602655260,16.093,253.0,18.38,2020-10-14 05:42:00,30.47,2020-10-14 13:16:00,18.65,2020-10-14 05:42:00,30.18,2020-10-14 13:14:00
Lamjung,Besishahar,28.25596667,84.47929722,2020-10-13 21:45:00,Partly cloudy throughout the day.,partly-cloudy-day,2020-10-14 06:08:00,2020-10-14 17:40:00,0.91,0.0089,0.0561,2020-10-14 15:45:00,0.05,rain,25.88,2020-10-14 12:47:00,18.04,2020-10-15 00:03:00,25.6,2020-10-14 12:47:00,18.31,2020-10-15 00:03:00,13.07,0.63,1011.1,1.59,2.49,1602627480,18,0.32,7,1602652200,14.142,250.4,17.89,2020-10-14 01:39:00,25.88,2020-10-14 12:47:00,18.16,2020-10-14 01:39:00,25.6,2020-10-14 12:47:00
Lamjung,Bhorletar,28.21813889,84.24153889,2020-10-14 00:00:00,Partly cloudy throughout the day.,partly-cloudy-day,2020-10-14 06:09:00,2020-10-14 17:41:00,0.91,0.0143,0.0445,2020-10-14 14:40:00,0.06,rain,28.03,2020-10-14 13:07:00,18.39,2020-10-15 03:58:00,27.74,2020-10-14 13:05:00,18.66,2020-10-15 03:58:00,12.79,0.59,1010.0,1.51,2.18,1602629880,11,0.34,7,1602655200,16.093,251.8,17.34,2020-10-14 04:45:00,28.03,2020-10-14 13:07:00,17.61,2020-10-14 04:45:00,27.74,2020-10-14 13:05:00
Lamjung,Faleni,28.30964722,84.26600278,2020-10-14 00:00:00,Partly cloudy throughout the day.,partly-cloudy-day,2020-10-14 06:09:00,2020-10-14 17:41:00,0.91,0.0152,0.0618,2020-10-14 14:44:00,0.08,rain,25.25,2020-10-14 12:51:00,16.7,2020-10-15 06:32:00,24.97,2020-10-14 12:51:00,16.97,2020-10-15 06:32:00,13.14,0.68,1011.2,1.59,2.38,1602632160,11,0.36,8,1602655020,16.093,249.4,15.59,2020-10-14 06:29:00,25.25,2020-10-14 12:51:00,15.86,2020-10-14 06:29:00,24.97,2020-10-14 12:51:00
Lamjung,Gausala,28.07621667,84.47669444,2020-10-14 00:00:00,Partly cloudy throughout the day.,partly-cloudy-day,2020-10-14 06:08:00,2020-10-14 17:40:00,0.91,0.0152,0.0382,2020-10-14 20:39:00,0.04,rain,31.46,2020-10-14 14:00:00,18.64,2020-10-15 05:53:00,31.58,2020-10-14 14:38:00,18.91,2020-10-15 05:53:00,16.2,0.61,1010.1,1.0,1.62,1602699300,47,0.34,7,1602655380,16.093,253.9,18.82,2020-10-14 05:41:00,31.46,2020-10-14 14:00:00,19.09,2020-10-14 05:41:00,31.58,2020-10-14 14:38:00
Lamjung,Gharedhunga,28.282208299999997,84.3454164,2020-10-14 00:00:00,Partly cloudy throughout the day.,partly-cloudy-day,2020-10-14 06:09:00,2020-10-14 17:40:00,0.91,0.0126,0.0498,2020-10-14 15:13:00,0.07,rain,26.5,2020-10-14 12:49:00,18.58,2020-10-15 00:53:00,26.22,2020-10-14 12:49:00,18.85,2020-10-15 00:53:00,12.8,0.6,1011.2,1.6,2.36,1602630600,15,0.35,7,1602654660,16.033,250.1,17.93,2020-10-14 04:43:00,26.5,2020-10-14 12:49:00,18.2,2020-10-14 04:43:00,26.22,2020-10-14 12:49:00
Mahottari,Chisapani Gadhi,26.65224722,85.807275,2020-10-14 00:00:00,Humid throughout the day.,clear-day,2020-10-14 06:02:00,2020-10-14 17:36:00,0.91,0.003,0.016,2020-10-14 08:40:00,0.03,rain,33.0,2020-10-14 14:15:00,23.27,2020-10-15 05:25:00,37.07,2020-10-14 14:19:00,24.44,2020-10-15 05:22:00,22.67,0.74,1007.0,1.31,2.28,1602697980,39,0.18,7,1602655260,16.093,262.5,23.36,2020-10-14 04:54:00,33.0,2020-10-14 14:15:00,24.4,2020-10-14 04:56:00,37.07,2020-10-14 14:19:00
Mahottari,Jalesore,26.88333333,85.78333333,2020-10-14 00:00:00,Humid throughout the day.,clear-day,2020-10-14 06:02:00,2020-10-14 17:36:00,0.91,0.0027,0.0149,2020-10-14 08:37:00,0.03,rain,33.0,2020-10-14 14:09:00,23.24,2020-10-15 05:15:00,38.42,2020-10-14 13:05:00,24.34,2020-10-15 05:08:00,23.27,0.77,1007.2,1.5,2.07,1602698040,36,0.19,7,1602653700,16.093,261.4,23.41,2020-10-14 04:52:00,33.0,2020-10-14 14:09:00,24.49,2020-10-14 04:52:00,38.42,2020-10-14 13:05:00
Makwanpur,Daman,27.5599456,85.1386067,2020-10-14 00:00:00,Partly cloudy throughout the day.,partly-cloudy-day,2020-10-14 06:05:00,2020-10-14 17:38:00,0.91,0.1232,0.5688,2020-10-14 05:35:00,0.17,rain,25.24,2020-10-14 13:41:00,15.52,2020-10-15 05:44:00,25.16,2020-10-14 13:44:00,16.15,2020-10-15 05:46:00,17.69,0.92,1009.6,0.99,2.28,1602664080,52,0.38,7,1602653520,16.093,255.2,15.77,2020-10-14 06:12:00,25.24,2020-10-14 13:41:00,16.76,2020-10-14 06:06:00,25.16,2020-10-14 13:44:00
Makwanpur,Hetanuda(Ind. Dist),27.619,85.1496,2020-10-14 00:00:00,Partly cloudy throughout the day.,partly-cloudy-day,2020-10-14 06:05:00,2020-10-14 17:38:00,0.91,0.0903,0.408,2020-10-14 05:37:00,0.13,rain,25.44,2020-10-14 13:30:00,16.22,2020-10-15 05:38:00,25.21,2020-10-14 13:33:00,16.7,2020-10-15 05:41:00,17.44,0.89,1009.7,0.95,2.29,1602664140,43,0.39,7,1602653820,16.093,254.8,16.52,2020-10-14 06:20:00,25.44,2020-10-14 13:30:00,17.38,2020-10-14 06:17:00,25.21,2020-10-14 13:33:00
Makwanpur,Makwanpur Gadhi,27.43333333,85.03333333,2020-10-14 00:00:00,Humid and partly cloudy throughout the day.,partly-cloudy-day,2020-10-14 06:06:00,2020-10-14 17:38:00,0.91,0.1241,0.5164,2020-10-14 04:24:00,0.19,rain,31.76,2020-10-14 14:01:00,21.32,2020-10-15 05:37:00,36.0,2020-10-14 15:26:00,22.24,2020-10-15 05:36:00,23.0,0.87,1009.2,1.29,2.44,1602664920,56,0.32,7,1602653340,16.093,256.9,20.97,2020-10-14 05:43:00,31.76,2020-10-14 14:01:00,21.95,2020-10-14 05:41:00,36.0,2020-10-14 15:26:00
Makwanpur,Manang Bhot,27.635081899999996,84.7416103,2020-10-14 00:00:00,Humid and partly cloudy throughout the day.,partly-cloudy-day,2020-10-14 06:07:00,2020-10-14 17:39:00,0.91,0.033,0.1948,2020-10-14 02:40:00,0.1,rain,30.28,2020-10-14 13:48:00,20.8,2020-10-15 05:41:00,31.01,2020-10-14 13:55:00,21.64,2020-10-15 05:43:00,20.6,0.82,1009.0,1.05,1.85,1602665760,67,0.35,7,1602653940,16.093,256.6,20.19,2020-10-14 05:42:00,30.28,2020-10-14 13:48:00,21.14,2020-10-14 05:43:00,31.01,2020-10-14 13:55:00
Makwanpur,Markhu Gaun,27.4227,85.0279,2020-10-14 00:00:00,Humid and partly cloudy throughout the day.,partly-cloudy-day,2020-10-14 06:06:00,2020-10-14 17:38:00,0.91,0.1213,0.5081,2020-10-14 04:18:00,0.19,rain,31.85,2020-10-14 14:01:00,21.42,2020-10-15 05:37:00,36.19,2020-10-14 15:26:00,22.35,2020-10-15 05:37:00,23.05,0.87,1009.1,1.33,2.48,1602664980,56,0.31,7,1602653400,16.093,257.1,21.09,2020-10-14 05:42:00,31.85,2020-10-14 14:01:00,22.07,2020-10-14 05:41:00,36.19,2020-10-14 15:26:00
Manang,Goga,28.63989694,84.08811583,2020-10-14 00:00:00,Partly cloudy throughout the day.,partly-cloudy-day,2020-10-14 06:10:00,2020-10-14 17:41:00,0.91,0.0139,0.0539,2020-10-14 16:18:00,0.19,rain,11.3,2020-10-14 12:45:00,2.1,2020-10-15 01:24:00,11.34,2020-10-14 13:09:00,1.08,2020-10-15 05:12:00,5.45,1.0,1015.5,1.09,2.03,1602657960,121,0.38,9,1602654000,14.616,241.4,2.51,2020-10-15 00:00:00,11.3,2020-10-14 12:45:00,2.78,2020-10-15 00:00:00,11.34,2020-10-14 13:09:00
Manang,Humde,28.66627083,84.02257194,2020-10-14 00:00:00,Partly cloudy throughout the day.,partly-cloudy-day,2020-10-14 06:10:00,2020-10-14 17:41:00,0.91,0.0124,0.0512,2020-10-14 17:02:00,0.18,rain,11.26,2020-10-14 12:46:00,1.12,2020-10-15 01:24:00,11.28,2020-10-14 13:11:00,1.39,2020-10-15 01:24:00,5.2,1.0,1015.5,1.05,2.02,1602660300,153,0.35,9,1602654360,15.363,241.2,1.64,2020-10-15 00:00:00,11.26,2020-10-14 12:46:00,1.91,2020-10-15 00:00:00,11.28,2020-10-14 13:11:00
Manang,Naar,28.76666667,84.28333333,2020-10-14 00:00:00,Partly cloudy throughout the day.,partly-cloudy-day,2020-10-14 06:09:00,2020-10-14 17:40:00,0.91,0.003,0.0086,2020-10-14 17:09:00,0.18,rain,6.53,2020-10-14 12:56:00,-5.53,2020-10-15 04:52:00,7.3,2020-10-14 14:10:00,-7.26,2020-10-15 05:43:00,-0.34,1.0,1016.6,1.03,1.73,1602656880,60,0.4,9,1602657960,14.504,239.2,-4.52,2020-10-14 06:32:00,6.53,2020-10-14 12:56:00,-4.25,2020-10-14 06:32:00,7.3,2020-10-14 14:10:00
Manang,Phu Gaun,28.55,84.2333333,2020-10-14 00:00:00,Foggy in the afternoon.,fog,2020-10-14 06:10:00,2020-10-14 17:41:00,0.91,0.0184,0.0859,2020-10-14 14:54:00,0.17,rain,12.39,2020-10-14 12:45:00,5.28,2020-10-15 01:17:00,12.52,2020-10-14 12:53:00,4.47,2020-10-15 06:23:00,7.17,1.0,1015.2,1.3,2.19,1602656280,15,0.43,9,1602654360,13.042,242.5,4.5,2020-10-14 02:37:00,12.39,2020-10-14 12:45:00,3.54,2020-10-14 06:27:00,12.52,2020-10-14 12:53:00
Morang,Biratnagar,29.2160678,83.983333,2020-10-13 21:45:00,Clear throughout the day.,clear-day,2020-10-14 06:11:00,2020-10-14 17:41:00,0.91,0.0013,0.0045,2020-10-14 17:45:00,0.11,rain,14.74,2020-10-14 13:42:00,-5.66,2020-10-15 05:30:00,14.46,2020-10-14 13:42:00,-6.23,2020-10-15 03:44:00,-1.48,0.78,1016.5,2.11,5.84,1602664560,204,0.15,10,1602655980,16.023,241.7,-3.76,2020-10-14 06:23:00,14.74,2020-10-14 13:42:00,-5.31,2020-10-14 06:48:00,14.46,2020-10-14 13:42:00
Morang,Biratnagar Airport,26.61000889,87.37074778,2020-10-14 00:00:00,Humid throughout the day.,clear-day,2020-10-14 05:56:00,2020-10-14 17:30:00,0.91,0.0161,0.0504,2020-10-14 16:29:00,0.05,rain,33.72,2020-10-14 14:17:00,23.98,2020-10-15 05:36:00,38.26,2020-10-14 14:39:00,24.91,2020-10-15 05:36:00,22.73,0.72,1007.4,1.5,2.44,1602693000,49,0.22,8,1602654660,16.093,263.1,23.72,2020-10-14 05:19:00,33.72,2020-10-14 14:17:00,24.63,2020-10-14 05:21:00,38.26,2020-10-14 14:39:00
Morang,Gam Shree Nagar,26.73416667,87.50166667,2020-10-14 00:00:00,Humid throughout the day.,clear-day,2020-10-14 05:55:00,2020-10-14 17:29:00,0.91,0.0637,0.2191,2020-10-14 16:22:00,0.11,rain,33.54,2020-10-14 12:53:00,24.26,2020-10-15 05:39:00,38.14,2020-10-14 14:42:00,25.02,2020-10-15 05:39:00,22.39,0.72,1007.8,1.58,2.69,1602612900,23,0.18,8,1602654780,16.093,261.8,23.98,2020-10-14 05:31:00,33.54,2020-10-14 12:53:00,24.69,2020-10-14 05:31:00,38.14,2020-10-14 14:42:00
Morang,Haraincha,28.46717,84.37307390000001,2020-10-14 00:00:00,Foggy in the afternoon and evening.,fog,2020-10-14 06:09:00,2020-10-14 17:40:00,0.91,0.0178,0.0807,2020-10-14 14:55:00,0.15,rain,13.92,2020-10-14 12:25:00,7.53,2020-10-14 23:10:00,13.68,2020-10-14 12:35:00,7.68,2020-10-14 21:52:00,9.09,0.97,1014.6,1.34,2.02,1602660000,22,0.48,7,1602653220,12.489,244.0,7.27,2020-10-14 00:28:00,13.92,2020-10-14 12:25:00,7.54,2020-10-14 00:28:00,13.68,2020-10-14 12:35:00
Morang,Letang,26.46666667,87.28333333,2020-10-14 00:00:00,Humid and partly cloudy throughout the day.,partly-cloudy-day,2020-10-14 05:56:00,2020-10-14 17:30:00,0.91,0.0023,0.0157,2020-10-14 23:44:00,0.02,rain,33.12,2020-10-14 14:04:00,23.18,2020-10-15 05:32:00,36.76,2020-10-14 12:42:00,24.1,2020-10-15 05:31:00,22.02,0.71,1007.3,1.5,2.43,1602698220,66,0.3,7,1602654960,16.093,264.0,23.24,2020-10-14 05:25:00,33.12,2020-10-14 14:04:00,24.2,2020-10-14 05:25:00,36.76,2020-10-14 12:42:00
Morang,Mugu,26.483967,87.26700600000001,2020-10-14 00:00:00,Humid and partly cloudy throughout the day.,partly-cloudy-day,2020-10-14 05:56:00,2020-10-14 17:30:00,0.91,0.0024,0.0183,2020-10-14 23:44:00,0.02,rain,33.11,2020-10-14 14:00:00,23.19,2020-10-15 05:32:00,36.73,2020-10-14 12:42:00,24.12,2020-10-15 05:31:00,22.01,0.71,1007.3,1.49,2.38,1602697860,65,0.3,7,1602655020,16.093,263.9,23.24,2020-10-14 05:26:00,33.11,2020-10-14 14:00:00,24.2,2020-10-14 05:27:00,36.73,2020-10-14 12:42:00
Mugu,Jomsom,29.50867889,81.89267389,2020-10-14 00:00:00,Partly cloudy throughout the day.,partly-cloudy-day,2020-10-14 06:20:00,2020-10-14 17:49:00,0.91,0.0013,0.0051,2020-10-14 17:45:00,0.03,rain,25.05,2020-10-14 13:43:00,8.22,2020-10-15 05:41:00,24.77,2020-10-14 13:43:00,8.49,2020-10-15 05:41:00,5.45,0.56,1013.8,1.16,3.1,1602665700,124,0.43,8,1602656460,16.093,247.3,8.8,2020-10-14 05:30:00,25.05,2020-10-14 13:43:00,9.07,2020-10-14 05:30:00,24.77,2020-10-14 13:43:00
Mugu,Mangri,29.540125,82.081825,2020-10-14 00:00:00,Partly cloudy throughout the day.,partly-cloudy-day,2020-10-14 06:19:00,2020-10-14 17:49:00,0.91,0.0013,0.0051,2020-10-14 17:45:00,0.03,rain,19.0,2020-10-14 13:38:00,6.25,2020-10-15 05:39:00,18.72,2020-10-14 13:38:00,5.6,2020-10-15 05:33:00,2.77,0.62,1014.0,1.39,2.89,1602661680,72,0.42,8,1602656580,16.093,246.4,6.32,2020-10-14 01:54:00,19.0,2020-10-14 13:38:00,5.71,2020-10-14 05:33:00,18.72,2020-10-14 13:38:00
Mugu,Rara,29.75,82.55,2020-10-14 00:00:00,Clear throughout the day.,clear-day,2020-10-14 06:17:00,2020-10-14 17:47:00,0.91,0.0013,0.0051,2020-10-14 17:45:00,0.05,rain,5.76,2020-10-14 12:48:00,-4.67,2020-10-15 05:32:00,3.34,2020-10-14 12:46:00,-6.76,2020-10-15 06:09:00,-2.03,0.94,1017.7,1.63,5.63,1602662040,120,0.26,10,1602656760,16.093,241.6,-4.51,2020-10-14 02:45:00,5.76,2020-10-14 12:48:00,-5.78,2020-10-14 06:46:00,3.34,2020-10-14 12:46:00
Mugu,Seroge,29.58904306,82.30580306,2020-10-14 00:00:00,Partly cloudy throughout the day.,partly-cloudy-day,2020-10-14 06:18:00,2020-10-14 17:48:00,0.91,0.0013,0.0051,2020-10-14 17:45:00,0.04,rain,15.75,2020-10-14 13:00:00,4.91,2020-10-15 00:11:00,15.47,2020-10-14 13:00:00,4.3,2020-10-15 05:41:00,2.49,0.67,1016.2,1.54,3.66,1602660120,68,0.35,8,1602657240,16.093,244.1,4.92,2020-10-15 00:00:00,15.75,2020-10-14 13:00:00,4.41,2020-10-14 00:26:00,15.47,2020-10-14 13:00:00
Mustang,Lete,28.78401111,83.72981667,2020-10-14 00:00:00,Partly cloudy throughout the day.,partly-cloudy-day,2020-10-14 06:12:00,2020-10-14 17:43:00,0.91,0.0047,0.0171,2020-10-14 17:28:00,0.11,rain,10.93,2020-10-14 11:57:00,1.13,2020-10-15 05:43:00,10.8,2020-10-14 12:07:00,0.29,2020-10-15 01:42:00,5.16,0.98,1016.3,1.86,5.21,1602659400,245,0.33,9,1602656520,15.128,242.8,2.2,2020-10-15 00:00:00,10.93,2020-10-14 11:57:00,1.06,2020-10-15 00:00:00,10.8,2020-10-14 12:07:00
Mustang,Mustang(Lomangthang),28.81555556,83.86222222,2020-10-14 00:00:00,Clear throughout the day.,clear-day,2020-10-14 06:11:00,2020-10-14 17:42:00,0.91,0.0038,0.0159,2020-10-14 17:33:00,0.14,rain,11.17,2020-10-14 12:31:00,-0.5,2020-10-15 05:41:00,10.92,2020-10-14 12:20:00,-1.56,2020-10-15 01:37:00,4.81,0.99,1016.1,1.6,4.08,1602661500,214,0.3,9,1602656040,15.955,241.9,0.8,2020-10-15 00:00:00,11.17,2020-10-14 12:31:00,-0.53,2020-10-15 00:00:00,10.92,2020-10-14 12:20:00
Mustang,Ranipauwa (M.Nath),28.73887222,83.68183333,2020-10-14 00:00:00,Foggy in the afternoon.,fog,2020-10-14 06:12:00,2020-10-14 17:43:00,0.91,0.0067,0.022,2020-10-14 16:32:00,0.12,rain,10.25,2020-10-14 12:01:00,1.37,2020-10-15 05:43:00,8.51,2020-10-14 11:57:00,0.75,2020-10-15 01:42:00,4.98,1.0,1016.2,1.72,4.81,1602658800,258,0.34,8,1602656700,14.737,242.7,2.23,2020-10-15 00:00:00,10.25,2020-10-14 12:01:00,1.31,2020-10-15 00:00:00,8.51,2020-10-14 11:57:00
Mustang,Tatopani,28.9,83.68333333,2020-10-14 00:00:00,Clear throughout the day.,clear-day,2020-10-14 06:12:00,2020-10-14 17:43:00,0.91,0.0031,0.0107,2020-10-14 17:32:00,0.1,rain,10.84,2020-10-14 12:38:00,-2.01,2020-10-15 05:42:00,10.69,2020-10-14 12:25:00,-3.2,2020-10-15 01:44:00,2.88,0.96,1016.3,1.89,5.13,1602662940,255,0.34,9,1602655620,16.093,242.0,-0.53,2020-10-15 00:00:00,10.84,2020-10-14 12:38:00,-2.49,2020-10-15 00:00:00,10.69,2020-10-14 12:25:00
Myagdi,Bega,28.4,83.73333333,2020-10-14 00:00:00,Partly cloudy throughout the day.,partly-cloudy-day,2020-10-14 06:11:00,2020-10-14 17:43:00,0.91,0.0295,0.1056,2020-10-14 16:29:00,0.14,rain,18.63,2020-10-14 13:03:00,10.42,2020-10-14 21:46:00,18.4,2020-10-14 13:09:00,10.92,2020-10-14 21:49:00,11.58,0.91,1011.9,1.28,2.23,1602656520,321,0.45,7,1602654720,15.272,247.3,10.42,2020-10-14 21:46:00,18.63,2020-10-14 13:03:00,10.85,2020-10-14 06:05:00,18.4,2020-10-14 13:09:00
Myagdi,Beni Bazar,29.22713194,83.979815,2020-10-13 21:45:00,Clear throughout the day.,clear-day,2020-10-14 06:11:00,2020-10-14 17:41:00,0.91,0.0014,0.0047,2020-10-14 17:45:00,0.11,rain,14.63,2020-10-14 13:43:00,-6.05,2020-10-15 05:26:00,14.35,2020-10-14 13:43:00,-6.74,2020-10-15 03:44:00,-1.83,0.78,1016.5,2.13,5.93,1602664560,205,0.16,10,1602655980,16.009,241.7,-4.19,2020-10-14 06:19:00,14.63,2020-10-14 13:43:00,-5.83,2020-10-14 06:48:00,14.35,2020-10-14 13:43:00
Myagdi,Dumkauli,28.56666667,83.38333333,2020-10-14 00:00:00,Partly cloudy throughout the day.,partly-cloudy-day,2020-10-14 06:13:00,2020-10-14 17:44:00,0.91,0.0168,0.0535,2020-10-14 15:40:00,0.13,rain,15.93,2020-10-14 12:39:00,7.87,2020-10-15 06:35:00,15.65,2020-10-14 12:39:00,6.84,2020-10-15 06:32:00,7.72,0.83,1014.1,2.05,2.87,1602656940,357,0.46,7,1602655020,15.915,245.2,7.97,2020-10-14 06:37:00,15.93,2020-10-14 12:39:00,6.98,2020-10-14 06:34:00,15.65,2020-10-14 12:39:00
Myagdi,Ghorepani,28.35083333,83.56666667,2020-10-14 00:00:00,Partly cloudy throughout the day.,partly-cloudy-day,2020-10-14 06:12:00,2020-10-14 17:43:00,0.91,0.0452,0.3006,2020-10-14 15:52:00,0.11,rain,23.43,2020-10-14 13:24:00,14.98,2020-10-14 23:45:00,23.15,2020-10-14 13:24:00,15.25,2020-10-14 23:45:00,10.95,0.64,1012.2,1.62,2.55,1602632160,327,0.45,6,1602656100,16.052,248.8,14.98,2020-10-14 23:45:00,23.43,2020-10-14 13:24:00,15.25,2020-10-14 23:45:00,23.15,2020-10-14 13:24:00
Myagdi,Muna,28.44271389,83.576185,2020-10-14 00:00:00,Partly cloudy throughout the day.,partly-cloudy-day,2020-10-14 06:12:00,2020-10-14 17:43:00,0.91,0.0338,0.1637,2020-10-14 15:50:00,0.13,rain,20.92,2020-10-14 12:39:00,13.67,2020-10-15 01:45:00,20.64,2020-10-14 12:39:00,13.94,2020-10-15 01:45:00,11.04,0.72,1012.4,1.79,2.44,1602632580,342,0.46,6,1602655140,15.389,247.3,13.69,2020-10-14 23:42:00,20.92,2020-10-14 12:39:00,13.96,2020-10-14 23:42:00,20.64,2020-10-14 12:39:00
Nawalparasi,Bara Ghat,27.680675,84.22854170000001,2020-10-14 00:00:00,Humid and partly cloudy throughout the day.,partly-cloudy-day,2020-10-14 06:09:00,2020-10-14 17:41:00,0.91,0.0335,0.5574,2020-10-14 00:00:00,0.09,rain,34.67,2020-10-14 14:08:00,21.87,2020-10-15 05:39:00,37.96,2020-10-14 14:40:00,22.48,2020-10-15 06:07:00,22.12,0.75,1008.2,1.24,1.99,1602667380,18,0.27,7,1602659040,16.093,257.0,21.88,2020-10-14 05:23:00,34.67,2020-10-14 14:08:00,22.94,2020-10-14 05:23:00,37.96,2020-10-14 14:40:00
Nawalparasi,Dumkibas,27.51925,83.66218333,2020-10-14 00:00:00,Partly cloudy throughout the day.,partly-cloudy-day,2020-10-14 06:11:00,2020-10-14 17:44:00,0.91,0.0126,0.0933,2020-10-14 02:42:00,0.04,rain,34.02,2020-10-14 14:02:00,22.7,2020-10-15 05:36:00,37.0,2020-10-14 14:24:00,23.47,2020-10-15 05:35:00,21.06,0.68,1007.3,1.47,2.49,1602677220,47,0.37,7,1602655620,16.093,257.8,22.3,2020-10-14 05:19:00,34.02,2020-10-14 14:02:00,23.11,2020-10-14 05:24:00,37.0,2020-10-14 14:24:00
