district,formal_name,lat,long,time,summary,icon,sunriseTime,sunsetTime,moonPhase,precipIntensity,precipIntensityMax,precipIntensityMaxTime,precipProbability,precipType,temperatureHigh,temperatureHighTime,temperatureLow,temperatureLowTime,apparentTemperatureHigh,apparentTemperatureHighTime,apparentTemperatureLow,apparentTemperatureLowTime,dewPoint,humidity,pressure,windSpeed,windGust,windGustTime,windBearing,cloudCover,uvIndex,uvIndexTime,visibility,ozone,temperatureMin,temperatureMinTime,temperatureMax,temperatureMaxTime,apparentTemperatureMin,apparentTemperatureMinTime,apparentTemperatureMax,apparentTemperatureMaxTime
Achham,Asara Ghat,28.95029444,81.44431944,2020-09-11 00:00:00,Humid throughout the day.,rain,2020-09-11 06:04:00,2020-09-11 18:31:00,0.79,0.1765,0.7017,2020-09-12 00:00:00,0.4,rain,30.62,2020-09-11 13:16:00,20.6,2020-09-12 05:51:00,39.11,2020-09-11 16:42:00,21.69,2020-09-12 05:54:00,24.15,0.94,1006.5,1.02,2.39,1599778080,188,0.15,11,1599804720,16.093,256.2,21.06,2020-09-11 04:54:00,30.62,2020-09-11 13:16:00,22.14,2020-09-11 04:51:00,39.11,2020-09-11 16:42:00
Achham,Basti,29.03098333,81.17113333,2020-09-11 00:00:00,Humid throughout the day.,clear-day,2020-09-11 06:05:00,2020-09-11 18:32:00,0.79,0.1383,0.9419,2020-09-11 23:55:00,0.37,rain,32.51,2020-09-11 13:48:00,21.52,2020-09-12 06:19:00,44.98,2020-09-11 16:44:00,22.87,2020-09-12 06:18:00,25.23,0.94,1006.3,0.9,1.99,1599824100,132,0.12,11,1599805080,16.093,256.5,21.88,2020-09-11 06:05:00,32.51,2020-09-11 13:48:00,23.31,2020-09-11 05:11:00,44.98,2020-09-11 16:44:00
Achham,Mangalsen,29.13611389,81.25009167,2020-09-11 00:00:00,Humid throughout the day.,clear-day,2020-09-11 06:04:00,2020-09-11 18:32:00,0.79,0.1012,0.8532,2020-09-11 23:53:00,0.31,rain,28.86,2020-09-11 14:09:00,18.17,2020-09-12 05:43:00,32.37,2020-09-11 14:35:00,19.05,2020-09-12 05:45:00,21.63,0.94,1006.6,0.97,1.93,1599778380,150,0.13,12,1599805320,16.093,255.9,18.2,2020-09-11 05:38:00,28.86,2020-09-11 14:09:00,19.25,2020-09-11 05:23:00,32.37,2020-09-11 14:35:00
Achham,Sugali,29.17980694,81.37293889,2020-09-11 00:00:00,Humid throughout the day.,clear-day,2020-09-11 06:04:00,2020-09-11 18:31:00,0.79,0.081,0.5628,2020-09-11 23:57:00,0.3,rain,27.07,2020-09-11 13:55:00,16.47,2020-09-12 05:40:00,29.02,2020-09-11 14:10:00,17.17,2020-09-12 05:44:00,19.91,0.95,1006.9,1.14,2.35,1599778380,170,0.17,12,1599805200,16.093,254.7,16.03,2020-09-11 05:45:00,27.07,2020-09-11 13:55:00,17.03,2020-09-11 05:42:00,29.02,2020-09-11 14:10:00
Arghakhanchi,Rangsing,27.80330278,82.78400833,2020-09-11 00:00:00,Humid and mostly cloudy throughout the day.,rain,2020-09-11 05:59:00,2020-09-11 18:25:00,0.79,0.167,0.6112,2020-09-11 23:35:00,0.51,rain,32.71,2020-09-11 13:27:00,23.03,2020-09-12 05:19:00,42.26,2020-09-11 14:01:00,24.11,2020-09-12 05:16:00,24.84,0.85,1004.7,1.32,2.18,1599848100,97,0.77,6,1599804540,16.093,260.3,23.06,2020-09-11 04:40:00,32.71,2020-09-11 13:27:00,24.0,2020-09-11 04:40:00,42.26,2020-09-11 14:01:00
Arghakhanchi,Sandhikharka,27.96402222,83.12056944,2020-09-11 00:00:00,Humid and mostly cloudy throughout the day.,rain,2020-09-11 05:57:00,2020-09-11 18:24:00,0.79,0.1945,0.4916,2020-09-11 17:56:00,0.49,rain,29.76,2020-09-11 12:40:00,19.01,2020-09-12 05:23:00,32.44,2020-09-11 13:11:00,19.67,2020-09-12 05:27:00,20.66,0.84,1005.6,1.12,1.6,1599782160,93,0.67,7,1599804000,16.093,258.4,19.17,2020-09-11 04:41:00,29.76,2020-09-11 12:40:00,19.73,2020-09-11 04:41:00,32.44,2020-09-11 13:11:00
Arghakhanchi,Sidhara,27.7945,82.82838333,2020-09-11 00:00:00,Humid and mostly cloudy throughout the day.,rain,2020-09-11 05:59:00,2020-09-11 18:25:00,0.79,0.1656,0.5857,2020-09-11 23:37:00,0.53,rain,32.01,2020-09-11 13:07:00,22.77,2020-09-12 05:10:00,39.56,2020-09-11 13:47:00,23.81,2020-09-12 05:04:00,24.11,0.85,1004.7,1.33,2.19,1599848100,96,0.76,6,1599804420,16.093,260.3,22.75,2020-09-11 04:37:00,32.01,2020-09-11 13:07:00,23.65,2020-09-11 04:37:00,39.56,2020-09-11 13:47:00
Baglung,Baglung,28.26363611,83.60032222,2020-09-11 00:00:00,Humid and mostly cloudy throughout the day.,rain,2020-09-11 05:55:00,2020-09-11 18:22:00,0.79,0.2798,0.496,2020-09-11 14:05:00,0.6,rain,27.56,2020-09-11 13:06:00,18.15,2020-09-12 05:38:00,30.33,2020-09-11 13:13:00,18.88,2020-09-12 05:38:00,20.89,0.95,1007.6,1.05,1.83,1599778920,6,0.75,9,1599803640,15.944,256.0,17.04,2020-09-11 04:32:00,27.56,2020-09-11 13:06:00,18.02,2020-09-11 04:32:00,30.33,2020-09-11 13:13:00
Baglung,Dhorpatan,28.48333333,83.08333333,2020-09-11 00:00:00,Foggy in the afternoon and evening.,rain,2020-09-11 05:57:00,2020-09-11 18:24:00,0.79,0.2028,0.4251,2020-09-11 14:59:00,0.55,rain,17.54,2020-09-11 12:48:00,9.12,2020-09-12 05:40:00,18.95,2020-09-11 12:50:00,9.02,2020-09-12 05:34:00,12.34,1.0,1007.4,1.21,2.04,1599804060,48,0.76,10,1599803700,13.064,252.0,8.78,2020-09-11 05:44:00,17.54,2020-09-11 12:48:00,8.51,2020-09-11 05:54:00,18.95,2020-09-11 12:50:00
Baglung,Galkot,28.21869167,83.41881111,2020-09-11 00:00:00,Humid and mostly cloudy throughout the day.,rain,2020-09-11 05:56:00,2020-09-11 18:22:00,0.79,0.217,0.6329,2020-09-11 14:36:00,0.55,rain,26.93,2020-09-11 12:49:00,16.1,2020-09-12 05:44:00,28.54,2020-09-11 13:01:00,16.45,2020-09-12 05:44:00,19.34,0.92,1007.2,1.04,1.93,1599781500,10,0.7,8,1599803760,16.071,256.1,15.45,2020-09-11 04:45:00,26.93,2020-09-11 12:49:00,16.05,2020-09-11 04:48:00,28.54,2020-09-11 13:01:00
Baglung,Rangkhani,28.14408889,83.55824444,2020-09-11 00:00:00,Mostly cloudy throughout the day.,rain,2020-09-11 05:56:00,2020-09-11 18:22:00,0.79,0.2396,0.4655,2020-09-11 14:01:00,0.58,rain,25.03,2020-09-11 12:48:00,15.93,2020-09-12 05:29:00,25.04,2020-09-11 12:50:00,16.2,2020-09-12 05:29:00,17.15,0.88,1007.1,1.0,1.73,1599781680,13,0.7,9,1599803700,16.093,257.0,14.83,2020-09-11 04:35:00,25.03,2020-09-11 12:48:00,15.39,2020-09-11 04:38:00,25.04,2020-09-11 12:50:00
Baitadi,Patan (West),29.467137,80.54575109999999,2020-09-11 00:00:00,Humid and partly cloudy throughout the day.,partly-cloudy-day,2020-09-11 06:07:00,2020-09-11 18:35:00,0.79,0.0803,0.3238,2020-09-11 20:50:00,0.27,rain,29.1,2020-09-11 13:46:00,17.97,2020-09-12 05:45:00,32.96,2020-09-11 13:53:00,18.99,2020-09-12 05:43:00,21.99,0.95,1006.5,0.81,2.04,1599824640,195,0.37,9,1599806100,15.717,255.8,18.55,2020-09-11 04:43:00,29.1,2020-09-11 13:46:00,19.59,2020-09-11 04:41:00,32.96,2020-09-11 13:53:00
Baitadi,Satbanjh,29.4973,80.49741194,2020-09-11 00:00:00,Humid and partly cloudy throughout the day.,partly-cloudy-day,2020-09-11 06:07:00,2020-09-11 18:35:00,0.79,0.0778,0.2997,2020-09-11 20:47:00,0.26,rain,25.48,2020-09-11 13:42:00,15.7,2020-09-12 05:37:00,25.72,2020-09-11 13:45:00,16.73,2020-09-12 05:35:00,18.83,0.96,1006.5,0.83,2.02,1599824040,203,0.39,9,1599806160,15.09,256.0,16.08,2020-09-11 04:43:00,25.48,2020-09-11 13:42:00,17.1,2020-09-11 04:39:00,25.72,2020-09-11 13:45:00
Bajhang,Chainpur (West),29.55,81.21666667,2020-09-11 00:00:00,Humid throughout the day.,clear-day,2020-09-11 06:04:00,2020-09-11 18:32:00,0.79,0.0093,0.0436,2020-09-11 17:35:00,0.16,rain,26.45,2020-09-11 13:56:00,15.01,2020-09-12 05:25:00,27.93,2020-09-11 14:02:00,15.28,2020-09-12 05:25:00,18.84,0.95,1007.4,1.28,2.23,1599780240,24,0.14,12,1599805380,16.093,252.5,14.78,2020-09-11 05:45:00,26.45,2020-09-11 13:56:00,15.38,2020-09-11 05:44:00,27.93,2020-09-11 14:02:00
Bajhang,Chainpur Bajhang Aws Climate,29.545890000000004,81.20114000000001,2020-09-11 00:00:00,Humid throughout the day.,clear-day,2020-09-11 06:04:00,2020-09-11 18:32:00,0.79,0.0092,0.0416,2020-09-11 17:34:00,0.16,rain,26.6,2020-09-11 13:59:00,15.43,2020-09-12 05:28:00,28.28,2020-09-11 14:06:00,15.7,2020-09-12 05:27:00,19.13,0.95,1007.4,1.25,2.21,1599780240,28,0.15,12,1599805320,16.093,252.6,15.16,2020-09-11 05:46:00,26.6,2020-09-11 13:59:00,15.77,2020-09-11 05:45:00,28.28,2020-09-11 14:06:00
Bajhang,Kalukheti,29.447359999999996,81.16838,2020-09-11 00:00:00,Humid throughout the day.,clear-day,2020-09-11 06:05:00,2020-09-11 18:32:00,0.79,0.0186,0.1867,2020-09-11 23:48:00,0.18,rain,28.33,2020-09-11 14:23:00,15.57,2020-09-12 05:36:00,30.85,2020-09-11 15:37:00,15.84,2020-09-12 05:36:00,19.57,0.9,1007.0,1.08,2.18,1599780300,128,0.12,12,1599805500,16.093,253.9,15.73,2020-09-11 05:49:00,28.33,2020-09-11 14:23:00,16.22,2020-09-11 05:46:00,30.85,2020-09-11 15:37:00
Bajhang,Rayal,29.464595000000003,80.95405,2020-09-11 00:00:00,Humid throughout the day.,clear-day,2020-09-11 06:05:00,2020-09-11 18:33:00,0.79,0.0219,0.1359,2020-09-11 23:44:00,0.2,rain,30.54,2020-09-11 14:39:00,17.48,2020-09-12 05:34:00,36.12,2020-09-11 16:32:00,18.13,2020-09-12 05:34:00,21.95,0.93,1006.9,0.92,1.93,1599825000,140,0.18,11,1599805380,16.093,254.4,18.06,2020-09-11 05:42:00,30.54,2020-09-11 14:39:00,19.01,2020-09-11 05:38:00,36.12,2020-09-11 16:32:00
Bajura,Bajura (Martadi),29.45697889,81.48038389,2020-09-11 00:00:00,Humid throughout the day.,clear-day,2020-09-11 06:03:00,2020-09-11 18:31:00,0.79,0.0124,0.0598,2020-09-11 14:46:00,0.17,rain,26.22,2020-09-11 13:54:00,13.1,2020-09-12 05:30:00,28.02,2020-09-11 13:49:00,13.7,2020-09-12 05:29:00,17.72,0.99,1007.7,1.32,2.75,1599818340,48,0.17,12,1599805080,16.093,252.0,12.21,2020-09-11 05:46:00,26.22,2020-09-11 13:54:00,13.17,2020-09-11 05:45:00,28.02,2020-09-11 13:49:00
Bajura,Kailasmandu,29.35291694,81.33385889,2020-09-11 00:00:00,Humid throughout the day.,clear-day,2020-09-11 06:04:00,2020-09-11 18:31:00,0.79,0.0318,0.3197,2020-09-11 23:51:00,0.21,rain,29.38,2020-09-11 14:20:00,17.41,2020-09-12 05:33:00,33.84,2020-09-11 14:53:00,18.07,2020-09-12 05:34:00,20.96,0.94,1007.2,1.18,2.37,1599779460,115,0.15,11,1599805440,16.093,253.8,16.92,2020-09-11 05:45:00,29.38,2020-09-11 14:20:00,17.93,2020-09-11 05:44:00,33.84,2020-09-11 14:53:00
Bajura,Kolti,29.50348694,81.66617611,2020-09-11 00:00:00,Humid throughout the day.,clear-day,2020-09-11 06:03:00,2020-09-11 18:30:00,0.79,0.0057,0.031,2020-09-11 14:54:00,0.13,rain,24.51,2020-09-11 13:51:00,10.17,2020-09-12 05:30:00,25.02,2020-09-11 14:01:00,10.74,2020-09-12 05:28:00,15.04,0.98,1008.0,1.0,3.42,1599820560,284,0.16,12,1599805440,16.093,252.0,8.94,2020-09-11 05:45:00,24.51,2020-09-11 13:51:00,9.55,2020-09-11 05:44:00,25.02,2020-09-11 14:01:00
Banke,Amlekhganj,27.94748333,81.78569444,2020-09-11 00:15:00,Humid and partly cloudy throughout the day.,partly-cloudy-day,2020-09-11 06:03:00,2020-09-11 18:29:00,0.79,0.0355,0.1913,2020-09-11 14:43:00,0.19,rain,32.97,2020-09-11 12:33:00,24.42,2020-09-12 05:04:00,42.44,2020-09-11 12:09:00,25.57,2020-09-12 05:05:00,25.11,0.81,1003.6,1.83,3.25,1599837060,128,0.56,8,1599806580,16.093,260.6,25.0,2020-09-11 04:31:00,32.97,2020-09-11 12:33:00,25.96,2020-09-11 04:26:00,42.44,2020-09-11 12:09:00
Banke,Dhakeri,28.10055556,81.66824722,2020-09-11 00:15:00,Humid and partly cloudy throughout the day.,partly-cloudy-day,2020-09-11 06:03:00,2020-09-11 18:29:00,0.79,0.0205,0.0614,2020-09-11 14:36:00,0.17,rain,33.0,2020-09-11 12:59:00,24.2,2020-09-12 05:07:00,43.54,2020-09-11 13:15:00,25.35,2020-09-12 05:06:00,25.78,0.83,1003.8,1.64,2.72,1599837780,128,0.51,9,1599806760,16.093,260.1,25.18,2020-09-11 04:33:00,33.0,2020-09-11 12:59:00,26.33,2020-09-11 04:35:00,43.54,2020-09-11 13:15:00
Banke,Khajura (Nepalganj),28.11368333,81.59030556,2020-09-11 00:15:00,Humid and partly cloudy throughout the day.,partly-cloudy-day,2020-09-11 06:03:00,2020-09-11 18:30:00,0.79,0.0212,0.0666,2020-09-11 14:32:00,0.17,rain,32.93,2020-09-11 13:23:00,24.28,2020-09-12 05:04:00,43.42,2020-09-11 13:42:00,25.42,2020-09-12 05:04:00,25.64,0.83,1003.8,1.71,2.81,1599839520,123,0.49,9,1599806820,16.093,260.2,25.04,2020-09-11 04:33:00,32.93,2020-09-11 13:23:00,26.06,2020-09-11 04:26:00,43.42,2020-09-11 13:42:00
Banke,Naubasta,28.230225,81.65270278,2020-09-11 00:00:00,Humid and partly cloudy throughout the day.,partly-cloudy-day,2020-09-11 06:03:00,2020-09-11 18:30:00,0.79,0.0199,0.0516,2020-09-11 20:46:00,0.2,rain,33.6,2020-09-11 13:15:00,24.08,2020-09-12 05:09:00,45.86,2020-09-11 14:09:00,25.27,2020-09-12 05:07:00,26.69,0.87,1004.1,1.44,2.42,1599815460,121,0.43,9,1599806520,16.093,259.5,25.45,2020-09-11 04:37:00,33.6,2020-09-11 13:15:00,27.37,2020-09-11 04:37:00,45.86,2020-09-11 14:09:00
Banke,Nepalgunj Airport,28.051994399999995,81.6228389,2020-09-11 00:15:00,Humid and partly cloudy throughout the day.,partly-cloudy-day,2020-09-11 06:03:00,2020-09-11 18:30:00,0.79,0.0214,0.0807,2020-09-11 14:36:00,0.16,rain,32.55,2020-09-11 13:01:00,24.3,2020-09-12 05:03:00,41.92,2020-09-11 13:01:00,25.43,2020-09-12 05:03:00,25.2,0.82,1003.7,1.77,3.11,1599838440,127,0.54,9,1599806940,16.093,260.4,24.86,2020-09-11 04:32:00,32.55,2020-09-11 13:01:00,25.85,2020-09-11 04:27:00,41.92,2020-09-11 13:01:00
Bara,Gulariya,27.164166700000003,84.98,2020-09-11 00:00:00,Possible light rain and humid throughout the day.,rain,2020-09-11 05:50:00,2020-09-11 18:16:00,0.79,0.3357,1.0436,2020-09-11 00:28:00,0.89,rain,30.43,2020-09-11 13:57:00,24.56,2020-09-12 05:05:00,39.57,2020-09-11 14:25:00,25.79,2020-09-12 05:02:00,25.64,0.9,1005.0,2.1,6.7,1599846720,88,0.75,7,1599803880,16.08,262.2,24.61,2020-09-11 04:32:00,30.43,2020-09-11 13:57:00,25.71,2020-09-11 04:29:00,39.57,2020-09-11 14:25:00
Bara,Kalaiya,27.079,84.9329,2020-09-11 00:00:00,Possible light rain and humid throughout the day.,rain,2020-09-11 05:51:00,2020-09-11 18:16:00,0.79,0.3546,0.9318,2020-09-11 00:24:00,0.92,rain,29.99,2020-09-11 13:46:00,24.57,2020-09-12 05:12:00,37.86,2020-09-11 13:56:00,25.79,2020-09-12 05:07:00,25.16,0.88,1004.7,2.59,9.54,1599846000,87,0.76,6,1599803820,16.093,262.4,24.57,2020-09-11 04:30:00,29.99,2020-09-11 13:46:00,25.63,2020-09-11 04:28:00,37.86,2020-09-11 13:56:00
Bara,Nijgadh,27.16416667,84.98,2020-09-11 00:00:00,Possible light rain and humid throughout the day.,rain,2020-09-11 05:50:00,2020-09-11 18:16:00,0.79,0.3357,1.0436,2020-09-11 00:28:00,0.89,rain,30.43,2020-09-11 13:57:00,24.56,2020-09-12 05:05:00,39.57,2020-09-11 14:25:00,25.79,2020-09-12 05:02:00,25.64,0.9,1005.0,2.1,6.7,1599846720,88,0.75,7,1599803880,16.08,262.2,24.61,2020-09-11 04:32:00,30.43,2020-09-11 13:57:00,25.71,2020-09-11 04:29:00,39.57,2020-09-11 14:25:00
Bara,Parwanipur,27.20300556,85.170475,2020-09-11 00:00:00,Possible light rain and humid throughout the day.,rain,2020-09-11 05:50:00,2020-09-11 18:15:00,0.79,0.3317,1.2576,2020-09-11 02:28:00,0.85,rain,29.92,2020-09-11 13:29:00,24.39,2020-09-12 04:59:00,38.48,2020-09-11 14:17:00,25.56,2020-09-12 04:57:00,25.53,0.91,1005.3,1.7,5.8,1599825720,87,0.84,6,1599804180,16.093,262.0,24.37,2020-09-11 04:34:00,29.92,2020-09-11 13:29:00,25.45,2020-09-11 04:31:00,38.48,2020-09-11 14:17:00
Bara,Simara Airport,27.2813,84.9919,2020-09-11 00:00:00,Possible light rain and humid throughout the day.,rain,2020-09-11 05:50:00,2020-09-11 18:16:00,0.79,0.3238,1.1062,2020-09-11 00:15:00,0.84,rain,29.64,2020-09-11 13:27:00,23.63,2020-09-12 04:52:00,37.65,2020-09-11 13:48:00,24.8,2020-09-12 04:48:00,25.42,0.94,1005.4,1.54,6.06,1599825300,90,0.75,7,1599803880,15.986,261.7,23.64,2020-09-11 04:32:00,29.64,2020-09-11 13:27:00,24.81,2020-09-11 04:32:00,37.65,2020-09-11 13:48:00
Bardiya,Chisapani(Karnali),28.21278611,81.34521111,2020-09-11 00:00:00,Humid and partly cloudy throughout the day.,partly-cloudy-day,2020-09-11 06:04:00,2020-09-11 18:31:00,0.79,0.0344,0.1515,2020-09-11 05:46:00,0.2,rain,32.34,2020-09-11 14:05:00,24.11,2020-09-12 05:05:00,41.47,2020-09-11 15:10:00,25.21,2020-09-12 05:06:00,24.89,0.82,1003.8,1.76,2.58,1599846900,107,0.32,10,1599805680,16.093,260.1,24.47,2020-09-11 04:33:00,32.34,2020-09-11 14:05:00,25.5,2020-09-11 04:30:00,41.47,2020-09-11 15:10:00
Bardiya,Kumalgaun,28.33735833,81.33784167,2020-09-11 00:00:00,Humid throughout the day.,clear-day,2020-09-11 06:04:00,2020-09-11 18:31:00,0.79,0.0585,0.2798,2020-09-11 05:54:00,0.25,rain,32.92,2020-09-11 13:59:00,23.93,2020-09-12 05:13:00,43.52,2020-09-11 14:38:00,25.04,2020-09-12 05:13:00,25.37,0.84,1004.2,1.55,2.27,1599818640,110,0.25,10,1599805260,16.093,259.7,24.45,2020-09-11 04:33:00,32.92,2020-09-11 13:59:00,25.5,2020-09-11 04:30:00,43.52,2020-09-11 14:38:00
Bardiya,Manpur,28.36353889,81.41428333,2020-09-11 00:00:00,Humid throughout the day.,clear-day,2020-09-11 06:04:00,2020-09-11 18:31:00,0.79,0.0625,0.229,2020-09-11 06:08:00,0.25,rain,33.54,2020-09-11 13:55:00,23.93,2020-09-12 05:18:00,46.18,2020-09-11 15:17:00,25.07,2020-09-12 05:17:00,26.19,0.86,1004.3,1.4,2.19,1599816960,110,0.29,10,1599805200,16.093,259.4,24.72,2020-09-11 04:34:00,33.54,2020-09-11 13:55:00,25.79,2020-09-11 04:28:00,46.18,2020-09-11 15:17:00
Bardiya,Rajapur,28.64721944,81.28542778,2020-09-11 00:00:00,Humid throughout the day.,clear-day,2020-09-11 06:04:00,2020-09-11 18:31:00,0.79,0.1256,0.4721,2020-09-11 20:51:00,0.33,rain,33.2,2020-09-11 13:50:00,23.05,2020-09-12 05:28:00,43.45,2020-09-11 15:28:00,24.19,2020-09-12 05:26:00,25.61,0.89,1005.1,1.1,1.77,1599814980,113,0.13,11,1599805260,16.093,258.9,23.62,2020-09-11 04:34:00,33.2,2020-09-11 13:50:00,24.75,2020-09-11 04:34:00,43.45,2020-09-11 15:28:00
Bardiya,Rambhapur,28.307825,81.27586389,2020-09-11 00:00:00,Humid throughout the day.,clear-day,2020-09-11 06:05:00,2020-09-11 18:31:00,0.79,0.0559,0.313,2020-09-11 05:49:00,0.25,rain,32.26,2020-09-11 14:08:00,23.93,2020-09-12 05:11:00,41.14,2020-09-11 14:56:00,25.01,2020-09-12 05:11:00,24.71,0.82,1004.0,1.67,2.35,1599824040,108,0.23,10,1599805140,16.093,259.9,24.23,2020-09-11 04:32:00,32.26,2020-09-11 14:08:00,25.25,2020-09-11 04:30:00,41.14,2020-09-11 14:56:00
Bardiya,Rani Jaruwa Nursery,28.42588611,81.33803611,2020-09-11 00:00:00,Humid throughout the day.,clear-day,2020-09-11 06:04:00,2020-09-11 18:31:00,0.79,0.0804,0.3802,2020-09-11 06:03:00,0.28,rain,33.39,2020-09-11 13:57:00,23.81,2020-09-12 05:25:00,45.33,2020-09-11 15:02:00,24.93,2020-09-12 05:24:00,25.87,0.86,1004.4,1.37,2.08,1599816300,116,0.22,10,1599805020,16.093,259.5,24.46,2020-09-11 04:32:00,33.39,2020-09-11 13:57:00,25.53,2020-09-11 04:29:00,45.33,2020-09-11 15:02:00
Bhaktapur,Bhaktapur,27.63333333,85.43333333,2020-09-11 00:00:00,Rain and humid throughout the day.,rain,2020-09-11 05:48:00,2020-09-11 18:14:00,0.79,0.5422,1.3001,2020-09-11 14:52:00,0.82,rain,24.52,2020-09-11 12:14:00,16.91,2020-09-12 05:40:00,25.52,2020-09-11 12:25:00,18.02,2020-09-12 05:36:00,20.02,1.0,1007.0,0.74,1.97,1599815340,98,0.89,7,1599803700,13.337,258.3,17.23,2020-09-11 04:38:00,24.52,2020-09-11 12:14:00,18.25,2020-09-11 04:30:00,25.52,2020-09-11 12:25:00
Bhaktapur,Changu Narayan,27.67668056,85.42396944,2020-09-11 00:00:00,Rain and humid throughout the day.,rain,2020-09-11 05:48:00,2020-09-11 18:14:00,0.79,0.5521,1.3258,2020-09-11 14:55:00,0.83,rain,25.98,2020-09-11 12:31:00,17.45,2020-09-12 05:52:00,27.38,2020-09-11 12:43:00,18.41,2020-09-12 05:48:00,21.52,1.0,1007.1,0.72,1.94,1599815580,97,0.88,7,1599803700,13.213,258.2,18.11,2020-09-11 05:44:00,25.98,2020-09-11 12:31:00,19.07,2020-09-11 05:36:00,27.38,2020-09-11 12:43:00
Bhaktapur,Nagarkot,27.645725,85.4615833,2020-09-11 00:00:00,Rain and humid throughout the day.,rain,2020-09-11 05:48:00,2020-09-11 18:14:00,0.79,0.5423,1.3078,2020-09-11 14:53:00,0.82,rain,25.29,2020-09-11 12:25:00,17.21,2020-09-12 05:42:00,26.31,2020-09-11 12:35:00,18.29,2020-09-12 05:40:00,20.85,1.0,1007.1,0.71,1.93,1599815520,92,0.9,6,1599803880,13.208,258.2,17.62,2020-09-11 05:13:00,25.29,2020-09-11 12:25:00,18.64,2020-09-11 04:50:00,26.31,2020-09-11 12:35:00
Bhaktapur,Sanga,27.71605833,85.42675556,2020-09-11 00:00:00,Rain and humid throughout the day.,rain,2020-09-11 05:48:00,2020-09-11 18:14:00,0.79,0.5599,1.3495,2020-09-11 14:58:00,0.83,rain,25.53,2020-09-11 12:38:00,16.94,2020-09-12 05:43:00,26.38,2020-09-11 12:44:00,17.84,2020-09-12 05:41:00,20.85,1.0,1007.2,0.69,1.89,1599815820,91,0.87,7,1599803700,13.087,258.2,17.54,2020-09-11 05:38:00,25.53,2020-09-11 12:38:00,18.45,2020-09-11 05:29:00,26.38,2020-09-11 12:44:00
Bhojpur,Dingla,27.1944798,87.04862659999999,2020-09-11 00:00:00,Rain throughout the day.,rain,2020-09-11 05:42:00,2020-09-11 18:08:00,0.79,0.513,1.202,2020-09-11 14:22:00,0.83,rain,22.12,2020-09-11 11:54:00,16.1,2020-09-12 05:16:00,23.44,2020-09-11 12:01:00,17.26,2020-09-12 04:56:00,18.42,1.0,1007.1,0.65,2.3,1599814080,75,0.94,8,1599804180,11.234,258.7,16.39,2020-09-11 23:52:00,22.12,2020-09-11 11:54:00,17.64,2020-09-12 00:00:00,23.44,2020-09-11 12:01:00
Bhojpur,Rampur,27.5282716,87.2177064,2020-09-11 00:00:00,Possible light rain in the morning and afternoon.,rain,2020-09-11 05:41:00,2020-09-11 18:07:00,0.79,0.258,0.7496,2020-09-11 14:04:00,0.73,rain,23.7,2020-09-11 11:47:00,17.56,2020-09-12 05:45:00,24.77,2020-09-11 11:53:00,18.83,2020-09-12 05:39:00,20.0,1.0,1007.8,0.8,1.45,1599835800,350,0.87,8,1599804600,13.501,257.4,17.55,2020-09-11 05:42:00,23.7,2020-09-11 11:47:00,18.75,2020-09-11 05:40:00,24.77,2020-09-11 11:53:00
Chitawan,Bharatpur,27.72113611,84.58525556,2020-09-11 00:00:00,"Possible light rain until morning, starting again in the evening.",rain,2020-09-11 05:52:00,2020-09-11 18:18:00,0.79,0.2812,0.5865,2020-09-11 18:39:00,0.79,rain,33.0,2020-09-11 12:42:00,23.04,2020-09-12 05:21:00,40.19,2020-09-11 15:39:00,24.24,2020-09-12 05:18:00,25.4,0.89,1006.2,0.85,1.98,1599815700,144,0.6,10,1599803340,16.093,260.5,23.2,2020-09-11 04:47:00,33.0,2020-09-11 12:42:00,24.42,2020-09-11 04:46:00,40.19,2020-09-11 15:39:00
Chitawan,Bharatpur,27.5909,84.5223,2020-09-11 00:00:00,Possible light rain and humid throughout the day.,rain,2020-09-11 05:52:00,2020-09-11 18:18:00,0.79,0.4211,0.8519,2020-09-11 05:38:00,0.85,rain,32.82,2020-09-11 12:15:00,24.0,2020-09-12 05:28:00,42.17,2020-09-11 13:29:00,25.21,2020-09-12 05:25:00,26.12,0.89,1005.7,1.19,5.22,1599842520,125,0.63,8,1599803400,15.672,261.2,24.39,2020-09-11 04:42:00,32.82,2020-09-11 12:15:00,25.64,2020-09-11 04:41:00,42.17,2020-09-11 13:29:00
Chitawan,Jhuwani,27.654025,84.3507944,2020-09-11 00:00:00,"Possible light rain until morning, starting again in the evening.",rain,2020-09-11 05:53:00,2020-09-11 18:19:00,0.79,0.2691,0.6134,2020-09-11 18:11:00,0.81,rain,33.7,2020-09-11 12:42:00,23.84,2020-09-12 05:33:00,41.74,2020-09-11 15:37:00,25.02,2020-09-12 05:34:00,25.21,0.84,1005.7,1.26,3.21,1599844140,105,0.57,9,1599803280,16.011,261.1,23.89,2020-09-11 05:05:00,33.7,2020-09-11 12:42:00,25.06,2020-09-11 05:01:00,41.74,2020-09-11 15:37:00
Chitwan,Gobindabasti,27.423171500000002,84.30374090000001,2020-09-11 00:00:00,Rain and humid throughout the day.,rain,2020-09-11 05:53:00,2020-09-11 18:19:00,0.79,0.5235,1.1115,2020-09-11 03:33:00,0.9,rain,30.56,2020-09-11 12:10:00,23.66,2020-09-12 05:19:00,36.78,2020-09-11 13:28:00,24.69,2020-09-12 05:18:00,24.18,0.86,1005.1,1.93,7.38,1599845100,106,0.63,7,1599802980,15.222,261.9,23.63,2020-09-11 04:35:00,30.56,2020-09-11 12:10:00,24.71,2020-09-11 04:36:00,36.78,2020-09-11 13:28:00
Chitwan,Madi Kalyanpur,27.580483299999997,84.2242222,2020-09-11 00:00:00,Possible light rain and humid throughout the day.,rain,2020-09-11 05:53:00,2020-09-11 18:19:00,0.79,0.2923,0.7263,2020-09-11 17:56:00,0.84,rain,33.42,2020-09-11 12:26:00,23.88,2020-09-12 05:25:00,41.82,2020-09-11 14:33:00,24.96,2020-09-12 05:28:00,24.85,0.82,1005.4,1.59,3.92,1599845820,103,0.57,9,1599802980,15.17,261.4,23.9,2020-09-11 04:53:00,33.42,2020-09-11 12:26:00,25.0,2020-09-11 04:53:00,41.82,2020-09-11 14:33:00
Chitwan,Meghauli,27.67303333,84.42227222,2020-09-11 00:00:00,"Possible light rain until morning, starting again in the evening.",rain,2020-09-11 05:52:00,2020-09-11 18:18:00,0.79,0.2745,0.5982,2020-09-11 18:30:00,0.81,rain,33.65,2020-09-11 12:42:00,23.77,2020-09-12 05:24:00,41.48,2020-09-11 15:39:00,24.99,2020-09-12 05:24:00,25.37,0.85,1005.8,1.13,2.99,1599841740,112,0.57,9,1599803340,16.093,261.0,23.89,2020-09-11 04:53:00,33.65,2020-09-11 12:42:00,25.1,2020-09-11 04:50:00,41.48,2020-09-11 15:39:00
Dadeldhura,Dadeldhura,29.301352,80.58775194,2020-09-11 00:00:00,Humid and partly cloudy throughout the day.,partly-cloudy-day,2020-09-11 06:07:00,2020-09-11 18:34:00,0.79,0.1184,0.4576,2020-09-11 20:54:00,0.35,rain,25.33,2020-09-11 13:35:00,16.54,2020-09-12 05:34:00,25.84,2020-09-11 13:41:00,17.78,2020-09-12 05:26:00,19.56,0.98,1006.3,0.78,2.02,1599824580,181,0.32,10,1599806400,16.093,255.6,16.82,2020-09-11 04:36:00,25.33,2020-09-11 13:35:00,17.97,2020-09-11 04:34:00,25.84,2020-09-11 13:41:00
Dadeldhura,Dailekh,29.12785778,80.34740778,2020-09-11 00:00:00,Humid throughout the day.,clear-day,2020-09-11 06:08:00,2020-09-11 18:35:00,0.79,0.1592,0.4507,2020-09-11 23:34:00,0.33,rain,32.48,2020-09-11 14:30:00,23.66,2020-09-12 05:35:00,49.07,2020-09-11 16:43:00,25.08,2020-09-12 05:30:00,26.89,0.97,1005.5,1.08,2.05,1599821460,106,0.17,10,1599805140,16.093,257.6,23.84,2020-09-11 04:46:00,32.48,2020-09-11 14:30:00,25.21,2020-09-11 04:45:00,49.07,2020-09-11 16:43:00
Dadeldhura,Sahukharka,29.288393100000004,80.37301500000001,2020-09-11 00:00:00,Humid throughout the day.,clear-day,2020-09-11 06:08:00,2020-09-11 18:35:00,0.79,0.1439,0.5089,2020-09-11 21:01:00,0.37,rain,26.82,2020-09-11 13:47:00,18.41,2020-09-12 05:38:00,29.36,2020-09-11 13:49:00,19.71,2020-09-12 03:16:00,21.3,0.99,1006.2,0.87,2.01,1599821820,181,0.21,10,1599805800,16.093,256.4,18.6,2020-09-11 04:20:00,26.82,2020-09-11 13:47:00,19.81,2020-09-11 04:19:00,29.36,2020-09-11 13:49:00
Dailekh,Bale Budha (Tallo Dhungeshwor),28.83811111,81.70848333,2020-09-11 00:00:00,Humid throughout the day.,rain,2020-09-11 06:03:00,2020-09-11 18:30:00,0.79,0.1799,0.4857,2020-09-11 15:11:00,0.41,rain,27.45,2020-09-11 12:31:00,18.83,2020-09-12 05:49:00,32.58,2020-09-11 12:31:00,20.08,2020-09-12 05:49:00,22.8,1.0,1006.6,0.95,1.88,1599778380,222,0.25,11,1599804120,15.954,254.8,19.21,2020-09-11 04:55:00,27.45,2020-09-11 12:31:00,20.42,2020-09-11 04:50:00,32.58,2020-09-11 12:31:00
Dailekh,Katti,28.92202778,81.62608333,2020-09-11 00:00:00,Humid throughout the day.,rain,2020-09-11 06:03:00,2020-09-11 18:30:00,0.79,0.1806,0.5535,2020-09-11 14:57:00,0.42,rain,27.49,2020-09-11 12:43:00,18.5,2020-09-12 05:44:00,32.15,2020-09-11 13:23:00,19.62,2020-09-12 05:46:00,22.45,0.98,1006.7,1.06,2.29,1599777900,226,0.22,11,1599804300,16.093,254.8,18.79,2020-09-11 05:25:00,27.49,2020-09-11 12:43:00,20.03,2020-09-11 05:08:00,32.15,2020-09-11 13:23:00
Dailekh,Nayabasti (Dang),28.78022222,81.82144444,2020-09-11 00:00:00,Humid throughout the day.,rain,2020-09-11 06:02:00,2020-09-11 18:29:00,0.79,0.1842,0.4027,2020-09-11 15:56:00,0.41,rain,28.31,2020-09-11 12:28:00,19.64,2020-09-12 05:51:00,34.59,2020-09-11 13:10:00,20.94,2020-09-12 05:47:00,23.47,0.99,1006.5,0.87,1.73,1599779760,207,0.25,11,1599804180,15.933,254.9,19.69,2020-09-11 04:48:00,28.31,2020-09-11 12:28:00,20.9,2020-09-11 04:45:00,34.59,2020-09-11 13:10:00
Dailekh,Ranimatta,28.90711111,81.75019167,2020-09-11 00:00:00,Humid and partly cloudy throughout the day.,rain,2020-09-11 06:02:00,2020-09-11 18:29:00,0.79,0.1794,0.4979,2020-09-11 15:17:00,0.42,rain,25.2,2020-09-11 12:13:00,16.96,2020-09-12 05:39:00,26.22,2020-09-11 12:25:00,18.21,2020-09-12 05:39:00,20.67,1.0,1006.7,1.08,2.08,1599777720,236,0.27,11,1599804060,15.76,253.7,16.99,2020-09-11 05:29:00,25.2,2020-09-11 12:13:00,18.47,2020-09-11 05:08:00,26.22,2020-09-11 12:25:00
Dang,Ghorahi (Masina),28.13174722,82.30278333,2020-09-11 00:00:00,Humid and partly cloudy throughout the day.,partly-cloudy-day,2020-09-11 06:01:00,2020-09-11 18:27:00,0.79,0.101,0.3657,2020-09-11 17:43:00,0.29,rain,31.36,2020-09-11 13:24:00,21.43,2020-09-12 05:27:00,39.25,2020-09-11 12:53:00,22.47,2020-09-12 05:26:00,24.83,0.92,1005.0,1.23,2.01,1599806160,153,0.63,8,1599805560,16.093,257.9,22.2,2020-09-11 04:38:00,31.36,2020-09-11 13:24:00,23.24,2020-09-11 04:37:00,39.25,2020-09-11 12:53:00
Dang,Ghorai (Dang),27.69233306,82.52512694,2020-09-11 00:00:00,Humid and mostly cloudy throughout the day.,rain,2020-09-11 06:00:00,2020-09-11 18:26:00,0.79,0.1014,0.3899,2020-09-11 23:43:00,0.42,rain,31.46,2020-09-11 13:54:00,23.75,2020-09-12 05:10:00,39.28,2020-09-11 14:04:00,24.85,2020-09-12 05:13:00,24.44,0.84,1004.1,1.63,2.67,1599848100,99,0.81,7,1599804360,16.093,261.0,24.2,2020-09-11 04:37:00,31.46,2020-09-11 13:54:00,25.21,2020-09-11 04:37:00,39.28,2020-09-11 14:04:00
Dang,Koilabas,28.05,82.5,2020-09-11 00:00:00,Humid and partly cloudy throughout the day.,partly-cloudy-day,2020-09-11 06:00:00,2020-09-11 18:26:00,0.79,0.1405,0.44,2020-09-11 17:43:00,0.33,rain,31.29,2020-09-11 13:05:00,21.42,2020-09-12 05:29:00,38.41,2020-09-11 13:16:00,22.51,2020-09-12 05:29:00,24.46,0.9,1005.0,1.17,1.87,1599814500,154,0.6,9,1599803340,16.093,258.2,22.26,2020-09-11 04:39:00,31.29,2020-09-11 13:05:00,23.33,2020-09-11 04:39:00,38.41,2020-09-11 13:16:00
Dang,Lalmatiya,27.87055556,82.53666667,2020-09-11 00:00:00,Humid and mostly cloudy throughout the day.,rain,2020-09-11 06:00:00,2020-09-11 18:26:00,0.79,0.1225,0.4195,2020-09-11 23:37:00,0.39,rain,32.98,2020-09-11 13:18:00,23.52,2020-09-12 05:15:00,43.5,2020-09-11 15:43:00,24.68,2020-09-12 05:14:00,25.94,0.86,1004.5,1.32,2.04,1599848100,112,0.72,8,1599804000,16.093,259.8,24.3,2020-09-11 04:39:00,32.98,2020-09-11 13:18:00,25.37,2020-09-11 04:34:00,43.5,2020-09-11 15:43:00
Dang,Lamahi,27.88486889,82.33509611,2020-09-11 00:00:00,Humid and partly cloudy throughout the day.,partly-cloudy-day,2020-09-11 06:01:00,2020-09-11 18:27:00,0.79,0.0948,0.4282,2020-09-11 17:47:00,0.34,rain,33.24,2020-09-11 13:20:00,23.74,2020-09-12 05:14:00,44.08,2020-09-11 13:17:00,24.91,2020-09-12 05:14:00,25.98,0.85,1004.3,1.46,2.28,1599806280,114,0.65,8,1599804300,16.093,260.0,24.76,2020-09-11 04:37:00,33.24,2020-09-11 13:20:00,25.78,2020-09-11 04:30:00,44.08,2020-09-11 13:17:00
Dang,Padhampur,28.03719889,82.484156,2020-09-11 00:00:00,Humid and partly cloudy throughout the day.,partly-cloudy-day,2020-09-11 06:00:00,2020-09-11 18:26:00,0.79,0.1324,0.4482,2020-09-11 17:43:00,0.32,rain,31.37,2020-09-11 13:03:00,21.51,2020-09-12 05:25:00,38.39,2020-09-11 13:18:00,22.62,2020-09-12 05:24:00,24.44,0.9,1004.9,1.18,1.89,1599814500,150,0.6,8,1599803400,16.093,258.4,22.39,2020-09-11 04:39:00,31.37,2020-09-11 13:03:00,23.47,2020-09-11 04:39:00,38.39,2020-09-11 13:18:00
Dang,Tulsipur,28.201323,82.1393939,2020-09-11 00:00:00,Humid and mostly cloudy throughout the day.,partly-cloudy-day,2020-09-11 06:01:00,2020-09-11 18:28:00,0.79,0.0708,0.257,2020-09-11 17:50:00,0.27,rain,31.39,2020-09-11 13:19:00,21.37,2020-09-12 05:28:00,39.91,2020-09-11 13:17:00,22.53,2020-09-12 05:27:00,25.15,0.95,1004.9,1.21,1.98,1599807960,153,0.68,7,1599806100,16.093,257.7,22.25,2020-09-11 04:41:00,31.39,2020-09-11 13:19:00,23.42,2020-09-11 04:41:00,39.91,2020-09-11 13:17:00
Darchula,Darchula New,29.666666999999997,80.55,2020-09-11 00:15:00,Humid throughout the day.,clear-day,2020-09-11 06:07:00,2020-09-11 18:35:00,0.79,0.0496,0.1613,2020-09-11 17:50:00,0.25,rain,31.2,2020-09-11 13:53:00,20.08,2020-09-12 05:42:00,39.23,2020-09-11 16:37:00,21.47,2020-09-12 05:42:00,23.51,0.94,1006.9,0.92,1.91,1599778680,183,0.23,10,1599806040,16.093,255.3,19.9,2020-09-11 05:20:00,31.2,2020-09-11 13:53:00,21.24,2020-09-11 05:12:00,39.23,2020-09-11 16:37:00
Darchula,Dhaulatiya (Dallekhdhar),29.78255194,80.82215806,2020-09-11 00:00:00,Humid throughout the day.,clear-day,2020-09-11 06:06:00,2020-09-11 18:34:00,0.79,0.0369,0.1458,2020-09-11 16:27:00,0.25,rain,23.23,2020-09-11 13:25:00,14.32,2020-09-12 05:35:00,24.31,2020-09-11 13:31:00,14.79,2020-09-12 05:34:00,17.81,1.0,1007.3,1.28,2.22,1599807660,68,0.24,11,1599804720,16.003,251.7,13.55,2020-09-11 05:46:00,23.23,2020-09-11 13:25:00,14.36,2020-09-11 05:45:00,24.31,2020-09-11 13:31:00
Darchula,Gokuleshwar,29.84287806,80.53884806,2020-09-11 00:15:00,Humid throughout the day.,clear-day,2020-09-11 06:07:00,2020-09-11 18:35:00,0.79,0.0329,0.1333,2020-09-11 17:33:00,0.24,rain,28.75,2020-09-11 13:54:00,18.32,2020-09-12 05:40:00,34.49,2020-09-11 14:08:00,19.47,2020-09-12 05:41:00,21.82,0.98,1007.1,1.08,1.93,1599813660,188,0.19,11,1599805200,16.093,253.6,17.32,2020-09-11 05:44:00,28.75,2020-09-11 13:54:00,18.72,2020-09-11 05:42:00,34.49,2020-09-11 14:08:00
Darchula,Lumpthi,29.84496194,80.54539389,2020-09-11 00:15:00,Humid throughout the day.,clear-day,2020-09-11 06:07:00,2020-09-11 18:35:00,0.79,0.0329,0.1329,2020-09-11 17:32:00,0.24,rain,28.61,2020-09-11 13:53:00,18.13,2020-09-12 05:39:00,34.17,2020-09-11 14:07:00,19.25,2020-09-12 05:40:00,21.68,0.98,1007.1,1.08,1.94,1599813540,187,0.19,11,1599805200,16.093,253.5,17.13,2020-09-11 05:44:00,28.61,2020-09-11 13:53:00,18.5,2020-09-11 05:42:00,34.17,2020-09-11 14:07:00
Dhading,Dhading,28.05,84.82,2020-09-11 00:00:00,Possible light rain overnight.,rain,2020-09-11 05:51:00,2020-09-11 18:17:00,0.79,0.2362,0.5031,2020-09-12 00:00:00,0.67,rain,29.72,2020-09-11 13:29:00,20.49,2020-09-12 05:37:00,36.56,2020-09-11 14:14:00,21.57,2020-09-12 05:37:00,24.11,0.97,1007.3,0.85,2.06,1599813960,15,0.66,9,1599804540,15.189,257.7,21.27,2020-09-11 04:48:00,29.72,2020-09-11 13:29:00,22.52,2020-09-11 04:48:00,36.56,2020-09-11 14:14:00
Dhading,Dhunibesi,27.912505600000003,84.8961333,2020-09-11 00:00:00,Possible light rain overnight and in the morning.,rain,2020-09-11 05:50:00,2020-09-11 18:16:00,0.79,0.3199,0.5926,2020-09-11 17:38:00,0.74,rain,30.29,2020-09-11 12:54:00,21.16,2020-09-12 05:50:00,37.87,2020-09-11 16:37:00,22.11,2020-09-12 05:50:00,24.85,0.96,1007.0,0.72,2.27,1599814740,161,0.63,9,1599804060,15.266,258.7,22.1,2020-09-11 04:50:00,30.29,2020-09-11 12:54:00,23.23,2020-09-11 04:49:00,37.87,2020-09-11 16:37:00
Dhading,Gajuri,27.8053359,84.7055012,2020-09-11 00:00:00,Possible light rain overnight and in the morning.,rain,2020-09-11 05:51:00,2020-09-11 18:17:00,0.79,0.2907,0.6055,2020-09-11 18:10:00,0.72,rain,32.35,2020-09-11 12:46:00,22.31,2020-09-12 05:29:00,40.28,2020-09-11 12:12:00,23.41,2020-09-12 05:28:00,25.44,0.91,1006.5,0.68,1.78,1599821220,168,0.62,9,1599803580,16.093,259.7,22.73,2020-09-11 04:46:00,32.35,2020-09-11 12:46:00,23.89,2020-09-11 04:45:00,40.28,2020-09-11 12:12:00
Dhading,Majhimtar,27.72311667,85.1642,2020-09-11 00:00:00,Rain and humid throughout the day.,rain,2020-09-11 05:49:00,2020-09-11 18:15:00,0.79,0.5516,1.3378,2020-09-11 14:47:00,0.82,rain,27.72,2020-09-11 12:42:00,19.35,2020-09-12 05:53:00,33.57,2020-09-11 13:04:00,20.42,2020-09-12 05:50:00,23.48,1.0,1006.9,0.75,2.21,1599815040,108,0.76,8,1599803400,14.358,258.5,19.97,2020-09-11 04:48:00,27.72,2020-09-11 12:42:00,21.05,2020-09-11 04:46:00,33.57,2020-09-11 13:04:00
Dhading,Pakhribas,27.802707399999996,84.8797782,2020-09-11 00:00:00,"Possible light rain until morning, starting again in the evening.",rain,2020-09-11 05:50:00,2020-09-11 18:16:00,0.79,0.3734,0.7537,2020-09-11 15:06:00,0.76,rain,31.51,2020-09-11 12:44:00,22.15,2020-09-12 05:45:00,42.74,2020-09-11 16:22:00,23.46,2020-09-12 05:44:00,25.99,0.97,1006.8,0.67,2.03,1599815640,121,0.66,9,1599803640,15.801,259.1,22.6,2020-09-11 04:44:00,31.51,2020-09-11 12:44:00,23.94,2020-09-11 04:44:00,42.74,2020-09-11 16:22:00
Dhankuta,Barahkshetra,26.91424278,87.15986,2020-09-11 00:00:00,Rain and humid throughout the day.,rain,2020-09-11 05:42:00,2020-09-11 18:07:00,0.79,0.48,1.1868,2020-09-11 12:11:00,0.89,rain,28.72,2020-09-11 12:08:00,23.09,2020-09-12 05:57:00,40.14,2020-09-11 16:02:00,24.47,2020-09-12 05:53:00,26.47,1.0,1006.4,1.25,3.54,1599804780,100,0.96,6,1599805500,13.874,261.0,24.01,2020-09-11 06:07:00,28.72,2020-09-11 12:08:00,25.51,2020-09-11 05:36:00,40.14,2020-09-11 16:02:00
Dhankuta,Dhankuta,27.0500025,87.24444444,2020-09-11 00:00:00,Rain throughout the day.,rain,2020-09-11 05:41:00,2020-09-11 18:07:00,0.79,0.5388,1.2963,2020-09-11 12:21:00,0.84,rain,21.75,2020-09-11 12:16:00,17.81,2020-09-12 05:43:00,22.89,2020-09-11 12:24:00,18.78,2020-09-12 05:40:00,19.74,1.0,1006.9,0.93,2.9,1599813600,348,0.97,6,1599804180,12.659,260.1,18.04,2020-09-11 05:36:00,21.75,2020-09-11 12:16:00,19.04,2020-09-11 05:35:00,22.89,2020-09-11 12:24:00
Dhankuta,Dhankuta,26.93805556,87.15472222,2020-09-11 00:00:00,Rain and humid throughout the day.,rain,2020-09-11 05:42:00,2020-09-11 18:07:00,0.79,0.4784,1.1757,2020-09-11 12:16:00,0.88,rain,28.55,2020-09-11 11:56:00,22.93,2020-09-12 05:58:00,39.77,2020-09-11 12:26:00,24.33,2020-09-12 05:54:00,26.26,1.0,1006.5,1.16,3.26,1599805560,98,0.96,6,1599805080,13.56,260.7,23.84,2020-09-11 06:12:00,28.55,2020-09-11 11:56:00,25.35,2020-09-11 06:11:00,39.77,2020-09-11 12:26:00
Dhankuta,Leguwa Ghat,27.04633889,87.2925,2020-09-11 00:00:00,Rain throughout the day.,rain,2020-09-11 05:41:00,2020-09-11 18:06:00,0.79,0.5394,1.3391,2020-09-11 12:10:00,0.84,rain,21.14,2020-09-11 12:43:00,16.97,2020-09-12 06:19:00,22.36,2020-09-11 12:47:00,17.97,2020-09-12 06:13:00,18.95,1.0,1006.9,0.93,2.79,1599813420,33,0.98,6,1599804180,12.962,259.9,17.25,2020-09-11 05:11:00,21.14,2020-09-11 12:43:00,18.26,2020-09-11 05:09:00,22.36,2020-09-11 12:47:00
Dhankuta,Muga,27.15338889,87.28919444,2020-09-11 00:00:00,Rain and humid throughout the day.,rain,2020-09-11 05:41:00,2020-09-11 18:07:00,0.79,0.5318,1.0545,2020-09-11 12:51:00,0.84,rain,27.37,2020-09-11 12:39:00,21.08,2020-09-12 06:02:00,33.27,2020-09-11 13:04:00,22.33,2020-09-12 06:01:00,24.53,1.0,1007.1,0.81,2.64,1599814500,297,0.94,7,1599804000,12.23,259.8,21.36,2020-09-11 05:47:00,27.37,2020-09-11 12:39:00,22.6,2020-09-11 05:46:00,33.27,2020-09-11 13:04:00
Dhankuta,Mul Ghat,26.98321944,87.34595556,2020-09-11 00:00:00,Rain and humid throughout the day.,rain,2020-09-11 05:41:00,2020-09-11 18:06:00,0.79,0.5264,1.4598,2020-09-11 11:59:00,0.85,rain,23.45,2020-09-11 12:33:00,18.81,2020-09-12 05:40:00,24.71,2020-09-11 12:36:00,19.9,2020-09-12 05:38:00,20.84,1.0,1006.8,1.03,2.82,1599808680,99,0.99,6,1599804780,13.762,260.0,18.84,2020-09-11 23:59:00,23.45,2020-09-11 12:33:00,19.91,2020-09-12 00:00:00,24.71,2020-09-11 12:36:00
Dhankuta,Mul Ghat,26.98321944,87.34595556,2020-09-11 00:00:00,Rain and humid throughout the day.,rain,2020-09-11 05:41:00,2020-09-11 18:06:00,0.79,0.5264,1.4598,2020-09-11 11:59:00,0.85,rain,23.45,2020-09-11 12:33:00,18.81,2020-09-12 05:40:00,24.71,2020-09-11 12:36:00,19.9,2020-09-12 05:38:00,20.84,1.0,1006.8,1.03,2.82,1599808680,99,0.99,6,1599804780,13.762,260.0,18.84,2020-09-11 23:59:00,23.45,2020-09-11 12:33:00,19.91,2020-09-12 00:00:00,24.71,2020-09-11 12:36:00
Dhanusa,Chisapani Bazar,27.01295556,85.92089722,2020-09-11 00:00:00,Rain until afternoon.,rain,2020-09-11 05:47:00,2020-09-11 18:12:00,0.79,0.9747,3.553,2020-09-11 02:44:00,0.93,rain,30.64,2020-09-11 12:35:00,24.29,2020-09-12 05:34:00,39.38,2020-09-11 12:51:00,25.47,2020-09-12 05:31:00,25.36,0.92,1005.5,1.75,5.94,1599824820,104,0.99,5,1599805200,16.093,262.3,24.11,2020-09-11 04:35:00,30.64,2020-09-11 12:35:00,25.25,2020-09-11 04:35:00,39.38,2020-09-11 12:51:00
Dhanusa,Janakpur Airport,26.8,85.9833333,2020-09-11 00:00:00,Rain until afternoon.,rain,2020-09-11 05:46:00,2020-09-11 18:12:00,0.79,0.4738,1.3433,2020-09-11 02:58:00,0.9,rain,29.97,2020-09-11 12:26:00,24.68,2020-09-12 04:47:00,37.91,2020-09-11 12:49:00,25.83,2020-09-12 04:46:00,25.04,0.88,1005.0,2.84,9.41,1599837840,105,0.99,5,1599805140,16.093,263.3,24.62,2020-09-11 04:31:00,29.97,2020-09-11 12:26:00,25.64,2020-09-11 04:28:00,37.91,2020-09-11 12:49:00
Dhanusa,Tulsi,26.71666667,85.96666667,2020-09-11 00:00:00,Rain until afternoon.,rain,2020-09-11 05:47:00,2020-09-11 18:12:00,0.79,0.407,1.1493,2020-09-11 02:51:00,0.9,rain,29.56,2020-09-11 12:26:00,24.66,2020-09-12 04:48:00,36.91,2020-09-11 12:43:00,25.8,2020-09-12 04:47:00,24.84,0.87,1004.7,3.18,11.05,1599839880,104,0.98,5,1599805140,16.093,263.5,24.63,2020-09-11 04:31:00,29.56,2020-09-11 12:26:00,25.64,2020-09-11 04:28:00,36.91,2020-09-11 12:43:00
Dolakha,Charikot,27.67633111,86.10399389,2020-09-11 00:00:00,Rain and humid throughout the day.,rain,2020-09-11 05:46:00,2020-09-11 18:12:00,0.79,0.6422,1.6766,2020-09-11 14:05:00,0.83,rain,25.7,2020-09-11 13:27:00,19.0,2020-09-12 05:44:00,26.65,2020-09-11 11:43:00,20.8,2020-09-12 05:41:00,21.71,1.0,1007.2,0.76,1.64,1599808620,186,1.0,6,1599805200,11.501,256.3,19.43,2020-09-11 05:29:00,25.7,2020-09-11 13:27:00,21.25,2020-09-11 05:01:00,26.65,2020-09-11 11:43:00
Dolakha,Dunai,27.63333333,86.13333333,2020-09-11 00:00:00,Rain and humid throughout the day.,rain,2020-09-11 05:46:00,2020-09-11 18:11:00,0.79,0.6895,1.8611,2020-09-11 13:51:00,0.83,rain,23.43,2020-09-11 13:00:00,16.68,2020-09-12 05:56:00,25.17,2020-09-11 13:05:00,18.2,2020-09-12 05:54:00,19.96,1.0,1007.2,0.76,1.73,1599809040,173,1.0,6,1599805140,11.302,256.6,17.18,2020-09-11 06:03:00,23.43,2020-09-11 13:00:00,18.87,2020-09-11 05:14:00,25.17,2020-09-11 13:05:00
Dolakha,Jiri,27.6666667,86.05,2020-09-11 00:00:00,Rain throughout the day.,rain,2020-09-11 05:46:00,2020-09-11 18:12:00,0.79,0.686,1.69,2020-09-11 14:07:00,0.84,rain,22.4,2020-09-11 13:13:00,15.8,2020-09-12 05:44:00,24.14,2020-09-11 13:17:00,17.29,2020-09-12 05:41:00,18.64,1.0,1007.2,0.72,1.59,1599808260,189,1.0,6,1599805200,11.635,256.7,16.29,2020-09-11 05:02:00,22.4,2020-09-11 13:13:00,17.79,2020-09-11 04:47:00,24.14,2020-09-11 13:17:00
Dolakha,Nagdaha,27.616666700000003,86.35,2020-09-11 00:00:00,Rain in the morning and afternoon.,rain,2020-09-11 05:45:00,2020-09-11 18:10:00,0.79,0.5355,1.6966,2020-09-11 14:04:00,0.78,rain,16.47,2020-09-11 12:42:00,11.61,2020-09-12 00:19:00,19.14,2020-09-11 12:45:00,13.23,2020-09-12 05:36:00,13.68,1.0,1007.3,0.86,2.12,1599805500,112,1.0,6,1599804960,9.95,254.8,11.62,2020-09-12 00:00:00,16.47,2020-09-11 12:42:00,13.5,2020-09-12 00:00:00,19.14,2020-09-11 12:45:00
Dolpa,Kaigaun,29.03154722,82.76287778,2020-09-11 00:00:00,Partly cloudy throughout the day.,partly-cloudy-day,2020-09-11 05:58:00,2020-09-11 18:25:00,0.79,0.0336,0.1413,2020-09-11 16:13:00,0.29,rain,18.88,2020-09-11 12:40:00,8.54,2020-09-12 01:36:00,19.97,2020-09-11 12:55:00,9.9,2020-09-12 05:33:00,12.29,1.0,1008.0,1.19,3.08,1599814800,6,0.66,11,1599804780,14.626,249.2,8.28,2020-09-11 05:47:00,18.88,2020-09-11 12:40:00,10.02,2020-09-11 05:45:00,19.97,2020-09-11 12:55:00
Dolpa,Silgadhi Doti,28.98363333,82.82074444,2020-09-11 00:00:00,Partly cloudy throughout the day.,partly-cloudy-day,2020-09-11 05:58:00,2020-09-11 18:25:00,0.79,0.0362,0.1468,2020-09-11 16:38:00,0.29,rain,19.12,2020-09-11 12:45:00,8.38,2020-09-12 01:31:00,20.34,2020-09-11 13:06:00,9.8,2020-09-12 01:47:00,12.29,1.0,1008.0,1.21,3.11,1599814680,20,0.62,11,1599804720,15.411,249.2,8.2,2020-09-11 05:48:00,19.12,2020-09-11 12:45:00,9.86,2020-09-11 05:46:00,20.34,2020-09-11 13:06:00
Doti,Dipayal (Doti),29.12015194,80.70944778,2020-09-11 00:00:00,Humid and partly cloudy throughout the day.,partly-cloudy-day,2020-09-11 06:07:00,2020-09-11 18:34:00,0.79,0.0993,0.3086,2020-09-12 00:00:00,0.31,rain,27.53,2020-09-11 13:33:00,18.54,2020-09-12 05:36:00,31.17,2020-09-11 13:44:00,19.8,2020-09-12 05:31:00,21.87,0.98,1006.0,0.81,1.99,1599823500,160,0.4,9,1599806580,15.803,255.9,18.7,2020-09-11 04:39:00,27.53,2020-09-11 13:33:00,19.89,2020-09-11 04:38:00,31.17,2020-09-11 13:44:00
Doti,Dumrakot,29.16385278,80.600738,2020-09-11 00:00:00,Humid and partly cloudy throughout the day.,partly-cloudy-day,2020-09-11 06:07:00,2020-09-11 18:34:00,0.79,0.1406,0.4361,2020-09-11 20:49:00,0.34,rain,24.8,2020-09-11 13:54:00,16.7,2020-09-12 05:49:00,25.43,2020-09-11 13:59:00,17.88,2020-09-12 05:42:00,19.59,0.99,1006.0,0.87,1.87,1599822780,172,0.31,10,1599805620,16.093,256.1,16.96,2020-09-11 04:43:00,24.8,2020-09-11 13:54:00,18.05,2020-09-11 04:41:00,25.43,2020-09-11 13:59:00
Doti,Gaira,29.34106083,81.045105,2020-09-11 00:00:00,Humid throughout the day.,clear-day,2020-09-11 06:05:00,2020-09-11 18:32:00,0.79,0.0491,0.4855,2020-09-11 23:46:00,0.24,rain,24.07,2020-09-11 14:41:00,13.76,2020-09-12 05:23:00,24.11,2020-09-11 14:50:00,14.03,2020-09-12 05:22:00,16.84,0.94,1006.5,0.92,1.94,1599824580,123,0.11,12,1599805620,16.093,255.0,13.63,2020-09-11 05:42:00,24.07,2020-09-11 14:41:00,14.33,2020-09-11 05:22:00,24.11,2020-09-11 14:50:00
Doti,Jhingrana,29.26209694,80.93690083,2020-09-11 00:00:00,Humid throughout the day.,clear-day,2020-09-11 06:06:00,2020-09-11 18:33:00,0.79,0.0698,0.5773,2020-09-11 23:45:00,0.3,rain,31.91,2020-09-11 14:33:00,20.09,2020-09-12 05:47:00,43.49,2020-09-11 16:45:00,21.42,2020-09-12 05:48:00,24.12,0.94,1006.6,0.77,2.13,1599824640,125,0.17,11,1599806520,16.093,255.5,20.43,2020-09-11 06:11:00,31.91,2020-09-11 14:33:00,21.91,2020-09-11 06:10:00,43.49,2020-09-11 16:45:00
Doti,Khaptad,29.0,81.13333333,2020-09-11 00:00:00,Humid throughout the day.,rain,2020-09-11 06:05:00,2020-09-11 18:32:00,0.79,0.146,0.9542,2020-09-11 23:55:00,0.38,rain,28.76,2020-09-11 13:40:00,19.58,2020-09-12 05:57:00,32.56,2020-09-11 13:59:00,20.94,2020-09-12 05:59:00,22.4,0.95,1006.1,0.91,2.03,1599824160,131,0.12,12,1599805080,16.093,256.6,19.7,2020-09-11 05:40:00,28.76,2020-09-11 13:40:00,21.1,2020-09-11 05:11:00,32.56,2020-09-11 13:59:00
Doti,Kola Gaun,29.38804889,81.14630111,2020-09-11 00:00:00,Clear throughout the day.,clear-day,2020-09-11 06:05:00,2020-09-11 18:32:00,0.79,0.0328,0.3503,2020-09-11 23:48:00,0.21,rain,22.13,2020-09-11 14:25:00,11.15,2020-09-12 05:38:00,21.93,2020-09-11 14:33:00,11.42,2020-09-12 05:38:00,14.45,0.93,1006.8,1.03,2.1,1599780060,131,0.12,13,1599805560,16.093,254.4,11.17,2020-09-11 05:47:00,22.13,2020-09-11 14:25:00,11.47,2020-09-11 05:47:00,21.93,2020-09-11 14:33:00
Gorkha,Barpak,28.2,84.73333333,2020-09-10 21:45:00,Humid and mostly cloudy throughout the day.,rain,2020-09-11 05:51:00,2020-09-11 18:17:00,0.79,0.2534,0.7189,2020-09-11 14:26:00,0.62,rain,23.51,2020-09-11 13:01:00,16.18,2020-09-12 05:43:00,25.24,2020-09-11 13:01:00,17.33,2020-09-12 05:37:00,19.14,1.0,1007.6,1.26,2.15,1599805320,7,0.79,8,1599804600,13.389,254.6,16.06,2020-09-11 04:51:00,23.51,2020-09-11 13:01:00,17.64,2020-09-11 04:50:00,25.24,2020-09-11 13:01:00
Gorkha,Chhekampar,27.97138889,84.58944444,2020-09-11 00:00:00,Possible light rain overnight.,rain,2020-09-11 05:52:00,2020-09-11 18:18:00,0.79,0.1967,0.581,2020-09-11 17:58:00,0.64,rain,31.45,2020-09-11 13:43:00,20.48,2020-09-12 05:27:00,35.08,2020-09-11 13:47:00,21.2,2020-09-12 05:28:00,21.52,0.78,1006.9,0.71,1.6,1599819900,274,0.58,10,1599804060,15.787,259.6,21.35,2020-09-11 04:43:00,31.45,2020-09-11 13:43:00,22.12,2020-09-11 04:44:00,35.08,2020-09-11 13:47:00
Gorkha,Chumchet,28.48333333,85.0,2020-09-10 21:45:00,Overcast throughout the day.,rain,2020-09-11 05:50:00,2020-09-11 18:16:00,0.79,0.0598,0.2621,2020-09-11 14:03:00,0.42,rain,11.08,2020-09-11 11:55:00,5.13,2020-09-12 01:13:00,15.34,2020-09-11 12:17:00,7.94,2020-09-12 05:43:00,7.38,1.0,1008.1,1.1,3.12,1599804840,32,0.96,7,1599804960,14.151,248.4,4.89,2020-09-11 04:58:00,11.08,2020-09-11 11:55:00,6.41,2020-09-11 15:31:00,15.34,2020-09-11 12:17:00
Gorkha,Gorkha,28.66666667,84.61666667,2020-09-10 21:45:00,Foggy in the morning.,rain,2020-09-11 05:51:00,2020-09-11 18:18:00,0.79,0.082,0.2386,2020-09-11 14:13:00,0.46,rain,6.43,2020-09-11 14:30:00,0.16,2020-09-12 05:45:00,4.82,2020-09-11 14:33:00,0.43,2020-09-12 05:45:00,3.06,1.0,1008.5,1.28,2.92,1599811380,174,0.95,7,1599806940,9.112,246.5,0.51,2020-09-11 06:08:00,6.43,2020-09-11 14:30:00,0.78,2020-09-11 06:08:00,4.82,2020-09-11 14:33:00
Gorkha,Laprak,28.2,84.75,2020-09-10 21:45:00,Mostly cloudy throughout the day.,rain,2020-09-11 05:51:00,2020-09-11 18:17:00,0.79,0.2559,0.7323,2020-09-11 14:26:00,0.62,rain,21.54,2020-09-11 13:01:00,14.52,2020-09-12 05:45:00,23.41,2020-09-11 13:08:00,15.62,2020-09-12 05:42:00,17.47,1.0,1007.7,1.25,2.16,1599805380,8,0.8,8,1599804720,13.319,254.5,14.46,2020-09-11 04:53:00,21.54,2020-09-11 13:01:00,16.09,2020-09-11 04:52:00,23.41,2020-09-11 13:08:00
Gorkha,Sama Gaun,28.42693611,84.90264444,2020-09-10 21:45:00,Overcast throughout the day.,rain,2020-09-11 05:50:00,2020-09-11 18:17:00,0.79,0.1024,0.3852,2020-09-11 14:22:00,0.49,rain,14.8,2020-09-11 12:03:00,8.88,2020-09-12 01:33:00,18.16,2020-09-11 12:18:00,11.6,2020-09-12 01:39:00,11.03,1.0,1008.3,1.16,2.95,1599805620,26,0.94,6,1599804780,13.239,249.3,8.81,2020-09-11 04:53:00,14.8,2020-09-11 12:03:00,11.82,2020-09-11 04:49:00,18.16,2020-09-11 12:18:00
Gulmi,Darma,27.9365,83.33811667,2020-09-11 00:00:00,Humid and mostly cloudy throughout the day.,rain,2020-09-11 05:57:00,2020-09-11 18:23:00,0.79,0.1977,0.4467,2020-09-11 20:47:00,0.56,rain,30.24,2020-09-11 12:39:00,19.2,2020-09-12 05:31:00,33.24,2020-09-11 13:05:00,19.74,2020-09-12 05:33:00,20.9,0.84,1005.9,1.1,1.61,1599782100,86,0.64,7,1599803880,16.093,258.5,19.18,2020-09-11 04:41:00,30.24,2020-09-11 12:39:00,19.83,2020-09-11 04:42:00,33.24,2020-09-11 13:05:00
Gulmi,Musikot,27.93856667,83.44315278,2020-09-11 00:00:00,Humid and mostly cloudy throughout the day.,rain,2020-09-11 05:56:00,2020-09-11 18:22:00,0.79,0.2034,0.4603,2020-09-11 20:56:00,0.56,rain,32.65,2020-09-11 12:39:00,20.43,2020-09-12 05:42:00,38.53,2020-09-11 16:31:00,21.04,2020-09-12 05:43:00,22.91,0.82,1006.0,1.06,1.57,1599781980,80,0.64,8,1599803880,16.093,258.5,20.7,2020-09-11 04:50:00,32.65,2020-09-11 12:39:00,21.49,2020-09-11 04:52:00,38.53,2020-09-11 16:31:00
Gulmi,Tamghas,28.16998056,83.26802778,2020-09-11 00:00:00,Humid and mostly cloudy throughout the day.,rain,2020-09-11 05:57:00,2020-09-11 18:23:00,0.79,0.2152,0.6282,2020-09-11 14:47:00,0.52,rain,27.83,2020-09-11 12:48:00,16.05,2020-09-12 05:38:00,30.34,2020-09-11 12:58:00,16.53,2020-09-12 05:38:00,19.94,0.93,1006.7,1.08,1.66,1599781920,40,0.63,8,1599803820,15.643,256.4,15.85,2020-09-11 05:36:00,27.83,2020-09-11 12:48:00,16.41,2020-09-11 05:36:00,30.34,2020-09-11 12:58:00
Humla,Simikot,29.73056889,82.07185,2020-09-11 00:00:00,Clear throughout the day.,clear-day,2020-09-11 06:01:00,2020-09-11 18:29:00,0.79,0.0069,0.0456,2020-09-11 00:00:00,0.16,rain,22.74,2020-09-11 13:54:00,10.59,2020-09-12 05:34:00,22.82,2020-09-11 13:53:00,11.43,2020-09-12 05:34:00,15.03,0.97,1008.6,0.99,2.88,1599822300,96,0.25,12,1599805140,16.075,250.0,9.89,2020-09-11 05:45:00,22.74,2020-09-11 13:54:00,10.91,2020-09-11 05:45:00,22.82,2020-09-11 13:53:00
Humla,Simikot Airport,29.77827806,81.95264499999999,2020-09-11 00:00:00,Clear throughout the day.,clear-day,2020-09-11 06:01:00,2020-09-11 18:29:00,0.79,0.0097,0.0398,2020-09-11 00:00:00,0.16,rain,23.96,2020-09-11 13:53:00,11.45,2020-09-12 05:35:00,24.07,2020-09-11 13:51:00,12.1,2020-09-12 05:35:00,15.96,0.97,1008.4,0.9,2.9,1599823740,179,0.25,12,1599805320,16.093,250.4,10.8,2020-09-11 05:46:00,23.96,2020-09-11 13:53:00,11.79,2020-09-11 05:45:00,24.07,2020-09-11 13:51:00
Humla,Thali,29.91966194,81.87920194,2020-09-11 00:00:00,Clear throughout the day.,clear-day,2020-09-11 06:02:00,2020-09-11 18:29:00,0.79,0.0123,0.0404,2020-09-11 15:27:00,0.15,rain,18.66,2020-09-11 13:34:00,8.31,2020-09-12 05:35:00,19.14,2020-09-11 13:33:00,8.97,2020-09-12 05:35:00,12.56,1.0,1008.5,1.08,2.85,1599811800,274,0.31,12,1599804900,16.093,248.4,7.8,2020-09-11 05:47:00,18.66,2020-09-11 13:34:00,9.11,2020-09-11 05:47:00,19.14,2020-09-11 13:33:00
Ilam,Himali Gaun,26.90963889,87.92308333,2020-09-11 00:00:00,Rain and humid throughout the day.,rain,2020-09-11 05:39:00,2020-09-11 18:04:00,0.79,0.6685,1.2,2020-09-11 14:18:00,0.89,rain,24.89,2020-09-11 12:50:00,19.92,2020-09-12 05:50:00,26.54,2020-09-11 12:52:00,21.44,2020-09-12 05:45:00,22.35,1.0,1007.0,1.06,2.88,1599794880,101,0.98,6,1599804180,12.125,259.4,20.07,2020-09-11 04:40:00,24.89,2020-09-11 12:50:00,21.5,2020-09-11 04:37:00,26.54,2020-09-11 12:52:00
Ilam,Ilam Tea Estate,27.06666667,88.0,2020-09-11 00:00:00,Rain throughout the day.,rain,2020-09-11 05:38:00,2020-09-11 18:04:00,0.79,0.6679,1.6854,2020-09-11 14:25:00,0.86,rain,18.98,2020-09-11 11:46:00,13.97,2020-09-12 05:53:00,21.03,2020-09-11 12:00:00,15.83,2020-09-12 05:39:00,15.67,1.0,1007.5,0.64,1.56,1599793860,153,0.97,6,1599803400,7.542,257.2,14.07,2020-09-11 04:24:00,18.98,2020-09-11 11:46:00,15.77,2020-09-11 04:06:00,21.03,2020-09-11 12:00:00
Ilam,Kanyam Tea Estate,26.8,87.9,2020-09-11 00:00:00,Rain and humid throughout the day.,rain,2020-09-11 05:39:00,2020-09-11 18:04:00,0.79,0.7508,1.8494,2020-09-11 08:37:00,0.93,rain,28.2,2020-09-11 15:37:00,22.76,2020-09-12 06:21:00,39.34,2020-09-11 15:46:00,24.22,2020-09-12 06:21:00,25.43,1.0,1006.6,1.39,3.9,1599796920,89,0.98,5,1599804420,12.068,261.2,22.98,2020-09-11 04:39:00,28.2,2020-09-11 15:37:00,24.37,2020-09-11 04:37:00,39.34,2020-09-11 15:46:00
Ilam,Soktim Tea E,26.88652778,88.02738889,2020-09-11 00:00:00,Rain and humid throughout the day.,rain,2020-09-11 05:38:00,2020-09-11 18:03:00,0.79,0.7516,1.52,2020-09-11 08:47:00,0.91,rain,22.64,2020-09-11 12:18:00,18.03,2020-09-12 05:36:00,24.21,2020-09-11 12:24:00,19.35,2020-09-12 05:27:00,19.83,1.0,1007.0,1.14,3.09,1599794760,83,0.98,6,1599804120,11.086,259.6,17.96,2020-09-11 04:39:00,22.64,2020-09-11 12:18:00,19.22,2020-09-11 04:35:00,24.21,2020-09-11 12:24:00
Jajarkot,Bhanu Thana,28.961315000000003,82.268888,2020-09-11 00:00:00,Humid and partly cloudy throughout the day.,rain,2020-09-11 06:00:00,2020-09-11 18:27:00,0.79,0.1156,0.3587,2020-09-11 00:00:00,0.47,rain,24.07,2020-09-11 12:14:00,14.63,2020-09-12 05:40:00,25.03,2020-09-11 12:36:00,16.17,2020-09-12 05:41:00,18.51,1.0,1007.2,1.29,2.95,1599810060,170,0.46,12,1599803940,12.405,251.1,13.88,2020-09-11 05:43:00,24.07,2020-09-11 12:14:00,15.7,2020-09-11 05:39:00,25.03,2020-09-11 12:36:00
Jajarkot,Maina Gaun (D.Bas),28.69860389,82.200792,2020-09-11 00:00:00,Humid throughout the day.,rain,2020-09-11 06:01:00,2020-09-11 18:28:00,0.79,0.1529,0.5725,2020-09-12 00:00:00,0.41,rain,29.86,2020-09-11 13:50:00,19.22,2020-09-12 05:58:00,37.99,2020-09-11 16:34:00,20.35,2020-09-12 06:02:00,23.53,0.96,1006.5,0.88,1.87,1599808020,204,0.29,11,1599804720,16.093,255.6,19.66,2020-09-11 04:59:00,29.86,2020-09-11 13:50:00,20.74,2020-09-11 04:54:00,37.99,2020-09-11 16:34:00
Jhapa,Anarmani Birta,26.6706658,87.7004293,2020-09-11 00:00:00,Rain and humid throughout the day.,rain,2020-09-11 05:40:00,2020-09-11 18:05:00,0.79,0.7231,1.8605,2020-09-11 05:56:00,0.95,rain,29.33,2020-09-11 15:42:00,23.85,2020-09-12 05:40:00,40.11,2020-09-11 15:50:00,25.22,2020-09-12 05:35:00,26.43,0.99,1006.1,2.11,5.46,1599796980,90,0.99,5,1599804540,13.301,262.4,24.15,2020-09-11 04:38:00,29.33,2020-09-11 15:42:00,25.47,2020-09-11 04:35:00,40.11,2020-09-11 15:50:00
Jhapa,Chnadra Gadhi,26.39616667,88.00375,2020-09-11 00:00:00,Rain and humid throughout the day.,rain,2020-09-11 05:39:00,2020-09-11 18:03:00,0.79,1.4568,4.0689,2020-09-11 08:17:00,0.99,rain,26.93,2020-09-11 15:20:00,22.94,2020-09-12 05:26:00,29.69,2020-09-11 15:15:00,23.91,2020-09-12 05:25:00,23.43,0.89,1005.7,3.26,8.25,1599841200,72,1.0,5,1599804540,12.56,262.4,23.15,2020-09-11 04:39:00,26.93,2020-09-11 15:20:00,24.25,2020-09-11 04:39:00,29.69,2020-09-11 15:15:00
Jhapa,Gaida (Kankai),26.68972222,87.98861111,2020-09-11 00:00:00,Rain and humid throughout the day.,rain,2020-09-11 05:38:00,2020-09-11 18:04:00,0.79,1.0618,3.3061,2020-09-11 08:34:00,0.96,rain,28.73,2020-09-11 15:46:00,23.61,2020-09-12 05:37:00,38.73,2020-09-11 15:49:00,24.96,2020-09-12 05:29:00,26.04,1.0,1006.4,1.96,5.46,1599795060,81,0.99,5,1599804480,10.943,262.0,23.74,2020-09-11 04:37:00,28.73,2020-09-11 15:46:00,25.07,2020-09-11 04:36:00,38.73,2020-09-11 15:49:00
Jhapa,Jumla,26.5647011,88.0614307,2020-09-11 00:00:00,Rain and humid throughout the day.,rain,2020-09-11 05:38:00,2020-09-11 18:03:00,0.79,1.3661,4.3309,2020-09-11 08:30:00,0.98,rain,27.2,2020-09-11 15:21:00,22.91,2020-09-12 05:28:00,31.36,2020-09-11 15:09:00,23.92,2020-09-12 05:25:00,23.97,0.91,1006.1,2.8,6.74,1599794220,72,0.99,5,1599804420,11.721,262.3,23.08,2020-09-11 04:38:00,27.2,2020-09-11 15:21:00,24.19,2020-09-11 04:37:00,31.36,2020-09-11 15:09:00
Jhapa,Kechana,26.65688889,87.86072222,2020-09-11 00:00:00,Rain and humid throughout the day.,rain,2020-09-11 05:39:00,2020-09-11 18:04:00,0.79,0.9662,2.5843,2020-09-11 08:12:00,0.96,rain,28.66,2020-09-11 15:44:00,23.6,2020-09-12 05:34:00,37.42,2020-09-11 15:48:00,24.87,2020-09-12 05:28:00,25.91,0.98,1006.2,2.16,5.63,1599795660,85,0.99,5,1599804480,12.153,262.3,23.82,2020-09-11 04:38:00,28.66,2020-09-11 15:44:00,25.06,2020-09-11 04:36:00,37.42,2020-09-11 15:48:00
Jhapa,Sanischare,26.625063899999997,87.98858059999999,2020-09-11 00:00:00,Rain and humid throughout the day.,rain,2020-09-11 05:39:00,2020-09-11 18:04:00,0.79,1.2348,3.9616,2020-09-11 08:30:00,0.97,rain,28.1,2020-09-11 15:42:00,23.32,2020-09-12 05:28:00,35.22,2020-09-11 15:41:00,24.47,2020-09-12 05:23:00,25.34,0.96,1006.2,2.38,6.3,1599794580,80,0.99,5,1599804480,11.351,262.2,23.56,2020-09-11 04:38:00,28.1,2020-09-11 15:42:00,24.75,2020-09-11 04:38:00,35.22,2020-09-11 15:41:00
Jumla,Dipal Gaun,29.23088056,82.33041944,2020-09-11 00:00:00,Clear throughout the day.,clear-day,2020-09-11 06:00:00,2020-09-11 18:27:00,0.79,0.0568,0.2033,2020-09-11 17:36:00,0.37,rain,19.53,2020-09-11 12:35:00,7.6,2020-09-12 05:35:00,19.71,2020-09-11 12:50:00,8.26,2020-09-12 05:35:00,12.55,0.99,1007.8,1.11,2.54,1599814020,78,0.42,13,1599804360,16.065,248.7,6.76,2020-09-11 05:44:00,19.53,2020-09-11 12:35:00,7.54,2020-09-11 05:44:00,19.71,2020-09-11 12:50:00
Jumla,Jacha,29.43111111,82.10744444,2020-09-11 00:00:00,Clear throughout the day.,clear-day,2020-09-11 06:01:00,2020-09-11 18:28:00,0.79,0.0231,0.068,2020-09-11 18:24:00,0.24,rain,19.63,2020-09-11 13:29:00,6.72,2020-09-12 05:32:00,19.35,2020-09-11 13:29:00,6.99,2020-09-12 05:32:00,10.92,0.94,1008.1,1.3,2.82,1599817080,52,0.15,13,1599805620,16.093,250.1,5.81,2020-09-11 05:44:00,19.63,2020-09-11 13:29:00,6.08,2020-09-11 05:44:00,19.35,2020-09-11 13:29:00
Jumla,Jumla,29.26385556,82.22301111,2020-09-11 00:00:00,Clear throughout the day.,clear-day,2020-09-11 06:00:00,2020-09-11 18:28:00,0.79,0.0567,0.2153,2020-09-11 17:41:00,0.34,rain,21.89,2020-09-11 12:54:00,8.7,2020-09-12 05:29:00,21.79,2020-09-11 13:05:00,9.27,2020-09-12 05:26:00,13.61,0.96,1007.8,1.13,2.55,1599814560,61,0.29,13,1599804780,16.036,249.4,8.09,2020-09-11 05:42:00,21.89,2020-09-11 12:54:00,8.65,2020-09-11 05:42:00,21.79,2020-09-11 13:05:00
Jumla,Tatopani,29.316667,82.283333,2020-09-11 00:00:00,Clear throughout the day.,clear-day,2020-09-11 06:00:00,2020-09-11 18:27:00,0.79,0.0471,0.1758,2020-09-11 17:45:00,0.33,rain,18.27,2020-09-11 12:53:00,5.98,2020-09-12 05:35:00,18.05,2020-09-11 13:06:00,6.41,2020-09-12 05:33:00,10.85,0.98,1007.9,1.24,2.59,1599814140,67,0.32,13,1599804660,16.093,248.9,5.08,2020-09-11 05:45:00,18.27,2020-09-11 12:53:00,5.53,2020-09-11 05:45:00,18.05,2020-09-11 13:06:00
Kabhre,Budal (Banepa),27.61611667,85.56550278,2020-09-11 00:00:00,Rain and humid throughout the day.,rain,2020-09-11 05:48:00,2020-09-11 18:14:00,0.79,0.5503,1.1854,2020-09-11 14:46:00,0.83,rain,24.96,2020-09-11 12:31:00,17.24,2020-09-12 05:40:00,26.04,2020-09-11 12:42:00,18.38,2020-09-12 05:37:00,20.61,1.0,1007.1,0.73,1.93,1599815100,89,0.94,6,1599804300,13.913,258.3,17.43,2020-09-11 04:44:00,24.96,2020-09-11 12:31:00,18.48,2020-09-11 04:40:00,26.04,2020-09-11 12:42:00
Kabhre,Dhulikhel,27.63882194,85.70498083,2020-09-11 00:00:00,Possible light rain and humid throughout the day.,rain,2020-09-11 05:47:00,2020-09-11 18:13:00,0.79,0.5634,0.8572,2020-09-11 14:24:00,0.84,rain,27.98,2020-09-11 13:01:00,19.72,2020-09-12 06:00:00,34.66,2020-09-11 15:31:00,20.88,2020-09-12 05:59:00,23.65,1.0,1007.2,0.74,1.89,1599815040,51,0.95,5,1599804900,14.199,258.4,20.08,2020-09-11 06:22:00,27.98,2020-09-11 13:01:00,21.18,2020-09-11 05:02:00,34.66,2020-09-11 15:31:00
Kabhre,Dolal Ghat,27.69382389,85.635637,2020-09-11 00:00:00,Rain and humid throughout the day.,rain,2020-09-11 05:47:00,2020-09-11 18:13:00,0.79,0.5315,0.9106,2020-09-11 15:05:00,0.83,rain,26.6,2020-09-11 12:57:00,17.96,2020-09-12 06:04:00,29.05,2020-09-11 13:01:00,18.9,2020-09-12 05:59:00,22.01,0.99,1007.2,0.69,1.78,1599815400,61,0.93,6,1599804480,13.599,258.3,18.31,2020-09-11 06:13:00,26.6,2020-09-11 12:57:00,19.27,2020-09-11 06:06:00,29.05,2020-09-11 13:01:00
Kabhre,Panchkhal,27.63333333,85.51666667,2020-09-11 00:00:00,Rain and humid throughout the day.,rain,2020-09-11 05:48:00,2020-09-11 18:14:00,0.79,0.5405,1.2747,2020-09-11 14:51:00,0.83,rain,25.14,2020-09-11 12:26:00,17.15,2020-09-12 05:42:00,26.19,2020-09-11 12:36:00,18.26,2020-09-12 05:39:00,20.69,1.0,1007.1,0.71,1.9,1599815400,87,0.92,6,1599804120,13.326,258.2,17.45,2020-09-11 05:06:00,25.14,2020-09-11 12:26:00,18.48,2020-09-11 04:45:00,26.19,2020-09-11 12:36:00
Kailali,Dhangadhi,28.68333333,80.6,2020-09-11 00:00:00,Humid throughout the day.,clear-day,2020-09-11 06:07:00,2020-09-11 18:34:00,0.79,0.0505,0.2799,2020-09-11 08:48:00,0.16,rain,32.98,2020-09-11 14:51:00,25.05,2020-09-12 05:05:00,43.65,2020-09-11 15:41:00,26.11,2020-09-12 05:12:00,25.38,0.85,1004.2,1.61,2.28,1599848100,107,0.08,11,1599805140,16.093,260.0,24.36,2020-09-11 04:32:00,32.98,2020-09-11 14:51:00,25.35,2020-09-11 04:29:00,43.65,2020-09-11 15:41:00
Kailali,Godavari(West),28.554054999999998,80.831765,2020-09-11 00:00:00,Humid throughout the day.,clear-day,2020-09-11 06:06:00,2020-09-11 18:33:00,0.79,0.0216,0.0937,2020-09-11 20:53:00,0.1,rain,32.55,2020-09-11 14:43:00,24.79,2020-09-12 05:25:00,42.49,2020-09-11 15:35:00,25.91,2020-09-12 05:14:00,25.18,0.84,1004.0,1.58,2.34,1599789000,121,0.14,11,1599804540,16.093,260.2,24.21,2020-09-11 04:31:00,32.55,2020-09-11 14:43:00,25.2,2020-09-11 04:29:00,42.49,2020-09-11 15:35:00
Kailali,Malakheti,28.83333333,80.56666667,2020-09-11 00:00:00,Humid throughout the day.,clear-day,2020-09-11 06:07:00,2020-09-11 18:34:00,0.79,0.097,0.2123,2020-09-11 08:49:00,0.22,rain,33.68,2020-09-11 14:58:00,24.96,2020-09-12 05:05:00,47.9,2020-09-11 16:01:00,26.06,2020-09-12 05:12:00,26.54,0.89,1004.7,1.41,2.14,1599848100,120,0.13,11,1599805020,16.093,259.0,24.39,2020-09-11 04:34:00,33.68,2020-09-11 14:58:00,25.43,2020-09-11 04:30:00,47.9,2020-09-11 16:01:00
Kailali,Sitapur,28.66417611,80.97850889,2020-09-11 00:00:00,Humid throughout the day.,clear-day,2020-09-11 06:06:00,2020-09-11 18:32:00,0.79,0.0727,0.5659,2020-09-11 20:49:00,0.16,rain,34.18,2020-09-11 14:11:00,24.73,2020-09-12 05:39:00,47.62,2020-09-11 15:53:00,25.97,2020-09-12 06:13:00,26.82,0.88,1004.4,1.42,2.11,1599778140,118,0.17,11,1599804660,16.093,259.6,24.78,2020-09-11 04:31:00,34.18,2020-09-11 14:11:00,25.88,2020-09-11 04:27:00,47.62,2020-09-11 15:53:00
Kailali,Teghari,28.87623,80.57918889,2020-09-11 00:00:00,Humid throughout the day.,clear-day,2020-09-11 06:07:00,2020-09-11 18:34:00,0.79,0.1157,0.2855,2020-09-11 18:17:00,0.24,rain,32.98,2020-09-11 14:57:00,24.37,2020-09-12 05:09:00,46.48,2020-09-11 15:57:00,25.58,2020-09-12 05:07:00,26.53,0.92,1005.0,1.32,2.07,1599848100,124,0.17,10,1599804840,16.093,258.5,23.85,2020-09-11 04:35:00,32.98,2020-09-11 14:57:00,24.96,2020-09-11 04:33:00,46.48,2020-09-11 15:57:00
Kalikot,Mahendra Nagar,29.09644444,81.70052778,2020-09-11 00:00:00,Humid throughout the day.,clear-day,2020-09-11 06:03:00,2020-09-11 18:30:00,0.79,0.121,0.3658,2020-09-11 15:03:00,0.36,rain,26.03,2020-09-11 13:06:00,16.27,2020-09-12 05:44:00,27.43,2020-09-11 13:08:00,17.15,2020-09-12 05:46:00,20.26,0.98,1007.0,1.24,2.33,1599777900,255,0.24,12,1599804600,16.091,252.9,15.62,2020-09-11 05:49:00,26.03,2020-09-11 13:06:00,16.87,2020-09-11 05:50:00,27.43,2020-09-11 13:08:00
Kalikot,Manma,29.2495,81.63913889,2020-09-11 00:00:00,Humid throughout the day.,clear-day,2020-09-11 06:03:00,2020-09-11 18:30:00,0.79,0.0304,0.1341,2020-09-11 00:00:00,0.25,rain,27.19,2020-09-11 13:54:00,14.37,2020-09-12 05:41:00,29.46,2020-09-11 14:20:00,14.95,2020-09-12 05:42:00,18.62,0.95,1007.1,1.28,2.71,1599816180,321,0.21,12,1599805380,15.189,252.5,13.12,2020-09-11 05:50:00,27.19,2020-09-11 13:54:00,14.0,2020-09-11 05:51:00,29.46,2020-09-11 14:20:00
Kalikot,Nagma,29.12995833,81.58836111,2020-09-11 00:00:00,Humid throughout the day.,clear-day,2020-09-11 06:03:00,2020-09-11 18:30:00,0.79,0.1047,0.3424,2020-09-11 14:55:00,0.34,rain,28.95,2020-09-11 13:27:00,18.39,2020-09-12 05:33:00,35.3,2020-09-11 15:08:00,19.56,2020-09-12 05:36:00,21.96,0.96,1007.1,1.24,2.53,1599778200,245,0.21,11,1599804840,16.093,253.6,17.84,2020-09-11 05:44:00,28.95,2020-09-11 13:27:00,19.17,2020-09-11 05:43:00,35.3,2020-09-11 15:08:00
Kanchanpur,Dodhara,28.86185889,80.44044194,2020-09-11 00:00:00,Humid throughout the day.,clear-day,2020-09-11 06:08:00,2020-09-11 18:35:00,0.79,0.1226,0.3149,2020-09-11 18:14:00,0.24,rain,33.38,2020-09-11 15:00:00,24.91,2020-09-12 05:00:00,47.18,2020-09-11 15:48:00,26.06,2020-09-12 05:13:00,26.31,0.89,1004.6,1.43,2.28,1599848100,89,0.11,11,1599804960,16.093,259.2,24.35,2020-09-11 04:34:00,33.38,2020-09-11 15:00:00,25.39,2020-09-11 04:31:00,47.18,2020-09-11 15:48:00
Kanchanpur,Hanmannagar,28.698575,80.37540389,2020-09-11 00:00:00,Humid throughout the day.,clear-day,2020-09-11 06:08:00,2020-09-11 18:35:00,0.79,0.0663,0.5361,2020-09-11 08:47:00,0.19,rain,32.18,2020-09-11 14:59:00,24.71,2020-09-12 04:47:00,40.56,2020-09-11 15:41:00,25.78,2020-09-12 04:52:00,24.45,0.83,1004.1,1.71,2.37,1599848100,86,0.06,11,1599805560,16.093,260.2,24.14,2020-09-11 04:32:00,32.18,2020-09-11 14:59:00,25.11,2020-09-11 04:30:00,40.56,2020-09-11 15:41:00
Kanchanpur,Taulihawa,28.89702,80.36996389,2020-09-11 00:00:00,Humid throughout the day.,clear-day,2020-09-11 06:08:00,2020-09-11 18:35:00,0.79,0.1332,0.3542,2020-09-11 18:12:00,0.25,rain,33.41,2020-09-11 14:58:00,24.92,2020-09-12 05:01:00,47.61,2020-09-11 15:49:00,26.11,2020-09-12 05:14:00,26.51,0.89,1004.7,1.41,2.44,1599848100,83,0.12,11,1599805020,16.093,259.2,24.48,2020-09-11 04:36:00,33.41,2020-09-11 14:58:00,25.57,2020-09-11 04:32:00,47.61,2020-09-11 15:49:00
Kapilbastu,Banganga,27.669936100000005,82.7911917,2020-09-11 00:00:00,Humid and overcast throughout the day.,rain,2020-09-11 05:59:00,2020-09-11 18:25:00,0.79,0.1513,0.4733,2020-09-11 23:44:00,0.52,rain,33.12,2020-09-11 14:10:00,24.2,2020-09-12 05:17:00,44.46,2020-09-11 14:43:00,25.33,2020-09-12 05:19:00,25.5,0.84,1004.3,1.67,3.39,1599848100,93,0.78,6,1599804720,16.093,261.2,24.26,2020-09-11 04:39:00,33.12,2020-09-11 14:10:00,25.29,2020-09-11 04:34:00,44.46,2020-09-11 14:43:00
Kapilvastu,Bahadur Ganj,27.693294399999996,83.1612556,2020-09-11 00:00:00,Possible light rain overnight and in the evening.,rain,2020-09-11 05:57:00,2020-09-11 18:23:00,0.79,0.1674,0.4998,2020-09-11 23:29:00,0.64,rain,33.61,2020-09-11 12:51:00,24.17,2020-09-12 05:22:00,48.15,2020-09-11 16:29:00,25.44,2020-09-12 05:25:00,26.82,0.89,1004.6,1.58,2.83,1599848100,99,0.68,6,1599804480,15.95,260.8,24.66,2020-09-11 04:42:00,33.61,2020-09-11 12:51:00,25.82,2020-09-11 04:33:00,48.15,2020-09-11 16:29:00
Kapilvastu,Sallyan (Kaski),27.55,83.85,2020-09-11 00:00:00,"Rain until morning, starting again in the evening.",rain,2020-09-11 05:55:00,2020-09-11 18:20:00,0.79,0.2256,1.1414,2020-09-11 23:47:00,0.77,rain,31.0,2020-09-11 12:28:00,22.74,2020-09-12 04:43:00,34.2,2020-09-11 12:49:00,23.64,2020-09-12 04:43:00,22.52,0.8,1005.0,1.82,3.79,1599846960,103,0.61,7,1599803100,15.108,261.5,23.03,2020-09-11 04:39:00,31.0,2020-09-11 12:28:00,23.94,2020-09-11 04:39:00,34.2,2020-09-11 12:49:00
Kaski,Begnas,28.212011100000005,83.8915417,2020-09-11 00:00:00,Possible light rain overnight and in the morning.,rain,2020-09-11 05:54:00,2020-09-11 18:21:00,0.79,0.3537,0.719,2020-09-11 05:17:00,0.67,rain,24.45,2020-09-11 13:42:00,16.3,2020-09-12 05:36:00,24.65,2020-09-11 13:42:00,16.73,2020-09-12 05:36:00,18.63,0.95,1007.5,1.72,2.26,1599814320,37,0.75,10,1599803640,15.637,257.3,15.7,2020-09-11 05:45:00,24.45,2020-09-11 13:42:00,16.26,2020-09-11 05:47:00,24.65,2020-09-11 13:42:00
Kaski,Begnas Tal,28.35805556,84.105175,2020-09-11 00:00:00,Mostly cloudy throughout the day.,rain,2020-09-11 05:53:00,2020-09-11 18:20:00,0.79,0.2241,0.4221,2020-09-11 05:26:00,0.63,rain,17.96,2020-09-11 12:44:00,11.36,2020-09-12 05:40:00,19.23,2020-09-11 12:49:00,12.05,2020-09-12 05:38:00,14.12,1.0,1008.3,2.04,2.81,1599804720,13,0.84,9,1599803820,14.422,253.5,10.67,2020-09-11 06:01:00,17.96,2020-09-11 12:44:00,11.87,2020-09-11 05:58:00,19.23,2020-09-11 12:49:00
Kaski,Bhadaure Deurali,28.21849444,83.9742,2020-09-11 00:00:00,Possible light rain overnight and in the morning.,rain,2020-09-11 05:54:00,2020-09-11 18:20:00,0.79,0.3448,0.7868,2020-09-11 05:25:00,0.68,rain,24.84,2020-09-11 13:47:00,16.24,2020-09-12 05:30:00,25.02,2020-09-11 13:48:00,16.76,2020-09-12 05:30:00,18.57,0.92,1007.6,2.17,2.72,1599814380,37,0.77,10,1599803700,15.45,257.4,15.4,2020-09-11 05:56:00,24.84,2020-09-11 13:47:00,15.83,2020-09-11 05:56:00,25.02,2020-09-11 13:48:00
Kaski,Ghandruk,28.26168056,83.96873333,2020-09-11 00:00:00,Possible light rain overnight and in the morning.,rain,2020-09-11 05:54:00,2020-09-11 18:20:00,0.79,0.3473,0.8154,2020-09-11 05:25:00,0.68,rain,23.56,2020-09-11 13:50:00,15.21,2020-09-12 05:30:00,23.83,2020-09-11 13:50:00,15.71,2020-09-12 05:30:00,18.33,0.97,1007.8,2.29,2.77,1599813960,37,0.79,10,1599803700,15.297,256.7,14.1,2020-09-11 05:57:00,23.56,2020-09-11 13:50:00,14.54,2020-09-11 05:58:00,23.83,2020-09-11 13:50:00
Kaski,Lamachaur,28.29653889,83.81791111,2020-09-11 00:00:00,Humid and mostly cloudy throughout the day.,rain,2020-09-11 05:54:00,2020-09-11 18:21:00,0.79,0.3344,0.6625,2020-09-11 03:46:00,0.66,rain,22.66,2020-09-11 13:41:00,15.02,2020-09-12 05:39:00,23.33,2020-09-11 13:39:00,15.55,2020-09-12 05:37:00,17.81,1.0,1007.7,1.42,2.02,1599806640,38,0.77,11,1599803640,15.456,255.5,14.24,2020-09-11 05:50:00,22.66,2020-09-11 13:41:00,15.25,2020-09-11 05:50:00,23.33,2020-09-11 13:39:00
Kaski,Lumle,28.26555556,83.82211944,2020-09-11 00:00:00,Possible light rain overnight and in the morning.,rain,2020-09-11 05:54:00,2020-09-11 18:21:00,0.79,0.3678,0.7328,2020-09-11 03:58:00,0.67,rain,23.76,2020-09-11 13:46:00,15.89,2020-09-12 05:39:00,24.21,2020-09-11 13:45:00,16.34,2020-09-12 05:38:00,18.53,0.99,1007.6,1.45,1.97,1599813180,38,0.76,11,1599803640,15.311,256.4,15.08,2020-09-11 05:43:00,23.76,2020-09-11 13:46:00,15.87,2020-09-11 05:45:00,24.21,2020-09-11 13:45:00
Kaski,Pokhara Airport,28.22,84.0,2020-09-11 00:00:00,Possible light rain overnight and in the morning.,rain,2020-09-11 05:54:00,2020-09-11 18:20:00,0.79,0.3417,0.8077,2020-09-11 05:27:00,0.68,rain,24.37,2020-09-11 13:46:00,15.95,2020-09-12 05:29:00,24.49,2020-09-11 13:47:00,16.47,2020-09-12 05:29:00,18.17,0.92,1007.7,2.31,2.86,1599814380,37,0.77,10,1599803760,15.364,257.4,15.06,2020-09-11 05:56:00,24.37,2020-09-11 13:46:00,15.46,2020-09-11 05:57:00,24.49,2020-09-11 13:47:00
Kaski,Pokhara Airport,28.23333333,84.0,2020-09-11 00:00:00,Possible light rain overnight and in the morning.,rain,2020-09-11 05:54:00,2020-09-11 18:20:00,0.79,0.3475,0.8352,2020-09-11 05:27:00,0.69,rain,23.84,2020-09-11 13:48:00,15.71,2020-09-12 05:30:00,23.96,2020-09-11 13:48:00,16.23,2020-09-12 05:30:00,18.04,0.94,1007.7,2.39,2.91,1599814320,38,0.78,10,1599803760,15.235,257.3,14.69,2020-09-11 05:56:00,23.84,2020-09-11 13:48:00,15.08,2020-09-11 05:57:00,23.96,2020-09-11 13:48:00
Kathmandu,Budhanilakan,27.78333333,85.31666667,2020-09-11 00:00:00,Rain and humid throughout the day.,rain,2020-09-11 05:49:00,2020-09-11 18:15:00,0.79,0.5536,1.3687,2020-09-11 14:51:00,0.82,rain,25.34,2020-09-11 12:42:00,16.98,2020-09-12 05:40:00,26.33,2020-09-11 12:46:00,18.01,2020-09-12 05:38:00,20.9,1.0,1007.2,0.77,2.11,1599814920,123,0.8,8,1599803520,13.463,257.9,17.44,2020-09-11 05:39:00,25.34,2020-09-11 12:42:00,18.47,2020-09-11 05:34:00,26.33,2020-09-11 12:46:00
Kathmandu,Kathmandu Airport,27.703825,85.35624722,2020-09-11 00:00:00,Rain and humid throughout the day.,rain,2020-09-11 05:49:00,2020-09-11 18:15:00,0.79,0.5708,1.3795,2020-09-11 14:53:00,0.83,rain,28.13,2020-09-11 12:20:00,17.3,2020-09-12 05:48:00,31.57,2020-09-11 12:28:00,18.26,2020-09-12 05:44:00,22.68,0.95,1007.1,0.91,2.03,1599815220,134,0.83,9,1599803520,10.258,258.3,20.25,2020-09-11 06:03:00,28.13,2020-09-11 12:20:00,21.27,2020-09-11 06:03:00,31.57,2020-09-11 12:28:00
Kathmandu,Naikap,27.7726953,85.4277003,2020-09-11 00:00:00,Rain and humid throughout the day.,rain,2020-09-11 05:48:00,2020-09-11 18:14:00,0.79,0.5369,1.2997,2020-09-11 15:01:00,0.82,rain,23.69,2020-09-11 12:30:00,15.67,2020-09-12 05:38:00,24.47,2020-09-11 12:38:00,16.55,2020-09-12 05:34:00,18.86,1.0,1007.3,0.69,1.88,1599815580,83,0.85,7,1599803700,12.946,257.9,16.02,2020-09-11 05:38:00,23.69,2020-09-11 12:30:00,16.87,2020-09-11 05:29:00,24.47,2020-09-11 12:38:00
Kathmandu,Pharping,27.76666667,85.31666667,2020-09-11 00:00:00,Rain and humid throughout the day.,rain,2020-09-11 05:49:00,2020-09-11 18:15:00,0.79,0.5755,1.4246,2020-09-11 14:50:00,0.83,rain,25.67,2020-09-11 12:44:00,17.13,2020-09-12 05:43:00,26.6,2020-09-11 12:47:00,18.08,2020-09-12 05:40:00,21.17,1.0,1007.2,0.75,2.11,1599814980,120,0.81,8,1599803460,13.496,258.1,17.7,2020-09-11 05:39:00,25.67,2020-09-11 12:44:00,18.67,2020-09-11 05:32:00,26.6,2020-09-11 12:47:00
Kathmandu,Sankhu,27.73333333,85.33333333,2020-09-11 00:00:00,Rain and humid throughout the day.,rain,2020-09-11 05:49:00,2020-09-11 18:15:00,0.79,0.5864,1.4376,2020-09-11 14:51:00,0.83,rain,25.99,2020-09-11 12:40:00,17.21,2020-09-12 05:43:00,27.41,2020-09-11 12:45:00,18.12,2020-09-12 05:41:00,21.4,1.0,1007.1,0.76,2.07,1599815100,116,0.82,8,1599803460,13.47,258.2,18.13,2020-09-11 05:40:00,25.99,2020-09-11 12:40:00,19.07,2020-09-11 05:31:00,27.41,2020-09-11 12:45:00
Kathmandu,Sankhu,27.73333333,85.33333333,2020-09-11 00:00:00,Rain and humid throughout the day.,rain,2020-09-11 05:49:00,2020-09-11 18:15:00,0.79,0.5864,1.4376,2020-09-11 14:51:00,0.83,rain,25.99,2020-09-11 12:40:00,17.21,2020-09-12 05:43:00,27.41,2020-09-11 12:45:00,18.12,2020-09-12 05:41:00,21.4,1.0,1007.1,0.76,2.07,1599815100,116,0.82,8,1599803460,13.47,258.2,18.13,2020-09-11 05:40:00,25.99,2020-09-11 12:40:00,19.07,2020-09-11 05:31:00,27.41,2020-09-11 12:45:00
Kathmandu,Sivapuri,27.75,85.43333333,2020-09-11 00:00:00,Rain and humid throughout the day.,rain,2020-09-11 05:48:00,2020-09-11 18:14:00,0.79,0.5653,1.3652,2020-09-11 15:01:00,0.83,rain,25.49,2020-09-11 12:44:00,16.76,2020-09-12 05:44:00,26.26,2020-09-11 12:47:00,17.58,2020-09-12 05:42:00,20.61,0.99,1007.3,0.66,1.84,1599816120,84,0.86,7,1599803700,12.908,258.2,17.23,2020-09-11 05:40:00,25.49,2020-09-11 12:44:00,18.04,2020-09-11 05:35:00,26.26,2020-09-11 12:47:00
Kathmandu,Sundarijal,27.8,85.43333333,2020-09-11 00:00:00,Rain throughout the day.,rain,2020-09-11 05:48:00,2020-09-11 18:14:00,0.79,0.4994,1.2096,2020-09-11 15:01:00,0.81,rain,21.1,2020-09-11 12:33:00,13.79,2020-09-12 05:36:00,21.86,2020-09-11 12:46:00,14.61,2020-09-12 05:30:00,16.77,1.0,1007.3,0.71,1.91,1599815220,79,0.83,7,1599803640,12.89,257.5,14.0,2020-09-11 05:40:00,21.1,2020-09-11 12:33:00,14.81,2020-09-11 05:29:00,21.86,2020-09-11 12:46:00
Kathmandu,Tarebhir,27.78419167,85.29049444,2020-09-11 00:00:00,Rain and humid throughout the day.,rain,2020-09-11 05:49:00,2020-09-11 18:15:00,0.79,0.5597,1.3911,2020-09-11 14:49:00,0.83,rain,24.69,2020-09-11 12:39:00,16.81,2020-09-12 05:37:00,25.67,2020-09-11 12:44:00,17.83,2020-09-12 05:34:00,20.23,1.0,1007.2,0.78,2.16,1599814800,133,0.79,8,1599803520,13.58,257.9,17.19,2020-09-11 05:23:00,24.69,2020-09-11 12:39:00,18.19,2020-09-11 05:03:00,25.67,2020-09-11 12:44:00
Kathmandu,Tokha,27.7972222,85.3577778,2020-09-11 00:00:00,Rain throughout the day.,rain,2020-09-11 05:49:00,2020-09-11 18:15:00,0.79,0.524,1.2846,2020-09-11 14:55:00,0.82,rain,21.92,2020-09-11 12:37:00,14.51,2020-09-12 05:26:00,22.7,2020-09-11 12:44:00,15.37,2020-09-12 05:19:00,17.55,1.0,1007.2,0.75,2.04,1599814980,109,0.81,8,1599803580,13.255,257.7,14.86,2020-09-11 05:24:00,21.92,2020-09-11 12:37:00,15.7,2020-09-11 05:03:00,22.7,2020-09-11 12:44:00
Khotang,Diktel,27.02930083,86.84337278,2020-09-11 00:00:00,Possible light rain and humid throughout the day.,rain,2020-09-11 05:43:00,2020-09-11 18:08:00,0.79,0.3428,0.8997,2020-09-11 14:04:00,0.81,rain,26.86,2020-09-11 11:50:00,19.79,2020-09-12 05:44:00,30.91,2020-09-11 11:53:00,20.94,2020-09-12 05:44:00,22.93,1.0,1006.5,0.94,2.6,1599811260,117,0.94,8,1599804300,12.733,260.0,20.77,2020-09-11 04:39:00,26.86,2020-09-11 11:50:00,22.17,2020-09-11 04:36:00,30.91,2020-09-11 11:53:00
Khotang,Dwarpa,27.359795000000002,86.7486619,2020-09-11 00:00:00,Rain in the morning and afternoon.,rain,2020-09-11 05:43:00,2020-09-11 18:09:00,0.79,0.3841,1.0073,2020-09-11 12:56:00,0.76,rain,20.78,2020-09-11 12:16:00,14.67,2020-09-12 05:36:00,21.99,2020-09-11 12:24:00,15.61,2020-09-12 05:34:00,16.94,1.0,1007.1,0.88,1.84,1599812880,59,0.95,7,1599804360,12.848,257.6,14.75,2020-09-12 00:00:00,20.78,2020-09-11 12:16:00,15.85,2020-09-12 00:00:00,21.99,2020-09-11 12:24:00
Khotang,Khotang Bazar,27.1408985,86.4317585,2020-09-11 00:00:00,Rain and humid throughout the day.,rain,2020-09-11 05:45:00,2020-09-11 18:10:00,0.79,0.5801,1.268,2020-09-11 14:32:00,0.85,rain,29.47,2020-09-11 12:14:00,22.56,2020-09-12 06:01:00,40.96,2020-09-11 12:43:00,23.97,2020-09-12 05:58:00,25.99,1.0,1006.4,0.93,2.4,1599807840,115,0.93,7,1599803820,12.608,260.4,23.53,2020-09-11 04:45:00,29.47,2020-09-11 12:14:00,25.03,2020-09-11 04:44:00,40.96,2020-09-11 12:43:00
Khotang,Kurle Ghat,27.21666667,86.85,2020-09-11 00:00:00,Rain throughout the day.,rain,2020-09-11 05:43:00,2020-09-11 18:08:00,0.79,0.4846,1.2302,2020-09-11 13:55:00,0.81,rain,22.3,2020-09-11 12:10:00,16.3,2020-09-12 05:13:00,23.52,2020-09-11 12:17:00,17.27,2020-09-12 05:03:00,18.57,1.0,1006.9,0.71,2.1,1599813000,139,0.94,8,1599804240,12.319,258.9,16.51,2020-09-11 04:40:00,22.3,2020-09-11 12:10:00,17.67,2020-09-11 04:38:00,23.52,2020-09-11 12:17:00
Lalitpur,Chapa Gaun,27.566666700000003,85.3166667,2020-09-11 00:00:00,Rain and humid throughout the day.,rain,2020-09-11 05:49:00,2020-09-11 18:15:00,0.79,0.5215,1.1665,2020-09-11 14:53:00,0.82,rain,24.45,2020-09-11 12:00:00,17.54,2020-09-12 05:39:00,25.6,2020-09-11 12:07:00,18.81,2020-09-12 05:33:00,20.25,1.0,1006.7,0.8,2.1,1599815340,114,0.86,8,1599803460,12.735,258.4,17.73,2020-09-11 02:45:00,24.45,2020-09-11 12:00:00,18.91,2020-09-11 02:46:00,25.6,2020-09-11 12:07:00
Lalitpur,Godavari,27.68333333,85.3,2020-09-11 00:00:00,Rain and humid throughout the day.,rain,2020-09-11 05:49:00,2020-09-11 18:15:00,0.79,0.5723,1.3719,2020-09-11 14:50:00,0.83,rain,26.02,2020-09-11 12:33:00,17.68,2020-09-12 05:44:00,27.55,2020-09-11 12:43:00,18.71,2020-09-12 05:42:00,21.74,1.0,1007.0,0.78,2.13,1599814980,121,0.82,8,1599803400,13.888,258.3,18.53,2020-09-11 05:05:00,26.02,2020-09-11 12:33:00,19.52,2020-09-11 04:56:00,27.55,2020-09-11 12:43:00
Lalitpur,Khokana,27.65,85.38333333,2020-09-11 00:00:00,Rain and humid throughout the day.,rain,2020-09-11 05:49:00,2020-09-11 18:14:00,0.79,0.55,1.3089,2020-09-11 14:52:00,0.82,rain,25.97,2020-09-11 12:25:00,17.62,2020-09-12 05:46:00,27.3,2020-09-11 12:39:00,18.7,2020-09-12 05:44:00,21.66,1.0,1007.0,0.76,2.02,1599815280,107,0.87,7,1599803580,13.414,258.3,18.44,2020-09-11 05:29:00,25.97,2020-09-11 12:25:00,19.48,2020-09-11 05:15:00,27.3,2020-09-11 12:39:00
Lalitpur,Khumaltar,27.5929167,85.3788333,2020-09-11 00:00:00,Rain and humid throughout the day.,rain,2020-09-11 05:49:00,2020-09-11 18:14:00,0.79,0.5333,1.2474,2020-09-11 14:50:00,0.82,rain,24.49,2020-09-11 12:06:00,17.26,2020-09-12 05:39:00,25.58,2020-09-11 12:14:00,18.48,2020-09-12 05:35:00,20.16,1.0,1006.8,0.78,2.06,1599815100,107,0.88,7,1599803580,13.294,258.3,17.52,2020-09-11 04:36:00,24.49,2020-09-11 12:06:00,18.67,2020-09-11 02:50:00,25.58,2020-09-11 12:14:00
Lalitpur,Kritipur (Bagban),27.68333333,85.33333333,2020-09-11 00:00:00,Rain and humid throughout the day.,rain,2020-09-11 05:49:00,2020-09-11 18:15:00,0.79,0.5673,1.3604,2020-09-11 14:52:00,0.83,rain,26.7,2020-09-11 12:27:00,17.6,2020-09-12 05:45:00,29.35,2020-09-11 12:31:00,18.61,2020-09-12 05:43:00,22.21,0.99,1007.0,0.82,2.08,1599815100,122,0.84,8,1599803460,13.295,258.3,19.08,2020-09-11 05:57:00,26.7,2020-09-11 12:27:00,20.11,2020-09-11 05:45:00,29.35,2020-09-11 12:31:00
Lalitpur,Lalitpur (Kopundol),27.659325,85.3697083,2020-09-11 00:00:00,Rain and humid throughout the day.,rain,2020-09-11 05:49:00,2020-09-11 18:14:00,0.79,0.5542,1.3199,2020-09-11 14:52:00,0.83,rain,26.27,2020-09-11 12:25:00,17.65,2020-09-12 05:47:00,28.22,2020-09-11 12:34:00,18.69,2020-09-12 05:44:00,21.9,1.0,1007.0,0.78,2.03,1599815280,112,0.86,7,1599803520,13.381,258.3,18.7,2020-09-11 05:43:00,26.27,2020-09-11 12:25:00,19.73,2020-09-11 05:34:00,28.22,2020-09-11 12:34:00
Lalitpur,Lubhu,27.60325833,85.32656389,2020-09-11 00:00:00,Rain and humid throughout the day.,rain,2020-09-11 05:49:00,2020-09-11 18:15:00,0.79,0.5366,1.2337,2020-09-11 14:52:00,0.82,rain,24.94,2020-09-11 12:11:00,17.63,2020-09-12 05:37:00,26.05,2020-09-11 12:18:00,18.82,2020-09-12 05:32:00,20.77,1.0,1006.8,0.79,2.09,1599815160,113,0.86,8,1599803460,13.357,258.4,17.91,2020-09-11 04:36:00,24.94,2020-09-11 12:11:00,19.04,2020-09-11 04:34:00,26.05,2020-09-11 12:18:00
Lalitpur,Tikathali,27.576825,85.3540444,2020-09-11 00:00:00,Rain and humid throughout the day.,rain,2020-09-11 05:49:00,2020-09-11 18:14:00,0.79,0.5274,1.2116,2020-09-11 14:51:00,0.82,rain,24.03,2020-09-11 12:00:00,17.02,2020-09-12 05:33:00,25.13,2020-09-11 12:09:00,18.25,2020-09-12 05:23:00,19.71,1.0,1006.8,0.79,2.08,1599815100,110,0.88,7,1599803520,13.018,258.4,17.21,2020-09-11 04:36:00,24.03,2020-09-11 12:00:00,18.36,2020-09-11 02:46:00,25.13,2020-09-11 12:09:00
Lamiung,Khudi Bazar,28.12677778,84.34494167,2020-09-11 00:00:00,Possible light rain overnight.,rain,2020-09-11 05:52:00,2020-09-11 18:19:00,0.79,0.2331,0.5368,2020-09-12 00:00:00,0.65,rain,28.64,2020-09-11 13:09:00,18.82,2020-09-12 05:44:00,30.8,2020-09-11 13:38:00,19.49,2020-09-12 05:44:00,20.84,0.85,1007.4,1.21,1.85,1599815040,339,0.69,10,1599804000,15.903,258.1,19.49,2020-09-11 05:54:00,28.64,2020-09-11 13:09:00,20.18,2020-09-11 05:56:00,30.8,2020-09-11 13:38:00
Lamjung,Besishahar,28.25596667,84.47929722,2020-09-10 21:45:00,Humid throughout the day.,rain,2020-09-11 05:52:00,2020-09-11 18:18:00,0.79,0.2357,0.6144,2020-09-11 14:30:00,0.65,rain,23.91,2020-09-11 13:46:00,16.8,2020-09-12 05:41:00,25.13,2020-09-11 13:50:00,17.84,2020-09-12 05:38:00,19.62,1.0,1007.6,1.44,2.32,1599804600,358,0.76,9,1599804060,13.344,255.4,16.7,2020-09-11 05:57:00,23.91,2020-09-11 13:46:00,17.85,2020-09-11 05:53:00,25.13,2020-09-11 13:50:00
Lamjung,Bhorletar,28.21813889,84.24153889,2020-09-11 00:00:00,Possible light rain overnight.,rain,2020-09-11 05:53:00,2020-09-11 18:19:00,0.79,0.269,0.5468,2020-09-11 23:35:00,0.69,rain,24.62,2020-09-11 12:56:00,16.73,2020-09-12 05:44:00,24.83,2020-09-11 12:59:00,17.12,2020-09-12 05:43:00,19.03,0.94,1007.8,1.7,1.95,1599805500,349,0.77,10,1599804060,14.929,257.4,16.92,2020-09-11 06:02:00,24.62,2020-09-11 12:56:00,17.53,2020-09-11 06:00:00,24.83,2020-09-11 12:59:00
Lamjung,Faleni,28.30964722,84.26600278,2020-09-11 00:00:00,Possible light rain overnight.,rain,2020-09-11 05:53:00,2020-09-11 18:19:00,0.79,0.2368,0.419,2020-09-11 21:56:00,0.67,rain,21.92,2020-09-11 12:52:00,15.01,2020-09-12 05:49:00,22.74,2020-09-11 12:59:00,15.65,2020-09-12 05:44:00,17.8,1.0,1008.2,1.73,2.24,1599804060,348,0.82,9,1599804000,14.938,255.1,14.94,2020-09-11 06:03:00,21.92,2020-09-11 12:52:00,15.98,2020-09-11 05:57:00,22.74,2020-09-11 12:59:00
Lamjung,Gausala,28.07621667,84.47669444,2020-09-11 00:00:00,Possible light rain overnight.,rain,2020-09-11 05:52:00,2020-09-11 18:18:00,0.79,0.2047,0.529,2020-09-11 17:49:00,0.64,rain,30.76,2020-09-11 13:54:00,20.35,2020-09-12 05:46:00,34.9,2020-09-11 15:33:00,21.16,2020-09-12 05:48:00,22.34,0.83,1007.2,0.93,1.51,1599817620,343,0.64,10,1599804000,16.077,258.5,21.4,2020-09-11 06:06:00,30.76,2020-09-11 13:54:00,22.18,2020-09-11 06:08:00,34.9,2020-09-11 15:33:00
Lamjung,Gharedhunga,28.282208299999997,84.3454164,2020-09-11 00:00:00,Possible light rain overnight.,rain,2020-09-11 05:52:00,2020-09-11 18:19:00,0.79,0.249,0.3866,2020-09-11 14:30:00,0.68,rain,24.39,2020-09-11 12:56:00,17.06,2020-09-12 05:44:00,25.31,2020-09-11 12:59:00,17.96,2020-09-12 05:43:00,20.1,1.0,1008.0,1.64,2.23,1599804360,352,0.8,9,1599804060,15.147,255.5,17.08,2020-09-11 05:58:00,24.39,2020-09-11 12:56:00,18.18,2020-09-11 05:54:00,25.31,2020-09-11 12:59:00
Mahottari,Chisapani Gadhi,26.65224722,85.807275,2020-09-11 00:00:00,Rain until afternoon.,rain,2020-09-11 05:47:00,2020-09-11 18:12:00,0.79,0.4574,1.6445,2020-09-11 02:32:00,0.9,rain,29.65,2020-09-11 12:52:00,24.67,2020-09-12 04:49:00,36.99,2020-09-11 12:53:00,25.83,2020-09-12 04:48:00,24.86,0.87,1004.5,3.23,11.27,1599841080,99,0.92,5,1599805140,16.093,263.4,24.78,2020-09-11 04:31:00,29.65,2020-09-11 12:52:00,25.77,2020-09-11 04:28:00,36.99,2020-09-11 12:53:00
Mahottari,Jalesore,26.88333333,85.78333333,2020-09-11 00:00:00,Rain until afternoon.,rain,2020-09-11 05:47:00,2020-09-11 18:12:00,0.79,0.8458,4.1909,2020-09-11 02:38:00,0.93,rain,30.43,2020-09-11 12:40:00,24.91,2020-09-12 04:56:00,39.06,2020-09-11 13:02:00,26.09,2020-09-12 04:54:00,25.26,0.88,1005.0,2.59,8.55,1599835440,100,0.97,5,1599805200,16.093,262.8,24.68,2020-09-11 04:32:00,30.43,2020-09-11 12:40:00,25.7,2020-09-11 04:28:00,39.06,2020-09-11 13:02:00
Makwanpur,Daman,27.5599456,85.1386067,2020-09-11 00:00:00,Rain and humid throughout the day.,rain,2020-09-11 05:50:00,2020-09-11 18:15:00,0.79,0.4801,1.1221,2020-09-11 15:02:00,0.81,rain,23.02,2020-09-11 12:11:00,17.02,2020-09-12 05:42:00,24.07,2020-09-11 12:28:00,18.18,2020-09-12 05:34:00,19.32,1.0,1006.5,0.86,2.42,1599825120,114,0.8,8,1599803520,13.83,258.9,17.23,2020-09-11 04:43:00,23.02,2020-09-11 12:11:00,18.41,2020-09-11 04:41:00,24.07,2020-09-11 12:28:00
Makwanpur,Hetanuda(Ind. Dist),27.619,85.1496,2020-09-11 00:00:00,Rain and humid throughout the day.,rain,2020-09-11 05:49:00,2020-09-11 18:15:00,0.79,0.505,1.1875,2020-09-11 14:56:00,0.82,rain,23.7,2020-09-11 12:11:00,17.18,2020-09-12 05:23:00,24.7,2020-09-11 12:20:00,18.26,2020-09-12 05:11:00,19.69,1.0,1006.7,0.82,2.19,1599821280,112,0.79,8,1599803460,14.332,258.8,17.32,2020-09-11 04:38:00,23.7,2020-09-11 12:11:00,18.43,2020-09-11 04:35:00,24.7,2020-09-11 12:20:00
Makwanpur,Makwanpur Gadhi,27.43333333,85.03333333,2020-09-11 00:00:00,Rain and humid throughout the day.,rain,2020-09-11 05:50:00,2020-09-11 18:16:00,0.79,0.4037,0.9503,2020-09-11 15:04:00,0.82,rain,29.42,2020-09-11 11:57:00,22.71,2020-09-12 06:16:00,39.59,2020-09-11 13:27:00,24.16,2020-09-12 06:14:00,25.89,1.0,1006.0,1.13,3.98,1599825600,103,0.78,7,1599803700,15.916,260.2,23.05,2020-09-11 04:40:00,29.42,2020-09-11 11:57:00,24.47,2020-09-11 04:39:00,39.59,2020-09-11 13:27:00
Makwanpur,Manang Bhot,27.635081899999996,84.7416103,2020-09-11 00:00:00,Rain and humid throughout the day.,rain,2020-09-11 05:51:00,2020-09-11 18:17:00,0.79,0.429,0.9016,2020-09-11 17:26:00,0.8,rain,29.19,2020-09-11 12:07:00,21.49,2020-09-12 04:41:00,33.91,2020-09-11 12:26:00,22.51,2020-09-12 04:38:00,23.87,0.96,1006.2,0.88,3.24,1599846060,139,0.7,8,1599803340,15.675,260.4,21.5,2020-09-11 04:34:00,29.19,2020-09-11 12:07:00,22.6,2020-09-11 04:33:00,33.91,2020-09-11 12:26:00
Makwanpur,Markhu Gaun,27.4227,85.0279,2020-09-11 00:00:00,Rain and humid throughout the day.,rain,2020-09-11 05:50:00,2020-09-11 18:16:00,0.79,0.3973,0.9219,2020-09-11 15:03:00,0.82,rain,29.4,2020-09-11 12:00:00,22.77,2020-09-12 06:18:00,39.44,2020-09-11 13:27:00,24.2,2020-09-12 06:16:00,25.91,1.0,1005.9,1.16,4.14,1599825540,101,0.78,7,1599803760,16.043,260.3,23.07,2020-09-11 04:38:00,29.4,2020-09-11 12:00:00,24.47,2020-09-11 04:37:00,39.44,2020-09-11 13:27:00
Manang,Goga,28.63989694,84.08811583,2020-09-11 00:00:00,Foggy in the afternoon.,rain,2020-09-11 05:53:00,2020-09-11 18:20:00,0.79,0.052,0.1307,2020-09-11 13:20:00,0.44,rain,10.38,2020-09-11 11:59:00,4.28,2020-09-12 05:40:00,13.68,2020-09-11 11:46:00,5.37,2020-09-11 19:29:00,6.8,1.0,1008.7,1.51,3.09,1599804780,48,0.93,8,1599804000,10.661,247.3,4.56,2020-09-11 05:56:00,10.38,2020-09-11 11:59:00,5.37,2020-09-11 19:29:00,13.68,2020-09-11 11:46:00
Manang,Humde,28.66627083,84.02257194,2020-09-11 00:00:00,Mostly cloudy throughout the day.,rain,2020-09-11 05:54:00,2020-09-11 18:20:00,0.79,0.0367,0.0776,2020-09-11 14:05:00,0.39,rain,10.04,2020-09-11 12:15:00,3.93,2020-09-12 05:40:00,9.89,2020-09-11 08:37:00,4.01,2020-09-12 05:23:00,6.5,1.0,1008.6,1.54,2.95,1599805200,99,0.93,8,1599804000,11.237,247.1,4.08,2020-09-11 05:57:00,10.04,2020-09-11 12:15:00,4.12,2020-09-11 22:29:00,9.89,2020-09-11 08:37:00
Manang,Naar,28.76666667,84.28333333,2020-09-11 00:00:00,Foggy overnight and in the morning.,rain,2020-09-11 05:52:00,2020-09-11 18:19:00,0.79,0.0357,0.112,2020-09-11 13:32:00,0.42,rain,5.86,2020-09-11 12:26:00,-1.67,2020-09-12 05:39:00,9.44,2020-09-11 15:45:00,-1.4,2020-09-12 05:39:00,2.76,1.0,1008.9,1.06,3.35,1599804660,192,0.98,7,1599804900,6.235,245.9,-0.11,2020-09-12 00:00:00,5.86,2020-09-11 12:26:00,0.16,2020-09-12 00:00:00,9.44,2020-09-11 15:45:00
Manang,Phu Gaun,28.55,84.2333333,2020-09-11 00:00:00,Foggy starting in the morning.,rain,2020-09-11 05:53:00,2020-09-11 18:19:00,0.79,0.0986,0.2992,2020-09-11 13:00:00,0.54,rain,12.52,2020-09-11 11:47:00,6.81,2020-09-12 01:11:00,16.24,2020-09-11 12:02:00,6.24,2020-09-12 01:07:00,8.84,1.0,1008.8,1.48,2.92,1599804240,341,0.91,9,1599803820,10.68,248.6,6.87,2020-09-12 00:00:00,12.52,2020-09-11 11:47:00,6.72,2020-09-11 06:06:00,16.24,2020-09-11 12:02:00
Morang,Biratnagar,29.2160678,83.983333,2020-09-10 21:45:00,Partly cloudy throughout the day.,partly-cloudy-day,2020-09-11 05:53:00,2020-09-11 18:21:00,0.79,0.0043,0.0199,2020-09-10 21:45:00,0.14,rain,16.72,2020-09-11 13:52:00,0.32,2020-09-12 05:35:00,16.44,2020-09-11 13:52:00,0.59,2020-09-12 05:35:00,6.14,0.92,1007.9,2.59,7.08,1599816240,201,0.64,11,1599807720,14.51,245.7,0.82,2020-09-11 05:29:00,16.72,2020-09-11 13:52:00,-0.98,2020-09-11 05:34:00,16.44,2020-09-11 13:52:00
Morang,Biratnagar Airport,26.61000889,87.37074778,2020-09-11 00:00:00,Rain and humid throughout the day.,rain,2020-09-11 05:41:00,2020-09-11 18:06:00,0.79,0.4722,1.312,2020-09-11 00:00:00,0.95,rain,29.81,2020-09-11 15:11:00,24.22,2020-09-12 05:36:00,39.84,2020-09-11 15:32:00,25.46,2020-09-12 05:32:00,26.33,0.95,1005.7,2.78,7.72,1599794520,97,0.98,5,1599806520,15.351,262.8,24.63,2020-09-11 04:36:00,29.81,2020-09-11 15:11:00,25.79,2020-09-11 04:30:00,39.84,2020-09-11 15:32:00
Morang,Gam Shree Nagar,26.73416667,87.50166667,2020-09-11 00:00:00,Rain and humid throughout the day.,rain,2020-09-11 05:40:00,2020-09-11 18:06:00,0.79,0.4531,0.9867,2020-09-11 05:40:00,0.93,rain,30.82,2020-09-11 15:23:00,23.88,2020-09-12 06:20:00,48.16,2020-09-11 16:06:00,25.54,2020-09-12 06:17:00,26.85,1.0,1006.1,1.93,5.57,1599795540,90,1.0,5,1599804600,14.51,262.1,24.48,2020-09-11 04:47:00,30.82,2020-09-11 15:23:00,25.81,2020-09-11 07:34:00,48.16,2020-09-11 16:06:00
Morang,Haraincha,28.46717,84.37307390000001,2020-09-11 00:00:00,Foggy in the morning and afternoon.,rain,2020-09-11 05:52:00,2020-09-11 18:19:00,0.79,0.1676,0.4629,2020-09-11 13:36:00,0.57,rain,15.14,2020-09-11 12:22:00,9.87,2020-09-12 01:33:00,18.6,2020-09-11 12:24:00,12.51,2020-09-12 05:44:00,11.5,1.0,1008.7,1.51,2.54,1599804480,356,0.9,8,1599804300,11.384,249.8,9.76,2020-09-11 04:56:00,15.14,2020-09-11 12:22:00,12.88,2020-09-11 04:46:00,18.6,2020-09-11 12:24:00
Morang,Letang,26.46666667,87.28333333,2020-09-11 00:00:00,Rain and humid throughout the day.,rain,2020-09-11 05:41:00,2020-09-11 18:06:00,0.79,0.5193,1.8009,2020-09-11 00:00:00,0.97,rain,27.99,2020-09-11 14:10:00,23.9,2020-09-12 04:58:00,32.94,2020-09-11 13:49:00,25.01,2020-09-12 04:59:00,24.36,0.89,1005.3,3.6,9.9,1599837360,97,0.97,5,1599806700,15.167,263.1,24.2,2020-09-11 04:32:00,27.99,2020-09-11 14:10:00,25.25,2020-09-11 04:29:00,32.94,2020-09-11 13:49:00
Morang,Mugu,26.483967,87.26700600000001,2020-09-11 00:00:00,Rain and humid throughout the day.,rain,2020-09-11 05:41:00,2020-09-11 18:06:00,0.79,0.4383,1.8036,2020-09-11 00:00:00,0.96,rain,28.03,2020-09-11 14:06:00,23.94,2020-09-12 04:55:00,33.07,2020-09-11 13:47:00,25.06,2020-09-12 04:57:00,24.4,0.89,1005.3,3.6,9.98,1599837240,97,0.97,5,1599806880,15.181,263.1,24.22,2020-09-11 04:31:00,28.03,2020-09-11 14:06:00,25.26,2020-09-11 04:28:00,33.07,2020-09-11 13:47:00
Mugu,Jomsom,29.50867889,81.89267389,2020-09-11 00:00:00,Clear throughout the day.,clear-day,2020-09-11 06:02:00,2020-09-11 18:29:00,0.79,0.0076,0.0245,2020-09-11 18:12:00,0.15,rain,24.91,2020-09-11 13:50:00,9.56,2020-09-12 05:29:00,24.96,2020-09-11 13:56:00,10.04,2020-09-12 05:27:00,14.63,0.94,1008.3,1.01,3.37,1599821940,272,0.12,12,1599805860,16.093,251.6,8.69,2020-09-11 05:43:00,24.91,2020-09-11 13:50:00,9.15,2020-09-11 05:43:00,24.96,2020-09-11 13:56:00
Mugu,Mangri,29.540125,82.081825,2020-09-11 00:00:00,Clear throughout the day.,clear-day,2020-09-11 06:01:00,2020-09-11 18:28:00,0.79,0.0113,0.0469,2020-09-11 20:31:00,0.19,rain,19.51,2020-09-11 13:45:00,6.72,2020-09-12 05:33:00,19.23,2020-09-11 13:45:00,6.99,2020-09-12 05:33:00,10.6,0.94,1008.2,1.26,2.97,1599821940,59,0.14,13,1599805680,16.093,250.3,5.8,2020-09-11 05:46:00,19.51,2020-09-11 13:45:00,6.07,2020-09-11 05:45:00,19.23,2020-09-11 13:45:00
Mugu,Rara,29.75,82.55,2020-09-11 00:00:00,Clear throughout the day.,fog,2020-09-11 05:59:00,2020-09-11 18:27:00,0.79,0.0015,0.0107,2020-09-11 00:00:00,0.12,rain,5.56,2020-09-11 13:03:00,-1.78,2020-09-12 05:35:00,3.22,2020-09-11 12:55:00,-1.51,2020-09-12 05:35:00,1.56,1.0,1008.8,1.56,4.67,1599813480,33,0.32,15,1599805620,15.081,245.4,-1.84,2020-09-11 05:40:00,5.56,2020-09-11 13:03:00,-1.57,2020-09-11 05:40:00,3.22,2020-09-11 12:55:00
Mugu,Seroge,29.58904306,82.30580306,2020-09-11 00:00:00,Clear throughout the day.,clear-day,2020-09-11 06:00:00,2020-09-11 18:28:00,0.79,0.0118,0.0558,2020-09-11 20:41:00,0.21,rain,17.83,2020-09-11 13:34:00,8.06,2020-09-12 05:35:00,18.28,2020-09-11 13:38:00,7.89,2020-09-12 05:52:00,11.54,1.0,1008.7,1.54,3.26,1599810300,53,0.27,12,1599804840,16.093,248.0,6.91,2020-09-11 05:47:00,17.83,2020-09-11 13:34:00,8.13,2020-09-11 05:46:00,18.28,2020-09-11 13:38:00
Mustang,Lete,28.78401111,83.72981667,2020-09-11 00:00:00,Clear throughout the day.,clear-day,2020-09-11 05:55:00,2020-09-11 18:21:00,0.79,0.0073,0.0152,2020-09-11 02:55:00,0.25,rain,13.79,2020-09-11 12:48:00,6.64,2020-09-12 01:25:00,15.59,2020-09-11 12:57:00,6.59,2020-09-11 21:26:00,8.95,1.0,1008.4,1.96,5.41,1599814980,210,0.59,12,1599805260,14.777,247.8,5.92,2020-09-11 05:57:00,13.79,2020-09-11 12:48:00,5.4,2020-09-11 05:55:00,15.59,2020-09-11 12:57:00
Mustang,Mustang(Lomangthang),28.81555556,83.86222222,2020-09-11 00:00:00,Partly cloudy throughout the day.,partly-cloudy-day,2020-09-11 05:54:00,2020-09-11 18:21:00,0.79,0.0075,0.0218,2020-09-11 03:32:00,0.24,rain,12.26,2020-09-11 13:03:00,4.55,2020-09-12 05:47:00,13.87,2020-09-11 14:17:00,4.95,2020-09-11 21:31:00,7.45,1.0,1008.4,1.8,4.54,1599814620,188,0.72,10,1599805260,14.465,247.2,4.32,2020-09-11 05:54:00,12.26,2020-09-11 13:03:00,4.53,2020-09-11 01:22:00,13.87,2020-09-11 14:17:00
Mustang,Ranipauwa (M.Nath),28.73887222,83.68183333,2020-09-11 00:00:00,Partly cloudy throughout the day.,partly-cloudy-day,2020-09-11 05:55:00,2020-09-11 18:22:00,0.79,0.0145,0.0354,2020-09-11 14:43:00,0.3,rain,13.62,2020-09-11 12:43:00,6.62,2020-09-12 01:22:00,16.05,2020-09-11 12:53:00,6.75,2020-09-11 20:26:00,8.88,1.0,1008.5,1.81,4.74,1599814920,220,0.66,11,1599804420,14.227,247.9,5.83,2020-09-11 05:56:00,13.62,2020-09-11 12:43:00,6.72,2020-09-11 02:28:00,16.05,2020-09-11 12:53:00
Mustang,Tatopani,28.9,83.68333333,2020-09-11 00:00:00,Partly cloudy throughout the day.,partly-cloudy-day,2020-09-11 05:55:00,2020-09-11 18:22:00,0.79,0.0057,0.0151,2020-09-11 02:53:00,0.2,rain,11.49,2020-09-11 13:25:00,3.99,2020-09-12 05:57:00,13.52,2020-09-11 14:21:00,3.95,2020-09-11 22:29:00,6.86,1.0,1008.4,1.94,5.35,1599814560,224,0.59,12,1599805260,14.806,246.6,3.61,2020-09-11 05:56:00,11.49,2020-09-11 13:25:00,2.63,2020-09-11 06:01:00,13.52,2020-09-11 14:21:00
Myagdi,Bega,28.4,83.73333333,2020-09-11 00:00:00,Mostly cloudy throughout the day.,rain,2020-09-11 05:55:00,2020-09-11 18:21:00,0.79,0.2271,0.437,2020-09-11 02:56:00,0.6,rain,18.07,2020-09-11 13:09:00,10.04,2020-09-12 00:00:00,19.99,2020-09-11 13:13:00,11.55,2020-09-12 01:32:00,12.88,1.0,1007.9,1.09,2.09,1599804720,57,0.79,11,1599803520,15.351,253.1,10.04,2020-09-12 00:00:00,18.07,2020-09-11 13:09:00,11.73,2020-09-12 00:00:00,19.99,2020-09-11 13:13:00
Myagdi,Beni Bazar,29.22713194,83.979815,2020-09-10 21:45:00,Foggy in the morning.,fog,2020-09-11 05:53:00,2020-09-11 18:21:00,0.79,0.0043,0.0207,2020-09-10 21:45:00,0.14,rain,16.59,2020-09-11 13:51:00,-0.01,2020-09-12 05:35:00,16.31,2020-09-11 13:51:00,0.26,2020-09-12 05:35:00,5.88,0.92,1007.9,2.62,7.17,1599816240,201,0.64,11,1599807780,14.399,245.6,0.51,2020-09-11 05:27:00,16.59,2020-09-11 13:51:00,-1.34,2020-09-11 05:33:00,16.31,2020-09-11 13:51:00
Myagdi,Dumkauli,28.56666667,83.38333333,2020-09-11 00:00:00,Foggy in the afternoon.,rain,2020-09-11 05:56:00,2020-09-11 18:23:00,0.79,0.1138,0.294,2020-09-11 14:51:00,0.5,rain,17.46,2020-09-11 12:41:00,10.17,2020-09-11 23:59:00,19.47,2020-09-11 12:45:00,11.27,2020-09-12 05:40:00,12.63,1.0,1008.2,1.59,2.66,1599804360,357,0.84,9,1599803820,12.115,251.0,9.87,2020-09-11 05:52:00,17.46,2020-09-11 12:41:00,11.53,2020-09-11 05:49:00,19.47,2020-09-11 12:45:00
Myagdi,Ghorepani,28.35083333,83.56666667,2020-09-11 00:00:00,Humid and mostly cloudy throughout the day.,rain,2020-09-11 05:55:00,2020-09-11 18:22:00,0.79,0.2097,0.4558,2020-09-11 14:27:00,0.57,rain,24.93,2020-09-11 12:53:00,16.71,2020-09-12 05:34:00,25.83,2020-09-11 12:57:00,17.51,2020-09-12 05:33:00,19.45,1.0,1007.8,1.23,1.99,1599804420,356,0.79,8,1599803640,15.381,254.6,15.95,2020-09-11 04:42:00,24.93,2020-09-11 12:53:00,17.19,2020-09-11 04:44:00,25.83,2020-09-11 12:57:00
Myagdi,Muna,28.44271389,83.576185,2020-09-11 00:00:00,Mostly cloudy throughout the day.,rain,2020-09-11 05:55:00,2020-09-11 18:22:00,0.79,0.1613,0.3621,2020-09-11 14:37:00,0.55,rain,21.39,2020-09-11 12:47:00,13.6,2020-09-12 05:42:00,22.78,2020-09-11 12:51:00,14.42,2020-09-12 05:39:00,16.24,1.0,1008.0,1.4,2.34,1599804240,352,0.83,8,1599803640,13.812,253.2,13.08,2020-09-11 05:44:00,21.39,2020-09-11 12:47:00,14.5,2020-09-11 05:42:00,22.78,2020-09-11 12:51:00
Nawalparasi,Bara Ghat,27.680675,84.22854170000001,2020-09-11 00:00:00,"Possible light rain until morning, starting again in the evening.",rain,2020-09-11 05:53:00,2020-09-11 18:19:00,0.79,0.1998,0.5208,2020-09-11 18:02:00,0.77,rain,34.11,2020-09-11 12:48:00,23.71,2020-09-12 05:36:00,41.56,2020-09-11 16:08:00,24.83,2020-09-12 05:38:00,24.73,0.81,1005.7,1.31,2.68,1599845820,89,0.55,10,1599803280,16.043,261.0,23.47,2020-09-11 05:29:00,34.11,2020-09-11 12:48:00,24.59,2020-09-11 05:31:00,41.56,2020-09-11 16:08:00
Nawalparasi,Dumkibas,27.51925,83.66218333,2020-09-11 00:00:00,"Rain until morning, starting again in the evening.",rain,2020-09-11 05:55:00,2020-09-11 18:21:00,0.79,0.2115,1.2162,2020-09-11 23:44:00,0.77,rain,32.75,2020-09-11 12:49:00,24.03,2020-09-12 05:12:00,40.93,2020-09-11 13:48:00,25.11,2020-09-12 05:09:00,24.93,0.82,1004.5,2.01,3.71,1599847500,109,0.61,6,1599803640,15.365,261.8,24.55,2020-09-11 04:41:00,32.75,2020-09-11 12:49:00,25.58,2020-09-11 04:35:00,40.93,2020-09-11 13:48:00
Nawalparasi,Parasi,27.67488333,84.07438333,2020-09-11 00:00:00,Possible light rain overnight and in the evening.,rain,2020-09-11 05:54:00,2020-09-11 18:20:00,0.79,0.1907,0.8028,2020-09-12 00:00:00,0.73,rain,33.84,2020-09-11 12:46:00,23.3,2020-09-12 05:32:00,40.67,2020-09-11 15:58:00,24.35,2020-09-12 05:34:00,24.28,0.8,1005.6,1.35,2.78,1599846660,87,0.55,9,1599803280,15.809,260.8,23.35,2020-09-11 05:30:00,33.84,2020-09-11 12:46:00,24.4,2020-09-11 05:32:00,40.67,2020-09-11 15:58:00
Nawalparasi,Rambas,27.56666667,82.95,2020-09-11 00:00:00,Possible light rain overnight.,rain,2020-09-11 05:58:00,2020-09-11 18:24:00,0.79,0.1372,0.3568,2020-09-11 08:39:00,0.54,rain,32.43,2020-09-11 14:27:00,24.85,2020-09-12 05:01:00,42.42,2020-09-11 14:34:00,26.01,2020-09-12 05:02:00,25.26,0.84,1004.1,2.0,5.3,1599848100,96,0.72,6,1599804540,16.093,261.8,24.62,2020-09-11 04:35:00,32.43,2020-09-11 14:27:00,25.61,2020-09-11 04:30:00,42.42,2020-09-11 14:34:00
