district,formal_name,lat,long,time,summary,icon,sunriseTime,sunsetTime,moonPhase,precipIntensity,precipIntensityMax,precipIntensityMaxTime,precipProbability,precipType,temperatureHigh,temperatureHighTime,temperatureLow,temperatureLowTime,apparentTemperatureHigh,apparentTemperatureHighTime,apparentTemperatureLow,apparentTemperatureLowTime,dewPoint,humidity,pressure,windSpeed,windGust,windGustTime,windBearing,cloudCover,uvIndex,uvIndexTime,visibility,ozone,temperatureMin,temperatureMinTime,temperatureMax,temperatureMaxTime,apparentTemperatureMin,apparentTemperatureMinTime,apparentTemperatureMax,apparentTemperatureMaxTime,precipAccumulation
Achham,Asara Ghat,28.95029444,81.44431944,2020-10-07 00:00:00,Clear throughout the day.,clear-day,2020-10-07 06:17:00,2020-10-07 17:59:00,0.67,0.0066,0.041,2020-10-07 00:00:00,0.01,rain,31.15,2020-10-07 13:47:00,18.98,2020-10-08 05:41:00,31.05,2020-10-07 13:56:00,19.25,2020-10-08 05:41:00,16.16,0.64,1011.7,1.39,3.09,1602025200,40,0.18,8,1602051360,16.093,259.4,18.26,2020-10-07 05:29:00,31.15,2020-10-07 13:47:00,18.53,2020-10-07 05:29:00,31.05,2020-10-07 13:56:00,
Achham,Basti,29.03098333,81.17113333,2020-10-07 00:00:00,Clear throughout the day.,clear-day,2020-10-07 06:18:00,2020-10-07 18:00:00,0.67,0.0051,0.0178,2020-10-07 00:12:00,0.03,rain,32.24,2020-10-07 13:48:00,20.11,2020-10-08 05:36:00,32.32,2020-10-07 15:23:00,20.38,2020-10-08 05:37:00,17.21,0.66,1011.5,1.21,2.38,1602024720,5,0.2,8,1602051420,16.093,259.0,18.81,2020-10-07 05:32:00,32.24,2020-10-07 13:48:00,19.07,2020-10-07 05:31:00,32.32,2020-10-07 15:23:00,
Achham,Mangalsen,29.13611389,81.25009167,2020-10-07 00:00:00,Clear throughout the day.,clear-day,2020-10-07 06:18:00,2020-10-07 18:00:00,0.67,0.006,0.0393,2020-10-07 23:26:00,0.02,rain,28.91,2020-10-07 13:51:00,17.5,2020-10-08 05:59:00,28.63,2020-10-07 13:50:00,17.77,2020-10-08 05:59:00,14.18,0.66,1011.9,1.22,2.44,1602024480,35,0.14,8,1602051420,16.093,258.3,16.42,2020-10-07 05:36:00,28.91,2020-10-07 13:51:00,16.69,2020-10-07 05:36:00,28.63,2020-10-07 13:50:00,
Achham,Sugali,29.17980694,81.37293889,2020-10-07 00:00:00,Clear throughout the day.,clear-day,2020-10-07 06:17:00,2020-10-07 17:59:00,0.67,0.0064,0.0287,2020-10-07 23:31:00,0.02,rain,26.19,2020-10-07 13:51:00,15.45,2020-10-08 05:50:00,25.91,2020-10-07 13:51:00,15.72,2020-10-08 05:50:00,13.06,0.71,1012.6,1.41,3.21,1602024900,41,0.16,8,1602051060,16.093,257.2,14.32,2020-10-07 05:36:00,26.19,2020-10-07 13:51:00,14.59,2020-10-07 05:36:00,25.91,2020-10-07 13:51:00,
Arghakhanchi,Rangsing,27.80330278,82.78400833,2020-10-07 00:00:00,Humid and mostly cloudy throughout the day.,partly-cloudy-day,2020-10-07 06:11:00,2020-10-07 17:54:00,0.67,0.0499,0.3636,2020-10-07 17:52:00,0.07,rain,33.11,2020-10-07 14:33:00,21.31,2020-10-08 05:31:00,36.02,2020-10-07 15:36:00,21.67,2020-10-08 05:34:00,19.48,0.65,1009.1,1.59,2.5,1602061560,69,0.65,6,1602052200,16.093,257.4,22.21,2020-10-07 05:33:00,33.11,2020-10-07 14:33:00,22.51,2020-10-07 05:34:00,36.02,2020-10-07 15:36:00,
Arghakhanchi,Sandhikharka,27.96402222,83.12056944,2020-10-07 00:00:00,Mostly cloudy throughout the day.,partly-cloudy-day,2020-10-07 06:10:00,2020-10-07 17:53:00,0.67,0.0373,0.2082,2020-10-07 17:40:00,0.06,rain,29.79,2020-10-07 13:08:00,18.29,2020-10-08 05:34:00,29.5,2020-10-07 13:07:00,18.56,2020-10-08 05:34:00,15.58,0.65,1010.7,1.28,2.04,1602061080,22,0.67,7,1602050580,16.093,255.7,18.3,2020-10-07 05:35:00,29.79,2020-10-07 13:08:00,18.57,2020-10-07 05:35:00,29.5,2020-10-07 13:07:00,
Arghakhanchi,Sidhara,27.7945,82.82838333,2020-10-07 00:00:00,Humid and mostly cloudy throughout the day.,partly-cloudy-day,2020-10-07 06:11:00,2020-10-07 17:54:00,0.67,0.0421,0.2984,2020-10-07 17:50:00,0.06,rain,32.43,2020-10-07 14:07:00,21.39,2020-10-08 05:30:00,34.6,2020-10-07 15:32:00,21.7,2020-10-08 05:33:00,19.0,0.64,1009.1,1.6,2.44,1602061500,74,0.65,7,1602052800,16.093,257.4,22.04,2020-10-07 05:33:00,32.43,2020-10-07 14:07:00,22.31,2020-10-07 05:34:00,34.6,2020-10-07 15:32:00,
Baglung,Baglung,28.26363611,83.60032222,2020-10-07 00:00:00,Mostly cloudy throughout the day.,partly-cloudy-day,2020-10-07 06:08:00,2020-10-07 17:51:00,0.67,0.0047,0.0467,2020-10-07 16:49:00,0.03,rain,28.37,2020-10-07 13:44:00,16.34,2020-10-08 05:35:00,28.09,2020-10-07 13:45:00,16.61,2020-10-08 05:35:00,13.17,0.63,1013.0,1.43,2.89,1602025080,324,0.6,7,1602053280,16.093,254.4,15.96,2020-10-07 05:17:00,28.37,2020-10-07 13:44:00,16.23,2020-10-07 05:17:00,28.09,2020-10-07 13:45:00,
Baglung,Dhorpatan,28.48333333,83.08333333,2020-10-07 00:00:00,Partly cloudy throughout the day.,partly-cloudy-day,2020-10-07 06:10:00,2020-10-07 17:53:00,0.67,0.03,0.1017,2020-10-07 00:00:00,0.17,rain,17.68,2020-10-07 12:53:00,7.78,2020-10-08 05:38:00,17.4,2020-10-07 12:52:00,7.22,2020-10-08 05:35:00,10.55,0.95,1013.8,1.54,2.42,1602059280,35,0.43,8,1602050220,16.091,251.7,7.68,2020-10-07 05:24:00,17.68,2020-10-07 12:53:00,7.0,2020-10-07 05:25:00,17.4,2020-10-07 12:52:00,
Baglung,Galkot,28.21869167,83.41881111,2020-10-07 00:00:00,Mostly cloudy throughout the day.,partly-cloudy-day,2020-10-07 06:09:00,2020-10-07 17:52:00,0.67,0.0088,0.0537,2020-10-07 16:50:00,0.04,rain,27.64,2020-10-07 13:33:00,14.32,2020-10-08 05:41:00,27.36,2020-10-07 13:33:00,14.59,2020-10-08 05:41:00,11.58,0.6,1012.5,1.48,2.59,1602026760,329,0.6,7,1602052380,16.093,254.5,14.43,2020-10-07 05:43:00,27.64,2020-10-07 13:33:00,14.7,2020-10-07 05:43:00,27.36,2020-10-07 13:33:00,
Baglung,Rangkhani,28.14408889,83.55824444,2020-10-07 00:00:00,Mostly cloudy throughout the day.,partly-cloudy-day,2020-10-07 06:08:00,2020-10-07 17:51:00,0.67,0.0074,0.0365,2020-10-07 00:00:00,0.02,rain,25.77,2020-10-07 13:44:00,14.81,2020-10-08 05:37:00,25.49,2020-10-07 13:44:00,15.08,2020-10-08 05:37:00,10.77,0.61,1011.7,1.28,2.41,1602026460,324,0.66,7,1602052200,16.093,254.9,14.53,2020-10-07 05:38:00,25.77,2020-10-07 13:44:00,14.8,2020-10-07 05:38:00,25.49,2020-10-07 13:44:00,
Baitadi,Patan (West),29.467137,80.54575109999999,2020-10-07 00:00:00,Clear throughout the day.,clear-day,2020-10-07 06:21:00,2020-10-07 18:03:00,0.67,0.0123,0.1092,2020-10-07 12:43:00,0.06,rain,29.12,2020-10-07 13:37:00,15.51,2020-10-08 05:36:00,28.83,2020-10-07 13:40:00,15.78,2020-10-08 05:36:00,16.54,0.77,1012.0,1.11,2.12,1602060600,189,0.16,7,1602051600,16.093,257.1,15.12,2020-10-07 05:22:00,29.12,2020-10-07 13:37:00,15.45,2020-10-07 05:25:00,28.83,2020-10-07 13:40:00,
Baitadi,Satbanjh,29.4973,80.49741194,2020-10-07 00:00:00,Clear throughout the day.,clear-day,2020-10-07 06:21:00,2020-10-07 18:03:00,0.67,0.0111,0.1438,2020-10-07 12:43:00,0.05,rain,25.46,2020-10-07 13:45:00,12.97,2020-10-08 05:39:00,25.18,2020-10-07 13:45:00,13.26,2020-10-08 05:40:00,14.42,0.83,1011.7,1.15,2.24,1602060060,196,0.12,8,1602051840,16.093,257.3,12.83,2020-10-07 05:33:00,25.46,2020-10-07 13:45:00,13.43,2020-10-07 05:35:00,25.18,2020-10-07 13:45:00,
Bajhang,Chainpur (West),29.55,81.21666667,2020-10-07 00:00:00,Clear throughout the day.,clear-day,2020-10-07 06:18:00,2020-10-07 18:00:00,0.67,0.0093,0.0451,2020-10-07 17:44:00,0.05,rain,25.7,2020-10-07 13:39:00,12.83,2020-10-08 05:19:00,25.42,2020-10-07 13:39:00,13.1,2020-10-08 05:19:00,11.49,0.7,1014.1,1.36,2.73,1602025200,66,0.21,9,1602051300,16.093,253.9,11.99,2020-10-07 05:02:00,25.7,2020-10-07 13:39:00,12.26,2020-10-07 05:02:00,25.42,2020-10-07 13:39:00,
Bajhang,Chainpur Bajhang Aws Climate,29.545890000000004,81.20114000000001,2020-10-07 00:00:00,Clear throughout the day.,clear-day,2020-10-07 06:18:00,2020-10-07 18:00:00,0.67,0.0105,0.0445,2020-10-07 17:45:00,0.05,rain,25.94,2020-10-07 13:41:00,13.04,2020-10-08 05:18:00,25.66,2020-10-07 13:41:00,13.31,2020-10-08 05:18:00,11.55,0.69,1014.0,1.34,2.7,1602025200,68,0.2,9,1602051300,16.093,254.0,12.22,2020-10-07 05:02:00,25.94,2020-10-07 13:41:00,12.49,2020-10-07 05:02:00,25.66,2020-10-07 13:41:00,
Bajhang,Kalukheti,29.447359999999996,81.16838,2020-10-07 00:00:00,Clear throughout the day.,clear-day,2020-10-07 06:18:00,2020-10-07 18:00:00,0.67,0.0135,0.044,2020-10-07 20:40:00,0.04,rain,28.11,2020-10-07 13:44:00,14.4,2020-10-08 05:53:00,27.83,2020-10-07 13:44:00,14.67,2020-10-08 05:53:00,12.14,0.64,1012.8,1.26,2.6,1602025080,72,0.17,9,1602051480,16.093,255.4,13.49,2020-10-07 05:35:00,28.11,2020-10-07 13:44:00,13.76,2020-10-07 05:35:00,27.83,2020-10-07 13:44:00,
Bajhang,Rayal,29.464595000000003,80.95405,2020-10-07 00:00:00,Clear throughout the day.,clear-day,2020-10-07 06:19:00,2020-10-07 18:01:00,0.67,0.0293,0.1187,2020-10-07 20:37:00,0.07,rain,29.96,2020-10-07 13:42:00,16.96,2020-10-08 05:32:00,29.68,2020-10-07 13:42:00,17.23,2020-10-08 05:32:00,14.98,0.68,1012.5,1.09,2.18,1602061080,153,0.19,9,1602051780,16.093,255.6,15.75,2020-10-07 05:03:00,29.96,2020-10-07 13:42:00,16.02,2020-10-07 05:03:00,29.68,2020-10-07 13:42:00,
Bajura,Bajura (Martadi),29.45697889,81.48038389,2020-10-07 00:00:00,Clear throughout the day.,clear-day,2020-10-07 06:17:00,2020-10-07 17:59:00,0.67,0.002,0.0083,2020-10-07 23:12:00,0.03,rain,25.34,2020-10-07 13:43:00,13.18,2020-10-08 05:42:00,25.06,2020-10-07 13:43:00,13.45,2020-10-08 05:42:00,12.13,0.76,1014.5,1.51,3.38,1602024840,48,0.2,9,1602050160,16.093,253.8,11.23,2020-10-07 05:00:00,25.34,2020-10-07 13:43:00,11.5,2020-10-07 05:00:00,25.06,2020-10-07 13:43:00,
Bajura,Kailasmandu,29.35291694,81.33385889,2020-10-07 00:00:00,Clear throughout the day.,clear-day,2020-10-07 06:18:00,2020-10-07 18:00:00,0.67,0.0057,0.0323,2020-10-07 23:33:00,0.03,rain,27.97,2020-10-07 13:46:00,16.1,2020-10-08 05:28:00,27.7,2020-10-07 13:52:00,16.37,2020-10-08 05:28:00,13.43,0.68,1013.6,1.39,3.04,1602024720,51,0.15,8,1602050640,16.093,255.7,14.6,2020-10-07 05:03:00,27.97,2020-10-07 13:46:00,14.87,2020-10-07 05:03:00,27.7,2020-10-07 13:52:00,
Bajura,Kolti,29.50348694,81.66617611,2020-10-07 00:00:00,Clear throughout the day.,clear-day,2020-10-07 06:16:00,2020-10-07 17:58:00,0.67,0.0011,0.0052,2020-10-07 20:57:00,0.03,rain,25.82,2020-10-07 13:45:00,10.27,2020-10-08 04:49:00,25.54,2020-10-07 13:45:00,10.54,2020-10-08 04:49:00,10.23,0.73,1014.6,1.07,2.99,1602063180,278,0.24,9,1602050640,16.093,254.1,8.73,2020-10-07 05:40:00,25.82,2020-10-07 13:45:00,9.0,2020-10-07 05:40:00,25.54,2020-10-07 13:45:00,
Banke,Amlekhganj,27.94748333,81.78569444,2020-10-07 00:15:00,Clear throughout the day.,clear-day,2020-10-07 06:15:00,2020-10-07 17:58:00,0.67,0.0019,0.0074,2020-10-07 22:05:00,0.02,rain,33.78,2020-10-07 14:26:00,21.43,2020-10-08 05:08:00,35.58,2020-10-07 13:19:00,21.97,2020-10-08 05:10:00,19.6,0.64,1008.5,1.86,3.0,1602062640,58,0.36,8,1602051540,16.093,259.4,21.2,2020-10-07 05:39:00,33.78,2020-10-07 14:26:00,21.73,2020-10-07 05:40:00,35.58,2020-10-07 13:19:00,
Banke,Dhakeri,28.10055556,81.66824722,2020-10-07 00:15:00,Clear throughout the day.,clear-day,2020-10-07 06:16:00,2020-10-07 17:59:00,0.67,0.0018,0.0074,2020-10-07 22:05:00,0.01,rain,33.56,2020-10-07 14:09:00,21.35,2020-10-08 05:19:00,35.49,2020-10-07 13:03:00,21.86,2020-10-08 05:22:00,19.81,0.65,1008.6,1.75,2.69,1602063240,42,0.3,8,1602051360,16.093,259.7,21.18,2020-10-07 05:40:00,33.56,2020-10-07 14:09:00,21.64,2020-10-07 05:40:00,35.49,2020-10-07 13:03:00,
Banke,Khajura (Nepalganj),28.11368333,81.59030556,2020-10-07 00:15:00,Clear throughout the day.,clear-day,2020-10-07 06:16:00,2020-10-07 17:59:00,0.67,0.0018,0.0074,2020-10-07 22:05:00,0.02,rain,33.47,2020-10-07 14:17:00,21.31,2020-10-08 05:17:00,35.39,2020-10-07 13:04:00,21.82,2020-10-08 05:20:00,19.86,0.65,1008.6,1.75,2.64,1602064800,43,0.3,8,1602051120,16.093,259.9,21.28,2020-10-07 05:41:00,33.47,2020-10-07 14:17:00,21.76,2020-10-07 05:41:00,35.39,2020-10-07 13:04:00,
Banke,Naubasta,28.230225,81.65270278,2020-10-07 00:00:00,Humid throughout the day.,clear-day,2020-10-07 06:16:00,2020-10-07 17:59:00,0.67,0.0016,0.0074,2020-10-07 22:05:00,0.02,rain,33.75,2020-10-07 13:55:00,21.63,2020-10-08 05:36:00,35.8,2020-10-07 13:46:00,22.12,2020-10-08 05:37:00,20.23,0.67,1008.9,1.59,2.43,1602063420,37,0.27,7,1602051600,16.093,259.9,21.42,2020-10-07 05:38:00,33.75,2020-10-07 13:55:00,21.92,2020-10-07 05:39:00,35.8,2020-10-07 13:46:00,
Banke,Nepalgunj Airport,28.051994399999995,81.6228389,2020-10-07 00:15:00,Clear throughout the day.,clear-day,2020-10-07 06:16:00,2020-10-07 17:59:00,0.67,0.0018,0.0074,2020-10-07 22:05:00,0.01,rain,33.47,2020-10-07 14:31:00,21.3,2020-10-08 05:10:00,35.1,2020-10-07 13:11:00,21.81,2020-10-08 05:12:00,19.62,0.65,1008.5,1.82,2.75,1602063720,44,0.3,8,1602051060,16.093,259.8,21.27,2020-10-07 05:41:00,33.47,2020-10-07 14:31:00,21.77,2020-10-07 05:42:00,35.1,2020-10-07 13:11:00,
Bara,Gulariya,27.164166700000003,84.98,2020-10-07 00:00:00,Humid and mostly cloudy throughout the day.,rain,2020-10-07 06:02:00,2020-10-07 17:46:00,0.67,0.1745,0.6463,2020-10-07 05:21:00,0.54,rain,31.8,2020-10-07 14:03:00,23.66,2020-10-08 05:20:00,39.62,2020-10-07 15:28:00,24.66,2020-10-08 05:24:00,23.88,0.83,1009.2,1.62,2.79,1602061260,86,0.65,6,1602052020,16.093,255.3,23.73,2020-10-07 03:49:00,31.8,2020-10-07 14:03:00,24.74,2020-10-07 03:50:00,39.62,2020-10-07 15:28:00,
Bara,Kalaiya,27.079,84.9329,2020-10-07 00:00:00,Humid and mostly cloudy throughout the day.,rain,2020-10-07 06:02:00,2020-10-07 17:46:00,0.67,0.1628,0.5792,2020-10-07 05:09:00,0.47,rain,31.38,2020-10-07 14:28:00,23.71,2020-10-08 05:17:00,38.27,2020-10-07 15:28:00,24.7,2020-10-08 05:21:00,23.46,0.81,1009.0,1.89,2.9,1602061620,78,0.62,6,1602052500,16.093,255.3,23.81,2020-10-07 03:50:00,31.38,2020-10-07 14:28:00,24.79,2020-10-07 03:51:00,38.27,2020-10-07 15:28:00,
Bara,Nijgadh,27.16416667,84.98,2020-10-07 00:00:00,Humid and mostly cloudy throughout the day.,rain,2020-10-07 06:02:00,2020-10-07 17:46:00,0.67,0.1745,0.6463,2020-10-07 05:21:00,0.54,rain,31.8,2020-10-07 14:03:00,23.66,2020-10-08 05:20:00,39.62,2020-10-07 15:28:00,24.66,2020-10-08 05:24:00,23.88,0.83,1009.2,1.62,2.79,1602061260,86,0.65,6,1602052020,16.093,255.3,23.73,2020-10-07 03:49:00,31.8,2020-10-07 14:03:00,24.74,2020-10-07 03:50:00,39.62,2020-10-07 15:28:00,
Bara,Parwanipur,27.20300556,85.170475,2020-10-07 00:00:00,Humid and mostly cloudy throughout the day.,rain,2020-10-07 06:01:00,2020-10-07 17:45:00,0.67,0.2096,0.4836,2020-10-07 05:05:00,0.61,rain,31.73,2020-10-07 13:51:00,23.41,2020-10-08 05:28:00,39.41,2020-10-07 15:16:00,24.37,2020-10-08 05:29:00,23.84,0.83,1009.4,1.42,2.52,1602060660,104,0.67,6,1602053100,16.093,255.2,23.55,2020-10-07 03:48:00,31.73,2020-10-07 13:51:00,24.54,2020-10-07 03:50:00,39.41,2020-10-07 15:16:00,
Bara,Simara Airport,27.2813,84.9919,2020-10-07 00:00:00,Humid and mostly cloudy throughout the day.,rain,2020-10-07 06:02:00,2020-10-07 17:46:00,0.67,0.1583,0.582,2020-10-07 05:28:00,0.57,rain,30.99,2020-10-07 13:33:00,22.73,2020-10-08 05:29:00,37.33,2020-10-07 15:18:00,23.69,2020-10-08 05:30:00,23.64,0.87,1009.7,1.36,2.59,1602060900,103,0.69,6,1602051180,16.093,255.1,22.77,2020-10-07 03:48:00,30.99,2020-10-07 13:33:00,23.77,2020-10-07 03:49:00,37.33,2020-10-07 15:18:00,
Bardiya,Chisapani(Karnali),28.21278611,81.34521111,2020-10-07 00:00:00,Clear throughout the day.,clear-day,2020-10-07 06:17:00,2020-10-07 18:00:00,0.67,0.0019,0.0074,2020-10-07 22:05:00,0.02,rain,33.3,2020-10-07 14:34:00,20.81,2020-10-08 05:35:00,34.73,2020-10-07 14:01:00,21.26,2020-10-08 05:36:00,19.7,0.66,1008.6,1.6,2.36,1602068220,47,0.27,7,1602050940,16.093,260.7,21.7,2020-10-07 05:39:00,33.3,2020-10-07 14:34:00,22.22,2020-10-07 05:40:00,34.73,2020-10-07 14:01:00,
Bardiya,Kumalgaun,28.33735833,81.33784167,2020-10-07 00:00:00,Clear throughout the day.,clear-day,2020-10-07 06:17:00,2020-10-07 18:00:00,0.67,0.0018,0.0074,2020-10-07 22:05:00,0.02,rain,33.31,2020-10-07 14:09:00,20.71,2020-10-08 05:35:00,35.14,2020-10-07 13:25:00,21.17,2020-10-08 05:37:00,19.87,0.66,1008.8,1.56,2.14,1602008520,45,0.25,7,1602051120,16.093,261.0,21.46,2020-10-07 05:39:00,33.31,2020-10-07 14:09:00,21.94,2020-10-07 05:40:00,35.14,2020-10-07 13:25:00,
Bardiya,Manpur,28.36353889,81.41428333,2020-10-07 00:00:00,Humid throughout the day.,clear-day,2020-10-07 06:17:00,2020-10-07 18:00:00,0.67,0.0018,0.0074,2020-10-07 22:05:00,0.01,rain,33.64,2020-10-07 13:57:00,20.9,2020-10-08 05:32:00,35.82,2020-10-07 13:45:00,21.38,2020-10-08 05:34:00,20.17,0.67,1008.9,1.52,2.1,1602063540,44,0.26,7,1602051180,16.093,260.8,21.22,2020-10-07 05:39:00,33.64,2020-10-07 13:57:00,21.69,2020-10-07 05:39:00,35.82,2020-10-07 13:45:00,
Bardiya,Rajapur,28.64721944,81.28542778,2020-10-07 00:00:00,Clear throughout the day.,clear-day,2020-10-07 06:17:00,2020-10-07 18:00:00,0.67,0.002,0.0068,2020-10-07 22:05:00,0.01,rain,32.86,2020-10-07 13:49:00,20.91,2020-10-08 05:35:00,33.88,2020-10-07 13:53:00,21.24,2020-10-08 05:36:00,18.93,0.66,1009.8,1.45,2.32,1602017460,36,0.19,8,1602052380,16.093,261.4,20.6,2020-10-07 05:40:00,32.86,2020-10-07 13:49:00,20.99,2020-10-07 05:41:00,33.88,2020-10-07 13:53:00,
Bardiya,Rambhapur,28.307825,81.27586389,2020-10-07 00:00:00,Clear throughout the day.,clear-day,2020-10-07 06:17:00,2020-10-07 18:00:00,0.67,0.0019,0.0074,2020-10-07 22:05:00,0.02,rain,33.17,2020-10-07 14:31:00,20.58,2020-10-08 05:38:00,34.57,2020-10-07 14:09:00,21.01,2020-10-08 05:39:00,19.6,0.66,1008.7,1.58,2.19,1602008100,46,0.25,7,1602050940,16.093,261.1,21.72,2020-10-07 05:39:00,33.17,2020-10-07 14:31:00,22.22,2020-10-07 05:39:00,34.57,2020-10-07 14:09:00,
Bardiya,Rani Jaruwa Nursery,28.42588611,81.33803611,2020-10-07 00:00:00,Clear throughout the day.,clear-day,2020-10-07 06:17:00,2020-10-07 18:00:00,0.67,0.0018,0.0074,2020-10-07 22:05:00,0.01,rain,33.53,2020-10-07 13:57:00,20.8,2020-10-08 05:33:00,35.66,2020-10-07 13:47:00,21.26,2020-10-08 05:34:00,20.02,0.67,1009.0,1.55,2.22,1602011580,44,0.24,7,1602051420,16.093,261.2,21.12,2020-10-07 05:40:00,33.53,2020-10-07 13:57:00,21.57,2020-10-07 05:40:00,35.66,2020-10-07 13:47:00,
Bhaktapur,Bhaktapur,27.63333333,85.43333333,2020-10-07 00:00:00,Mostly cloudy throughout the day.,partly-cloudy-day,2020-10-07 06:00:00,2020-10-07 17:44:00,0.67,0.0379,0.1082,2020-10-07 22:38:00,0.2,rain,26.72,2020-10-07 13:51:00,15.67,2020-10-08 05:41:00,26.57,2020-10-07 13:52:00,15.96,2020-10-08 05:42:00,17.1,0.85,1011.4,0.69,1.74,1602062040,165,0.76,6,1602049140,15.977,252.5,15.38,2020-10-07 05:41:00,26.72,2020-10-07 13:51:00,15.66,2020-10-07 05:42:00,26.57,2020-10-07 13:52:00,
Bhaktapur,Changu Narayan,27.67668056,85.42396944,2020-10-07 00:00:00,Mostly cloudy throughout the day.,partly-cloudy-day,2020-10-07 06:00:00,2020-10-07 17:44:00,0.67,0.0311,0.0923,2020-10-07 22:38:00,0.15,rain,28.64,2020-10-07 14:11:00,16.27,2020-10-08 05:43:00,28.8,2020-10-07 14:20:00,16.54,2020-10-08 05:43:00,16.71,0.76,1011.5,0.67,1.76,1602061920,111,0.75,6,1602048900,16.093,252.6,16.18,2020-10-07 05:41:00,28.64,2020-10-07 14:11:00,16.45,2020-10-07 05:41:00,28.8,2020-10-07 14:20:00,
Bhaktapur,Nagarkot,27.645725,85.4615833,2020-10-07 00:00:00,Mostly cloudy throughout the day.,partly-cloudy-day,2020-10-07 06:00:00,2020-10-07 17:44:00,0.67,0.0328,0.0999,2020-10-07 22:36:00,0.18,rain,27.81,2020-10-07 13:59:00,15.94,2020-10-08 05:42:00,28.1,2020-10-07 14:13:00,16.21,2020-10-08 05:42:00,17.03,0.81,1011.5,0.66,1.73,1602062760,153,0.76,6,1602048480,15.954,252.5,15.66,2020-10-07 05:42:00,27.81,2020-10-07 13:59:00,15.93,2020-10-07 05:42:00,28.1,2020-10-07 14:13:00,
Bhaktapur,Sanga,27.71605833,85.42675556,2020-10-07 00:00:00,Mostly cloudy throughout the day.,partly-cloudy-day,2020-10-07 06:00:00,2020-10-07 17:44:00,0.67,0.0238,0.0767,2020-10-07 22:38:00,0.11,rain,28.03,2020-10-07 14:17:00,15.8,2020-10-08 05:41:00,27.89,2020-10-07 14:22:00,16.07,2020-10-08 05:41:00,15.4,0.72,1011.5,0.65,1.78,1602062040,55,0.75,6,1602048480,16.093,252.7,15.77,2020-10-07 05:45:00,28.03,2020-10-07 14:17:00,16.04,2020-10-07 05:45:00,27.89,2020-10-07 14:22:00,
Bhojpur,Dingla,27.1944798,87.04862659999999,2020-10-07 00:00:00,Humid and mostly cloudy throughout the day.,partly-cloudy-day,2020-10-07 05:54:00,2020-10-07 17:38:00,0.67,0.0548,0.1944,2020-10-07 17:07:00,0.24,rain,23.81,2020-10-07 12:52:00,15.48,2020-10-08 05:16:00,24.38,2020-10-07 13:02:00,16.12,2020-10-08 05:10:00,18.16,0.99,1011.3,0.83,2.3,1602061020,190,0.69,6,1602048720,16.093,251.9,15.16,2020-10-07 05:20:00,23.81,2020-10-07 12:52:00,16.2,2020-10-07 05:20:00,24.38,2020-10-07 13:02:00,
Bhojpur,Rampur,27.5282716,87.2177064,2020-10-07 00:00:00,Mostly cloudy throughout the day.,partly-cloudy-day,2020-10-07 05:53:00,2020-10-07 17:37:00,0.67,0.0401,0.2163,2020-10-07 17:29:00,0.13,rain,26.12,2020-10-07 12:45:00,16.6,2020-10-08 06:16:00,26.18,2020-10-07 12:46:00,16.87,2020-10-08 06:16:00,15.95,0.8,1012.9,1.2,2.41,1602094500,353,0.55,7,1602050040,16.093,251.2,15.53,2020-10-07 05:14:00,26.12,2020-10-07 12:45:00,15.8,2020-10-07 05:14:00,26.18,2020-10-07 12:46:00,
Chitawan,Bharatpur,27.72113611,84.58525556,2020-10-07 00:00:00,Humid and mostly cloudy throughout the day.,partly-cloudy-day,2020-10-07 06:04:00,2020-10-07 17:47:00,0.67,0.0826,0.3645,2020-10-07 02:18:00,0.28,rain,33.02,2020-10-07 13:55:00,21.93,2020-10-08 05:41:00,36.94,2020-10-07 15:39:00,22.59,2020-10-08 05:44:00,21.38,0.75,1010.2,0.88,1.74,1602026640,146,0.74,6,1602050460,16.093,255.5,21.12,2020-10-07 05:33:00,33.02,2020-10-07 13:55:00,21.69,2020-10-07 05:35:00,36.94,2020-10-07 15:39:00,
Chitawan,Bharatpur,27.5909,84.5223,2020-10-07 00:00:00,Humid and mostly cloudy throughout the day.,rain,2020-10-07 06:04:00,2020-10-07 17:48:00,0.67,0.1798,0.8173,2020-10-07 02:31:00,0.43,rain,33.29,2020-10-07 14:09:00,22.71,2020-10-08 05:40:00,39.8,2020-10-07 15:21:00,23.57,2020-10-08 05:42:00,22.97,0.78,1009.8,0.84,1.62,1602008400,118,0.72,6,1602050520,16.093,255.8,22.41,2020-10-07 05:37:00,33.29,2020-10-07 14:09:00,23.21,2020-10-07 05:39:00,39.8,2020-10-07 15:21:00,
Chitawan,Jhuwani,27.654025,84.3507944,2020-10-07 00:00:00,Humid and mostly cloudy throughout the day.,partly-cloudy-day,2020-10-07 06:05:00,2020-10-07 17:48:00,0.67,0.1187,0.4954,2020-10-07 02:36:00,0.31,rain,33.58,2020-10-07 14:07:00,22.37,2020-10-08 05:47:00,39.05,2020-10-07 15:36:00,23.0,2020-10-08 05:50:00,22.03,0.74,1009.8,1.08,1.72,1602027000,81,0.74,6,1602050640,16.093,256.1,22.2,2020-10-07 05:40:00,33.58,2020-10-07 14:07:00,22.86,2020-10-07 05:41:00,39.05,2020-10-07 15:36:00,
Chitwan,Gobindabasti,27.423171500000002,84.30374090000001,2020-10-07 00:00:00,Humid and mostly cloudy throughout the day.,rain,2020-10-07 06:05:00,2020-10-07 17:49:00,0.67,0.1669,0.7645,2020-10-07 02:49:00,0.41,rain,30.97,2020-10-07 14:17:00,22.86,2020-10-08 05:40:00,35.6,2020-10-07 15:14:00,23.68,2020-10-08 05:44:00,22.05,0.78,1009.3,1.49,2.28,1602061680,76,0.7,6,1602050400,16.093,256.1,22.9,2020-10-07 03:53:00,30.97,2020-10-07 14:17:00,23.73,2020-10-07 05:43:00,35.6,2020-10-07 15:14:00,
Chitwan,Madi Kalyanpur,27.580483299999997,84.2242222,2020-10-07 00:00:00,Humid and mostly cloudy throughout the day.,partly-cloudy-day,2020-10-07 06:05:00,2020-10-07 17:49:00,0.67,0.1207,0.5242,2020-10-07 02:46:00,0.32,rain,33.06,2020-10-07 14:14:00,22.4,2020-10-08 05:54:00,38.75,2020-10-07 15:35:00,23.04,2020-10-08 05:58:00,22.2,0.75,1009.6,1.34,2.06,1602071760,75,0.73,6,1602050580,16.093,256.3,22.52,2020-10-07 05:42:00,33.06,2020-10-07 14:14:00,23.26,2020-10-07 05:45:00,38.75,2020-10-07 15:35:00,
Chitwan,Meghauli,27.67303333,84.42227222,2020-10-07 00:00:00,Humid and mostly cloudy throughout the day.,partly-cloudy-day,2020-10-07 06:04:00,2020-10-07 17:48:00,0.67,0.1213,0.5298,2020-10-07 02:29:00,0.32,rain,33.6,2020-10-07 14:02:00,22.49,2020-10-08 05:44:00,38.92,2020-10-07 15:38:00,23.16,2020-10-08 05:46:00,21.95,0.74,1009.8,0.98,1.7,1602026520,96,0.74,6,1602050700,16.093,256.0,22.12,2020-10-07 05:38:00,33.6,2020-10-07 14:02:00,22.75,2020-10-07 05:39:00,38.92,2020-10-07 15:38:00,
Dadeldhura,Dadeldhura,29.301352,80.58775194,2020-10-07 00:00:00,Clear throughout the day.,clear-day,2020-10-07 06:21:00,2020-10-07 18:03:00,0.67,0.0107,0.0476,2020-10-07 12:38:00,0.07,rain,25.37,2020-10-07 13:03:00,14.29,2020-10-08 05:41:00,25.09,2020-10-07 13:03:00,14.77,2020-10-08 05:41:00,15.83,0.87,1011.6,1.09,1.93,1602059400,158,0.23,8,1602051240,16.093,257.1,13.98,2020-10-07 05:33:00,25.37,2020-10-07 13:03:00,14.76,2020-10-07 05:34:00,25.09,2020-10-07 13:03:00,
Dadeldhura,Dailekh,29.12785778,80.34740778,2020-10-07 00:00:00,Humid throughout the day.,clear-day,2020-10-07 06:21:00,2020-10-07 18:04:00,0.67,0.0031,0.0078,2020-10-07 22:45:00,0.03,rain,32.1,2020-10-07 13:31:00,20.92,2020-10-08 05:35:00,35.41,2020-10-07 15:30:00,21.46,2020-10-08 05:35:00,20.6,0.73,1010.8,1.53,2.73,1602025080,29,0.12,8,1602052140,16.093,259.3,20.58,2020-10-07 05:32:00,32.1,2020-10-07 13:31:00,21.07,2020-10-07 05:32:00,35.41,2020-10-07 15:30:00,
Dadeldhura,Sahukharka,29.288393100000004,80.37301500000001,2020-10-07 00:00:00,Clear throughout the day.,clear-day,2020-10-07 06:21:00,2020-10-07 18:03:00,0.67,0.0051,0.0244,2020-10-07 12:34:00,0.06,rain,25.97,2020-10-07 13:11:00,16.23,2020-10-08 05:45:00,25.79,2020-10-07 13:16:00,16.77,2020-10-08 05:45:00,17.57,0.87,1011.2,1.32,2.55,1602027240,86,0.19,8,1602051780,16.093,258.0,16.0,2020-10-07 05:38:00,25.97,2020-10-07 13:11:00,16.66,2020-10-07 05:39:00,25.79,2020-10-07 13:16:00,
Dailekh,Bale Budha (Tallo Dhungeshwor),28.83811111,81.70848333,2020-10-07 00:00:00,Clear throughout the day.,clear-day,2020-10-07 06:16:00,2020-10-07 17:58:00,0.67,0.0127,0.0598,2020-10-07 18:19:00,0.05,rain,28.98,2020-10-07 13:44:00,17.47,2020-10-08 06:17:00,29.11,2020-10-07 13:54:00,17.74,2020-10-08 06:17:00,16.75,0.74,1012.0,1.29,2.32,1602025560,62,0.29,8,1602051480,16.093,257.7,17.04,2020-10-07 05:36:00,28.98,2020-10-07 13:44:00,17.31,2020-10-07 05:36:00,29.11,2020-10-07 13:54:00,
Dailekh,Katti,28.92202778,81.62608333,2020-10-07 00:00:00,Clear throughout the day.,clear-day,2020-10-07 06:16:00,2020-10-07 17:59:00,0.67,0.0123,0.042,2020-10-07 18:33:00,0.04,rain,28.78,2020-10-07 13:46:00,17.22,2020-10-08 06:08:00,28.71,2020-10-07 13:57:00,17.49,2020-10-08 06:08:00,15.63,0.71,1012.0,1.4,2.92,1602025920,48,0.23,8,1602050940,16.093,258.0,16.67,2020-10-07 05:39:00,28.78,2020-10-07 13:46:00,16.94,2020-10-07 05:39:00,28.71,2020-10-07 13:57:00,
Dailekh,Nayabasti (Dang),28.78022222,81.82144444,2020-10-07 00:00:00,Clear throughout the day.,clear-day,2020-10-07 06:15:00,2020-10-07 17:58:00,0.67,0.0197,0.0847,2020-10-07 18:19:00,0.06,rain,29.27,2020-10-07 13:47:00,18.02,2020-10-08 05:42:00,29.47,2020-10-07 13:57:00,18.29,2020-10-08 05:42:00,17.01,0.73,1012.1,1.18,2.14,1602025140,73,0.3,7,1602052200,16.093,257.5,17.39,2020-10-07 05:23:00,29.27,2020-10-07 13:47:00,17.66,2020-10-07 05:23:00,29.47,2020-10-07 13:57:00,
Dailekh,Ranimatta,28.90711111,81.75019167,2020-10-07 00:00:00,Clear throughout the day.,clear-day,2020-10-07 06:16:00,2020-10-07 17:58:00,0.67,0.0169,0.081,2020-10-07 18:31:00,0.06,rain,26.73,2020-10-07 13:45:00,15.76,2020-10-08 05:58:00,26.51,2020-10-07 13:47:00,16.03,2020-10-08 05:58:00,15.35,0.78,1012.3,1.37,2.63,1602026220,72,0.28,8,1602049200,16.093,256.8,15.32,2020-10-07 05:35:00,26.73,2020-10-07 13:45:00,15.59,2020-10-07 05:35:00,26.51,2020-10-07 13:47:00,
Dang,Ghorahi (Masina),28.13174722,82.30278333,2020-10-07 00:00:00,Partly cloudy throughout the day.,partly-cloudy-day,2020-10-07 06:13:00,2020-10-07 17:56:00,0.67,0.0096,0.0474,2020-10-07 00:00:00,0.04,rain,31.39,2020-10-07 13:32:00,19.15,2020-10-08 05:39:00,32.06,2020-10-07 13:51:00,19.42,2020-10-08 05:39:00,18.25,0.68,1010.5,1.56,2.41,1602059580,35,0.47,7,1602053040,16.093,257.3,19.44,2020-10-07 05:31:00,31.39,2020-10-07 13:32:00,19.72,2020-10-07 05:32:00,32.06,2020-10-07 13:51:00,
Dang,Ghorai (Dang),27.69233306,82.52512694,2020-10-07 00:00:00,Mostly cloudy throughout the day.,partly-cloudy-day,2020-10-07 06:12:00,2020-10-07 17:56:00,0.67,0.0256,0.1389,2020-10-07 17:53:00,0.03,rain,32.81,2020-10-07 14:08:00,21.71,2020-10-08 05:23:00,34.79,2020-10-07 14:00:00,22.22,2020-10-08 05:25:00,19.52,0.64,1008.6,1.91,2.74,1602065940,71,0.6,7,1602050880,16.093,258.0,22.41,2020-10-07 03:46:00,32.81,2020-10-07 14:08:00,22.93,2020-10-07 03:47:00,34.79,2020-10-07 14:00:00,
Dang,Koilabas,28.05,82.5,2020-10-07 00:00:00,Humid and partly cloudy throughout the day.,partly-cloudy-day,2020-10-07 06:12:00,2020-10-07 17:55:00,0.67,0.0221,0.1519,2020-10-07 17:47:00,0.05,rain,31.64,2020-10-07 13:44:00,19.95,2020-10-08 05:37:00,32.42,2020-10-07 13:59:00,20.29,2020-10-08 05:37:00,18.77,0.69,1010.3,1.58,2.58,1602061140,35,0.52,7,1602052560,16.093,257.0,20.5,2020-10-07 05:28:00,31.64,2020-10-07 13:44:00,20.89,2020-10-07 05:30:00,32.42,2020-10-07 13:59:00,
Dang,Lalmatiya,27.87055556,82.53666667,2020-10-07 00:00:00,Humid and mostly cloudy throughout the day.,partly-cloudy-day,2020-10-07 06:12:00,2020-10-07 17:55:00,0.67,0.0321,0.2187,2020-10-07 17:50:00,0.04,rain,33.96,2020-10-07 14:07:00,21.02,2020-10-08 05:34:00,37.22,2020-10-07 15:18:00,21.51,2020-10-08 05:36:00,20.45,0.67,1009.4,1.69,2.69,1602062100,57,0.57,7,1602051120,16.093,257.6,21.84,2020-10-07 05:32:00,33.96,2020-10-07 14:07:00,22.33,2020-10-07 05:34:00,37.22,2020-10-07 15:18:00,
Dang,Lamahi,27.88486889,82.33509611,2020-10-07 00:00:00,Humid and partly cloudy throughout the day.,partly-cloudy-day,2020-10-07 06:13:00,2020-10-07 17:56:00,0.67,0.01,0.0648,2020-10-07 17:47:00,0.02,rain,34.19,2020-10-07 14:11:00,21.5,2020-10-08 05:39:00,36.85,2020-10-07 14:25:00,22.01,2020-10-08 05:40:00,20.24,0.66,1009.1,1.83,2.85,1602062340,68,0.52,7,1602052140,16.093,258.1,21.9,2020-10-07 05:29:00,34.19,2020-10-07 14:11:00,22.41,2020-10-07 05:33:00,36.85,2020-10-07 14:25:00,
Dang,Padhampur,28.03719889,82.484156,2020-10-07 00:00:00,Humid and partly cloudy throughout the day.,partly-cloudy-day,2020-10-07 06:12:00,2020-10-07 17:56:00,0.67,0.0205,0.1476,2020-10-07 17:46:00,0.05,rain,31.66,2020-10-07 13:45:00,20.06,2020-10-08 05:36:00,32.46,2020-10-07 15:27:00,20.4,2020-10-08 05:37:00,18.84,0.69,1010.2,1.6,2.61,1602061140,36,0.52,7,1602052680,16.093,257.1,20.61,2020-10-07 05:27:00,31.66,2020-10-07 13:45:00,21.01,2020-10-07 05:29:00,32.46,2020-10-07 15:27:00,
Dang,Tulsipur,28.201323,82.1393939,2020-10-07 00:00:00,Partly cloudy throughout the day.,partly-cloudy-day,2020-10-07 06:14:00,2020-10-07 17:57:00,0.67,0.0057,0.0365,2020-10-07 00:00:00,0.03,rain,31.47,2020-10-07 13:31:00,19.68,2020-10-08 05:38:00,32.05,2020-10-07 13:51:00,19.95,2020-10-08 05:38:00,18.41,0.69,1010.4,1.5,2.29,1602060240,30,0.39,7,1602051420,16.093,257.6,19.36,2020-10-07 05:30:00,31.47,2020-10-07 13:31:00,19.7,2020-10-07 05:30:00,32.05,2020-10-07 13:51:00,
Darchula,Darchula New,29.666666999999997,80.55,2020-10-07 00:15:00,Clear throughout the day.,clear-day,2020-10-07 06:21:00,2020-10-07 18:02:00,0.67,0.0065,0.0394,2020-10-07 12:43:00,0.02,rain,31.22,2020-10-07 13:55:00,17.3,2020-10-08 05:35:00,30.94,2020-10-07 13:54:00,17.57,2020-10-08 05:35:00,15.11,0.63,1012.5,1.13,2.03,1602059100,210,0.13,8,1602052260,16.093,257.2,16.94,2020-10-07 05:34:00,31.22,2020-10-07 13:55:00,17.21,2020-10-07 05:34:00,30.94,2020-10-07 13:54:00,
Darchula,Dhaulatiya (Dallekhdhar),29.78255194,80.82215806,2020-10-07 00:00:00,Clear throughout the day.,clear-day,2020-10-07 06:20:00,2020-10-07 18:01:00,0.67,0.0075,0.0288,2020-10-07 18:50:00,0.06,rain,23.28,2020-10-07 13:47:00,12.53,2020-10-08 00:14:00,23.0,2020-10-07 13:47:00,12.8,2020-10-08 00:14:00,10.93,0.73,1014.6,1.49,2.68,1602054960,200,0.14,9,1602050700,16.093,253.4,11.7,2020-10-07 05:01:00,23.28,2020-10-07 13:47:00,11.97,2020-10-07 05:01:00,23.0,2020-10-07 13:47:00,
Darchula,Gokuleshwar,29.84287806,80.53884806,2020-10-07 00:15:00,Clear throughout the day.,clear-day,2020-10-07 06:21:00,2020-10-07 18:02:00,0.67,0.0033,0.0178,2020-10-07 22:10:00,0.02,rain,28.52,2020-10-07 13:52:00,16.1,2020-10-08 05:38:00,28.24,2020-10-07 13:52:00,16.37,2020-10-08 05:38:00,11.41,0.57,1013.3,1.25,2.28,1602056640,219,0.2,9,1602050760,16.093,256.2,15.46,2020-10-07 05:17:00,28.52,2020-10-07 13:52:00,15.73,2020-10-07 05:17:00,28.24,2020-10-07 13:52:00,
Darchula,Lumpthi,29.84496194,80.54539389,2020-10-07 00:15:00,Clear throughout the day.,clear-day,2020-10-07 06:21:00,2020-10-07 18:02:00,0.67,0.0034,0.0177,2020-10-07 22:08:00,0.02,rain,28.35,2020-10-07 13:51:00,16.03,2020-10-08 05:39:00,28.07,2020-10-07 13:51:00,16.3,2020-10-08 05:39:00,11.34,0.57,1013.4,1.26,2.3,1602056520,218,0.2,9,1602050700,16.093,256.2,15.37,2020-10-07 05:15:00,28.35,2020-10-07 13:51:00,15.64,2020-10-07 05:15:00,28.07,2020-10-07 13:51:00,
Dhading,Dhading,28.05,84.82,2020-10-07 00:00:00,Mostly cloudy throughout the day.,partly-cloudy-day,2020-10-07 06:03:00,2020-10-07 17:46:00,0.67,0.0108,0.0528,2020-10-07 20:52:00,0.03,rain,30.89,2020-10-07 13:41:00,19.36,2020-10-08 05:30:00,31.04,2020-10-07 14:02:00,19.63,2020-10-08 05:30:00,15.12,0.58,1011.9,1.13,2.12,1602027360,340,0.75,6,1602052980,16.093,254.5,19.2,2020-10-07 05:22:00,30.89,2020-10-07 13:41:00,19.47,2020-10-07 05:22:00,31.04,2020-10-07 14:02:00,
Dhading,Dhunibesi,27.912505600000003,84.8961333,2020-10-07 00:00:00,Mostly cloudy throughout the day.,partly-cloudy-day,2020-10-07 06:03:00,2020-10-07 17:46:00,0.67,0.0161,0.0521,2020-10-07 00:45:00,0.06,rain,31.97,2020-10-07 13:52:00,20.19,2020-10-08 05:38:00,32.31,2020-10-07 13:56:00,20.46,2020-10-08 05:38:00,16.77,0.62,1011.2,0.97,1.77,1602027480,254,0.74,6,1602050940,16.093,254.6,19.45,2020-10-07 05:27:00,31.97,2020-10-07 13:52:00,19.72,2020-10-07 05:27:00,32.31,2020-10-07 13:56:00,
Dhading,Gajuri,27.8053359,84.7055012,2020-10-07 00:00:00,Humid and mostly cloudy throughout the day.,partly-cloudy-day,2020-10-07 06:03:00,2020-10-07 17:47:00,0.67,0.0339,0.1046,2020-10-07 01:57:00,0.17,rain,32.5,2020-10-07 13:56:00,20.69,2020-10-08 05:34:00,34.73,2020-10-07 15:29:00,21.17,2020-10-08 05:35:00,19.94,0.72,1010.8,0.85,1.65,1602027540,174,0.75,6,1602048960,16.093,255.0,19.78,2020-10-07 05:27:00,32.5,2020-10-07 13:56:00,20.15,2020-10-07 05:28:00,34.73,2020-10-07 15:29:00,
Dhading,Majhimtar,27.72311667,85.1642,2020-10-07 00:00:00,Mostly cloudy throughout the day.,partly-cloudy-day,2020-10-07 06:01:00,2020-10-07 17:45:00,0.67,0.0257,0.104,2020-10-07 18:30:00,0.11,rain,31.12,2020-10-07 13:48:00,18.76,2020-10-08 05:47:00,31.81,2020-10-07 13:52:00,19.04,2020-10-08 05:49:00,18.04,0.72,1011.2,0.82,1.84,1602060840,187,0.71,7,1602050640,16.093,253.1,17.88,2020-10-07 05:31:00,31.12,2020-10-07 13:48:00,18.15,2020-10-07 05:30:00,31.81,2020-10-07 13:52:00,
Dhading,Pakhribas,27.802707399999996,84.8797782,2020-10-07 00:00:00,Humid and mostly cloudy throughout the day.,partly-cloudy-day,2020-10-07 06:03:00,2020-10-07 17:46:00,0.67,0.0204,0.045,2020-10-07 00:49:00,0.11,rain,32.76,2020-10-07 14:11:00,21.12,2020-10-08 05:36:00,34.92,2020-10-07 14:43:00,21.65,2020-10-08 05:38:00,19.96,0.73,1011.0,0.87,1.53,1602026940,197,0.71,6,1602050520,16.093,254.3,19.93,2020-10-07 05:22:00,32.76,2020-10-07 14:11:00,20.4,2020-10-07 05:24:00,34.92,2020-10-07 14:43:00,
Dhankuta,Barahkshetra,26.91424278,87.15986,2020-10-07 00:00:00,Humid and mostly cloudy throughout the day.,partly-cloudy-day,2020-10-07 05:53:00,2020-10-07 17:37:00,0.67,0.0208,0.0464,2020-10-07 15:20:00,0.27,rain,30.48,2020-10-07 12:43:00,21.94,2020-10-08 05:40:00,36.98,2020-10-07 14:41:00,22.63,2020-10-08 05:40:00,23.72,0.87,1010.4,1.22,2.04,1602060480,105,0.69,6,1602048300,16.093,252.9,22.27,2020-10-07 05:29:00,30.48,2020-10-07 12:43:00,23.17,2020-10-07 05:30:00,36.98,2020-10-07 14:41:00,
Dhankuta,Dhankuta,26.93805556,87.15472222,2020-10-07 00:00:00,Humid and mostly cloudy throughout the day.,partly-cloudy-day,2020-10-07 05:53:00,2020-10-07 17:37:00,0.67,0.0207,0.0414,2020-10-07 20:46:00,0.27,rain,30.33,2020-10-07 12:24:00,21.72,2020-10-08 05:41:00,36.26,2020-10-07 14:39:00,22.41,2020-10-08 05:41:00,23.71,0.88,1010.5,1.19,2.1,1602060900,110,0.69,6,1602048060,16.093,252.8,22.05,2020-10-07 05:33:00,30.33,2020-10-07 12:24:00,22.97,2020-10-07 05:34:00,36.26,2020-10-07 14:39:00,
Dhankuta,Dhankuta,27.0500025,87.24444444,2020-10-07 00:00:00,Humid and mostly cloudy throughout the day.,partly-cloudy-day,2020-10-07 05:53:00,2020-10-07 17:37:00,0.67,0.0208,0.0783,2020-10-07 20:48:00,0.26,rain,24.36,2020-10-07 12:01:00,16.45,2020-10-08 05:01:00,24.77,2020-10-07 12:10:00,16.88,2020-10-08 05:00:00,19.15,0.98,1010.7,1.1,2.24,1602062580,188,0.62,7,1602047940,16.093,252.9,16.53,2020-10-07 05:25:00,24.36,2020-10-07 12:01:00,17.35,2020-10-07 05:25:00,24.77,2020-10-07 12:10:00,
Dhankuta,Leguwa Ghat,27.04633889,87.2925,2020-10-07 00:00:00,Humid and mostly cloudy throughout the day.,partly-cloudy-day,2020-10-07 05:53:00,2020-10-07 17:37:00,0.67,0.0223,0.0727,2020-10-07 20:48:00,0.25,rain,23.93,2020-10-07 11:57:00,15.27,2020-10-08 05:36:00,24.36,2020-10-07 12:03:00,15.74,2020-10-08 05:35:00,18.67,0.98,1010.8,1.09,2.22,1602062280,181,0.63,7,1602048060,16.093,252.8,15.52,2020-10-07 05:29:00,23.93,2020-10-07 11:57:00,16.41,2020-10-07 05:30:00,24.36,2020-10-07 12:03:00,
Dhankuta,Muga,27.15338889,87.28919444,2020-10-07 00:00:00,Humid and mostly cloudy throughout the day.,partly-cloudy-day,2020-10-07 05:53:00,2020-10-07 17:37:00,0.67,0.0287,0.1183,2020-10-07 20:49:00,0.23,rain,29.99,2020-10-07 12:25:00,19.39,2020-10-08 05:40:00,33.21,2020-10-07 12:41:00,19.84,2020-10-08 05:39:00,21.29,0.84,1011.2,0.93,2.22,1602062400,201,0.61,6,1602049800,16.093,253.1,19.79,2020-10-07 05:23:00,29.99,2020-10-07 12:25:00,20.46,2020-10-07 05:24:00,33.21,2020-10-07 12:41:00,
Dhankuta,Mul Ghat,26.98321944,87.34595556,2020-10-07 00:00:00,Humid and mostly cloudy throughout the day.,partly-cloudy-day,2020-10-07 05:52:00,2020-10-07 17:37:00,0.67,0.0213,0.0611,2020-10-07 15:55:00,0.25,rain,25.65,2020-10-07 11:58:00,17.57,2020-10-08 05:40:00,26.15,2020-10-07 12:06:00,18.17,2020-10-08 05:40:00,20.19,0.97,1010.7,1.15,2.18,1602061680,132,0.66,6,1602047940,16.093,252.7,17.64,2020-10-07 05:40:00,25.65,2020-10-07 11:58:00,18.58,2020-10-07 05:39:00,26.15,2020-10-07 12:06:00,
Dhankuta,Mul Ghat,26.98321944,87.34595556,2020-10-07 00:00:00,Humid and mostly cloudy throughout the day.,partly-cloudy-day,2020-10-07 05:52:00,2020-10-07 17:37:00,0.67,0.0213,0.0611,2020-10-07 15:55:00,0.25,rain,25.65,2020-10-07 11:58:00,17.57,2020-10-08 05:40:00,26.15,2020-10-07 12:06:00,18.17,2020-10-08 05:40:00,20.19,0.97,1010.7,1.15,2.18,1602061680,132,0.66,6,1602047940,16.093,252.7,17.64,2020-10-07 05:40:00,25.65,2020-10-07 11:58:00,18.58,2020-10-07 05:39:00,26.15,2020-10-07 12:06:00,
Dhanusa,Chisapani Bazar,27.01295556,85.92089722,2020-10-07 00:00:00,Humid and mostly cloudy throughout the day.,rain,2020-10-07 05:58:00,2020-10-07 17:42:00,0.67,0.106,0.3435,2020-10-07 01:18:00,0.52,rain,30.82,2020-10-07 13:46:00,23.17,2020-10-08 05:30:00,36.79,2020-10-07 14:01:00,24.07,2020-10-08 05:31:00,23.38,0.83,1009.5,1.64,2.53,1602057000,124,0.69,5,1602051060,16.093,254.6,23.38,2020-10-07 03:47:00,30.82,2020-10-07 13:46:00,24.34,2020-10-07 03:47:00,36.79,2020-10-07 14:01:00,
Dhanusa,Janakpur Airport,26.8,85.9833333,2020-10-07 00:00:00,Humid and mostly cloudy throughout the day.,partly-cloudy-day,2020-10-07 05:58:00,2020-10-07 17:42:00,0.67,0.0459,0.1571,2020-10-07 02:41:00,0.35,rain,30.58,2020-10-07 14:19:00,23.67,2020-10-08 05:12:00,36.9,2020-10-07 14:01:00,24.65,2020-10-08 05:16:00,23.37,0.82,1009.0,1.95,2.7,1602060420,107,0.71,5,1602051960,16.093,254.0,23.64,2020-10-07 05:55:00,30.58,2020-10-07 14:19:00,24.62,2020-10-07 05:51:00,36.9,2020-10-07 14:01:00,
Dhanusa,Tulsi,26.71666667,85.96666667,2020-10-07 00:00:00,Humid and mostly cloudy throughout the day.,partly-cloudy-day,2020-10-07 05:58:00,2020-10-07 17:42:00,0.67,0.0315,0.1372,2020-10-07 02:47:00,0.3,rain,30.29,2020-10-07 15:01:00,23.61,2020-10-08 05:08:00,36.21,2020-10-07 14:24:00,24.61,2020-10-08 05:12:00,23.23,0.82,1009.0,2.08,2.72,1602060120,98,0.72,5,1602051660,16.093,253.8,23.47,2020-10-07 05:58:00,30.29,2020-10-07 15:01:00,24.45,2020-10-07 05:55:00,36.21,2020-10-07 14:24:00,
Dolakha,Charikot,27.67633111,86.10399389,2020-10-07 00:00:00,Humid and mostly cloudy throughout the day.,partly-cloudy-day,2020-10-07 05:58:00,2020-10-07 17:41:00,0.67,0.0171,0.0573,2020-10-07 21:36:00,0.13,rain,27.98,2020-10-07 13:27:00,16.91,2020-10-08 05:33:00,29.25,2020-10-07 14:14:00,17.18,2020-10-08 05:33:00,16.75,0.78,1012.4,1.3,2.73,1602021300,196,0.61,7,1602047940,16.093,250.5,16.13,2020-10-07 05:07:00,27.98,2020-10-07 13:27:00,16.4,2020-10-07 05:07:00,29.25,2020-10-07 14:14:00,
Dolakha,Dunai,27.63333333,86.13333333,2020-10-07 00:00:00,Humid and mostly cloudy throughout the day.,partly-cloudy-day,2020-10-07 05:58:00,2020-10-07 17:41:00,0.67,0.023,0.0777,2020-10-07 21:44:00,0.15,rain,26.83,2020-10-07 13:14:00,15.12,2020-10-08 05:49:00,28.16,2020-10-07 13:21:00,15.39,2020-10-08 05:49:00,16.75,0.83,1012.0,1.28,2.74,1602020520,190,0.62,7,1602048060,16.093,250.7,14.66,2020-10-07 05:45:00,26.83,2020-10-07 13:14:00,14.93,2020-10-07 05:45:00,28.16,2020-10-07 13:21:00,
Dolakha,Jiri,27.6666667,86.05,2020-10-07 00:00:00,Mostly cloudy throughout the day.,partly-cloudy-day,2020-10-07 05:58:00,2020-10-07 17:41:00,0.67,0.0157,0.054,2020-10-07 21:50:00,0.14,rain,24.67,2020-10-07 13:42:00,14.09,2020-10-08 05:37:00,24.76,2020-10-07 13:45:00,14.36,2020-10-08 05:37:00,15.76,0.88,1012.2,1.2,2.47,1602023340,200,0.63,7,1602048120,16.093,250.8,13.22,2020-10-07 05:25:00,24.67,2020-10-07 13:42:00,13.49,2020-10-07 05:25:00,24.76,2020-10-07 13:45:00,
Dolakha,Nagdaha,27.616666700000003,86.35,2020-10-07 00:00:00,Mostly cloudy throughout the day.,partly-cloudy-day,2020-10-07 05:57:00,2020-10-07 17:40:00,0.67,0.0407,0.1411,2020-10-07 14:49:00,0.19,rain,19.15,2020-10-07 12:41:00,10.59,2020-10-08 05:38:00,19.46,2020-10-07 13:12:00,10.86,2020-10-08 05:38:00,11.51,0.89,1012.9,1.39,2.85,1602018480,216,0.6,7,1602047520,15.313,249.0,9.86,2020-10-07 05:17:00,19.15,2020-10-07 12:41:00,10.13,2020-10-07 05:17:00,19.46,2020-10-07 13:12:00,
Dolpa,Kaigaun,29.03154722,82.76287778,2020-10-07 00:00:00,Clear throughout the day.,clear-day,2020-10-07 06:12:00,2020-10-07 17:54:00,0.67,0.0007,0.002,2020-10-07 02:41:00,0.04,rain,19.1,2020-10-07 12:45:00,5.15,2020-10-08 05:43:00,18.82,2020-10-07 12:45:00,5.42,2020-10-08 05:43:00,6.54,0.79,1015.8,1.27,2.4,1602060960,21,0.31,10,1602050760,16.093,250.6,5.37,2020-10-07 05:11:00,19.1,2020-10-07 12:45:00,5.64,2020-10-07 05:11:00,18.82,2020-10-07 12:45:00,
Dolpa,Silgadhi Doti,28.98363333,82.82074444,2020-10-07 00:00:00,Clear throughout the day.,clear-day,2020-10-07 06:11:00,2020-10-07 17:54:00,0.67,0.0011,0.0032,2020-10-07 17:48:00,0.04,rain,19.15,2020-10-07 12:45:00,5.46,2020-10-08 05:42:00,18.87,2020-10-07 12:45:00,5.73,2020-10-08 05:42:00,6.48,0.79,1015.7,1.33,2.43,1602061080,31,0.29,10,1602050640,16.093,250.5,5.18,2020-10-07 05:14:00,19.15,2020-10-07 12:45:00,4.81,2020-10-07 04:54:00,18.87,2020-10-07 12:45:00,
Doti,Dipayal (Doti),29.12015194,80.70944778,2020-10-07 00:00:00,Clear throughout the day.,clear-day,2020-10-07 06:20:00,2020-10-07 18:02:00,0.67,0.0114,0.0323,2020-10-07 01:04:00,0.06,rain,27.59,2020-10-07 13:19:00,16.65,2020-10-08 05:59:00,27.82,2020-10-07 13:25:00,17.0,2020-10-08 05:44:00,17.5,0.83,1011.5,1.09,1.86,1602022680,88,0.2,8,1602051420,16.093,257.6,16.36,2020-10-07 05:36:00,27.59,2020-10-07 13:19:00,16.78,2020-10-07 05:37:00,27.82,2020-10-07 13:25:00,
Doti,Dumrakot,29.16385278,80.600738,2020-10-07 00:00:00,Clear throughout the day.,clear-day,2020-10-07 06:20:00,2020-10-07 18:03:00,0.67,0.0088,0.0251,2020-10-07 11:59:00,0.06,rain,25.19,2020-10-07 13:05:00,14.75,2020-10-08 05:42:00,24.92,2020-10-07 13:06:00,15.2,2020-10-08 05:40:00,16.55,0.89,1011.1,1.2,2.08,1602024480,101,0.21,8,1602051420,16.093,257.7,14.48,2020-10-07 05:35:00,25.19,2020-10-07 13:05:00,15.07,2020-10-07 05:35:00,24.92,2020-10-07 13:06:00,
Doti,Gaira,29.34106083,81.045105,2020-10-07 00:00:00,Clear throughout the day.,clear-day,2020-10-07 06:19:00,2020-10-07 18:01:00,0.67,0.0263,0.1306,2020-10-07 13:46:00,0.07,rain,23.47,2020-10-07 13:19:00,12.86,2020-10-08 05:33:00,23.19,2020-10-07 13:19:00,13.13,2020-10-08 05:33:00,12.22,0.79,1012.1,1.11,2.42,1602025980,62,0.21,8,1602051420,16.093,256.5,11.75,2020-10-07 05:09:00,23.47,2020-10-07 13:19:00,12.02,2020-10-07 05:09:00,23.19,2020-10-07 13:19:00,
Doti,Jhingrana,29.26209694,80.93690083,2020-10-07 00:00:00,Clear throughout the day.,clear-day,2020-10-07 06:19:00,2020-10-07 18:01:00,0.67,0.0256,0.1767,2020-10-07 13:45:00,0.09,rain,30.05,2020-10-07 12:56:00,17.83,2020-10-08 05:29:00,30.19,2020-10-07 13:01:00,18.1,2020-10-08 05:28:00,17.78,0.77,1012.4,0.94,2.02,1602024720,65,0.26,7,1602051180,16.093,257.1,16.67,2020-10-07 05:14:00,30.05,2020-10-07 12:56:00,16.93,2020-10-07 05:14:00,30.19,2020-10-07 13:01:00,
Doti,Khaptad,29.0,81.13333333,2020-10-07 00:00:00,Clear throughout the day.,clear-day,2020-10-07 06:18:00,2020-10-07 18:00:00,0.67,0.0046,0.0265,2020-10-07 00:47:00,0.03,rain,28.92,2020-10-07 13:47:00,18.24,2020-10-08 05:50:00,28.64,2020-10-07 13:47:00,18.51,2020-10-08 05:50:00,16.28,0.74,1011.0,1.23,2.46,1602024720,355,0.22,8,1602051240,16.093,259.2,17.32,2020-10-07 05:41:00,28.92,2020-10-07 13:47:00,17.59,2020-10-07 05:43:00,28.64,2020-10-07 13:47:00,
Doti,Kola Gaun,29.38804889,81.14630111,2020-10-07 00:00:00,Clear throughout the day.,clear-day,2020-10-07 06:18:00,2020-10-07 18:00:00,0.67,0.0166,0.0503,2020-10-07 13:47:00,0.05,rain,22.44,2020-10-07 13:40:00,10.64,2020-10-08 05:35:00,22.16,2020-10-07 13:40:00,10.91,2020-10-08 05:35:00,10.77,0.8,1012.5,1.22,2.56,1602025020,65,0.17,9,1602051420,16.093,256.0,9.6,2020-10-07 05:12:00,22.44,2020-10-07 13:40:00,9.58,2020-10-07 05:34:00,22.16,2020-10-07 13:40:00,
Gorkha,Barpak,28.2,84.73333333,2020-10-06 21:45:00,Mostly cloudy throughout the day.,partly-cloudy-day,2020-10-07 06:03:00,2020-10-07 17:47:00,0.67,0.0061,0.0292,2020-10-07 15:46:00,0.07,rain,26.43,2020-10-07 12:52:00,16.44,2020-10-08 00:26:00,26.35,2020-10-07 12:54:00,16.71,2020-10-08 00:26:00,13.26,0.67,1012.6,1.68,3.41,1602010140,357,0.62,6,1602051600,14.082,253.1,16.58,2020-10-07 00:48:00,26.43,2020-10-07 12:52:00,16.85,2020-10-07 00:48:00,26.35,2020-10-07 12:54:00,
Gorkha,Chhekampar,27.97138889,84.58944444,2020-10-07 00:00:00,Mostly cloudy throughout the day.,partly-cloudy-day,2020-10-07 06:04:00,2020-10-07 17:47:00,0.67,0.0126,0.0509,2020-10-07 00:00:00,0.04,rain,31.91,2020-10-07 13:51:00,19.18,2020-10-08 05:38:00,31.78,2020-10-07 13:59:00,19.45,2020-10-08 05:38:00,15.99,0.59,1010.9,0.83,1.45,1602028860,145,0.75,6,1602053820,16.093,256.1,18.95,2020-10-07 05:38:00,31.91,2020-10-07 13:51:00,19.22,2020-10-07 05:38:00,31.78,2020-10-07 13:59:00,
Gorkha,Chumchet,28.48333333,85.0,2020-10-06 21:45:00,Partly cloudy throughout the day.,partly-cloudy-day,2020-10-07 06:02:00,2020-10-07 17:45:00,0.67,0.0018,0.0072,2020-10-07 21:45:00,0.09,rain,11.26,2020-10-07 12:53:00,4.03,2020-10-07 23:50:00,11.19,2020-10-07 13:25:00,4.25,2020-10-07 23:57:00,5.8,0.97,1016.1,1.2,2.66,1602053280,63,0.39,8,1602056160,16.09,247.2,2.71,2020-10-07 05:19:00,11.26,2020-10-07 12:53:00,1.92,2020-10-07 05:44:00,11.19,2020-10-07 13:25:00,
Gorkha,Gorkha,28.66666667,84.61666667,2020-10-06 21:45:00,Partly cloudy throughout the day.,partly-cloudy-day,2020-10-07 06:04:00,2020-10-07 17:47:00,0.67,0.0023,0.0072,2020-10-07 21:45:00,0.1,rain,5.33,2020-10-07 13:40:00,-3.06,2020-10-08 05:45:00,3.56,2020-10-07 13:42:00,-2.79,2020-10-08 05:45:00,0.04,0.98,1017.5,1.22,2.58,1602053760,323,0.36,9,1602053700,16.093,245.6,-3.5,2020-10-07 05:41:00,5.33,2020-10-07 13:40:00,-3.23,2020-10-07 05:41:00,3.56,2020-10-07 13:42:00,
Gorkha,Laprak,28.2,84.75,2020-10-06 21:45:00,Mostly cloudy throughout the day.,partly-cloudy-day,2020-10-07 06:03:00,2020-10-07 17:46:00,0.67,0.0063,0.0312,2020-10-07 15:46:00,0.08,rain,24.93,2020-10-07 12:49:00,14.55,2020-10-08 05:45:00,24.88,2020-10-07 12:53:00,14.82,2020-10-08 05:45:00,12.95,0.72,1012.5,1.68,3.47,1602009960,356,0.62,6,1602051720,13.949,252.9,14.93,2020-10-07 05:48:00,24.93,2020-10-07 12:49:00,15.2,2020-10-07 05:48:00,24.88,2020-10-07 12:53:00,
Gorkha,Sama Gaun,28.42693611,84.90264444,2020-10-06 21:45:00,Partly cloudy throughout the day.,partly-cloudy-day,2020-10-07 06:03:00,2020-10-07 17:46:00,0.67,0.0029,0.0083,2020-10-07 15:51:00,0.1,rain,15.86,2020-10-07 12:35:00,7.07,2020-10-07 23:49:00,15.58,2020-10-07 12:35:00,7.34,2020-10-07 23:49:00,7.75,0.86,1016.0,1.33,2.54,1602055620,37,0.47,7,1602052800,15.952,248.1,7.06,2020-10-07 05:08:00,15.86,2020-10-07 12:35:00,6.6,2020-10-07 05:12:00,15.58,2020-10-07 12:35:00,
Gulmi,Darma,27.9365,83.33811667,2020-10-07 00:00:00,Mostly cloudy throughout the day.,partly-cloudy-day,2020-10-07 06:09:00,2020-10-07 17:52:00,0.67,0.0126,0.0402,2020-10-07 17:19:00,0.04,rain,30.07,2020-10-07 13:38:00,18.43,2020-10-08 05:39:00,29.79,2020-10-07 13:38:00,18.7,2020-10-08 05:39:00,15.3,0.63,1010.7,1.24,1.83,1602061140,8,0.72,6,1602050820,16.093,255.6,18.46,2020-10-07 05:40:00,30.07,2020-10-07 13:38:00,18.73,2020-10-07 05:40:00,29.79,2020-10-07 13:38:00,
Gulmi,Musikot,27.93856667,83.44315278,2020-10-07 00:00:00,Mostly cloudy throughout the day.,partly-cloudy-day,2020-10-07 06:08:00,2020-10-07 17:52:00,0.67,0.0129,0.0425,2020-10-07 18:38:00,0.03,rain,32.55,2020-10-07 13:45:00,19.39,2020-10-08 05:34:00,32.97,2020-10-07 13:46:00,19.66,2020-10-08 05:34:00,16.86,0.61,1010.7,1.2,1.83,1602027060,2,0.73,6,1602051180,16.093,255.5,19.67,2020-10-07 05:37:00,32.55,2020-10-07 13:45:00,19.94,2020-10-07 05:37:00,32.97,2020-10-07 13:46:00,
Gulmi,Tamghas,28.16998056,83.26802778,2020-10-07 00:00:00,Mostly cloudy throughout the day.,partly-cloudy-day,2020-10-07 06:09:00,2020-10-07 17:52:00,0.67,0.0154,0.0863,2020-10-07 17:39:00,0.06,rain,27.72,2020-10-07 13:12:00,15.12,2020-10-08 05:09:00,27.44,2020-10-07 13:12:00,15.39,2020-10-08 05:09:00,12.94,0.65,1012.1,1.45,2.18,1602026580,357,0.57,7,1602051000,16.093,254.6,15.13,2020-10-07 05:55:00,27.72,2020-10-07 13:12:00,15.4,2020-10-07 05:55:00,27.44,2020-10-07 13:12:00,
Humla,Simikot,29.73056889,82.07185,2020-10-07 00:00:00,Clear throughout the day.,clear-day,2020-10-07 06:15:00,2020-10-07 17:56:00,0.67,0.002,0.0083,2020-10-07 22:45:00,0.05,rain,22.49,2020-10-07 13:50:00,8.84,2020-10-08 05:34:00,22.21,2020-10-07 13:50:00,9.11,2020-10-08 05:34:00,7.7,0.7,1015.6,0.99,2.71,1602060720,156,0.03,10,1602051480,16.093,251.9,7.78,2020-10-07 05:07:00,22.49,2020-10-07 13:50:00,8.05,2020-10-07 05:07:00,22.21,2020-10-07 13:50:00,
Humla,Simikot Airport,29.77827806,81.95264499999999,2020-10-07 00:00:00,Clear throughout the day.,clear-day,2020-10-07 06:15:00,2020-10-07 17:57:00,0.67,0.002,0.0083,2020-10-07 22:45:00,0.05,rain,23.6,2020-10-07 13:52:00,9.57,2020-10-08 05:28:00,23.32,2020-10-07 13:52:00,9.84,2020-10-08 05:28:00,7.58,0.66,1015.6,0.95,2.43,1602061740,178,0.05,10,1602051480,16.093,252.3,8.32,2020-10-07 05:03:00,23.6,2020-10-07 13:52:00,8.59,2020-10-07 05:03:00,23.32,2020-10-07 13:52:00,
Humla,Thali,29.91966194,81.87920194,2020-10-07 00:00:00,Clear throughout the day.,clear-day,2020-10-07 06:16:00,2020-10-07 17:57:00,0.67,0.002,0.0083,2020-10-07 22:45:00,0.05,rain,17.5,2020-10-07 13:47:00,5.87,2020-10-08 01:15:00,17.22,2020-10-07 13:47:00,6.14,2020-10-08 01:15:00,3.86,0.7,1016.8,1.09,2.89,1602055140,113,0.06,10,1602051480,16.093,250.0,4.77,2020-10-07 05:04:00,17.5,2020-10-07 13:47:00,5.04,2020-10-07 05:04:00,17.22,2020-10-07 13:47:00,
Ilam,Himali Gaun,26.90963889,87.92308333,2020-10-07 00:00:00,Humid and mostly cloudy throughout the day.,partly-cloudy-day,2020-10-07 05:50:00,2020-10-07 17:34:00,0.67,0.0533,0.1231,2020-10-07 00:57:00,0.36,rain,26.45,2020-10-07 12:10:00,18.41,2020-10-08 05:44:00,28.59,2020-10-07 12:12:00,19.05,2020-10-08 05:42:00,21.67,0.99,1011.3,1.14,2.35,1602054660,118,0.8,6,1602051000,14.074,252.0,18.5,2020-10-07 05:39:00,26.45,2020-10-07 12:10:00,19.55,2020-10-07 05:36:00,28.59,2020-10-07 12:12:00,
Ilam,Ilam Tea Estate,27.06666667,88.0,2020-10-07 00:00:00,Foggy in the evening.,fog,2020-10-07 05:50:00,2020-10-07 17:34:00,0.67,0.0381,0.1003,2020-10-07 16:37:00,0.27,rain,20.22,2020-10-07 11:51:00,12.78,2020-10-08 01:36:00,21.37,2020-10-07 11:58:00,13.69,2020-10-08 05:07:00,15.05,1.0,1012.1,0.99,2.26,1602054420,180,0.74,6,1602049260,11.317,250.4,12.03,2020-10-07 05:11:00,20.22,2020-10-07 11:51:00,13.77,2020-10-07 05:06:00,21.37,2020-10-07 11:58:00,
Ilam,Kanyam Tea Estate,26.8,87.9,2020-10-07 00:00:00,Humid and mostly cloudy throughout the day.,rain,2020-10-07 05:50:00,2020-10-07 17:34:00,0.67,0.067,0.2542,2020-10-07 01:09:00,0.46,rain,30.32,2020-10-07 12:47:00,21.72,2020-10-08 05:41:00,37.77,2020-10-07 14:26:00,22.33,2020-10-08 05:41:00,24.09,0.91,1010.5,1.29,2.22,1602054000,96,0.73,6,1602051480,16.093,253.2,22.23,2020-10-07 05:36:00,30.32,2020-10-07 12:47:00,23.19,2020-10-07 05:34:00,37.77,2020-10-07 14:26:00,
Ilam,Soktim Tea E,26.88652778,88.02738889,2020-10-07 00:00:00,Humid and mostly cloudy throughout the day.,rain,2020-10-07 05:50:00,2020-10-07 17:34:00,0.67,0.0526,0.1753,2020-10-07 00:49:00,0.38,rain,24.31,2020-10-07 12:12:00,17.24,2020-10-08 05:27:00,25.25,2020-10-07 12:21:00,17.98,2020-10-08 05:23:00,19.65,1.0,1011.0,1.19,2.29,1602052260,106,0.77,6,1602050940,14.52,252.2,16.97,2020-10-07 05:29:00,24.31,2020-10-07 12:12:00,18.32,2020-10-07 05:27:00,25.25,2020-10-07 12:21:00,
Jajarkot,Bhanu Thana,28.961315000000003,82.268888,2020-10-07 00:00:00,Clear throughout the day.,clear-day,2020-10-07 06:14:00,2020-10-07 17:56:00,0.67,0.0095,0.0354,2020-10-07 19:57:00,0.08,rain,22.44,2020-10-07 12:56:00,10.83,2020-10-08 06:09:00,22.16,2020-10-07 12:56:00,11.1,2020-10-08 06:09:00,10.58,0.78,1014.6,1.57,3.46,1602026520,151,0.38,8,1602052020,16.093,252.8,9.48,2020-10-07 05:18:00,22.44,2020-10-07 12:56:00,8.92,2020-10-07 05:16:00,22.16,2020-10-07 12:56:00,
Jajarkot,Maina Gaun (D.Bas),28.69860389,82.200792,2020-10-07 00:00:00,Clear throughout the day.,clear-day,2020-10-07 06:14:00,2020-10-07 17:56:00,0.67,0.0281,0.0925,2020-10-07 00:00:00,0.07,rain,29.78,2020-10-07 13:56:00,18.3,2020-10-08 05:38:00,29.52,2020-10-07 13:58:00,18.57,2020-10-08 05:38:00,15.13,0.65,1012.1,1.07,2.26,1602010440,53,0.28,8,1602051420,16.093,257.2,17.07,2020-10-07 05:20:00,29.78,2020-10-07 13:56:00,17.34,2020-10-07 05:20:00,29.52,2020-10-07 13:58:00,
Jhapa,Anarmani Birta,26.6706658,87.7004293,2020-10-07 00:00:00,Humid and mostly cloudy throughout the day.,rain,2020-10-07 05:51:00,2020-10-07 17:35:00,0.67,0.0955,0.4389,2020-10-07 02:35:00,0.52,rain,30.81,2020-10-07 12:59:00,23.25,2020-10-08 05:41:00,39.83,2020-10-07 14:42:00,24.03,2020-10-08 05:41:00,24.6,0.87,1009.7,1.67,2.79,1602028200,92,0.72,6,1602052020,16.093,253.6,24.1,2020-10-07 05:42:00,30.81,2020-10-07 12:59:00,25.09,2020-10-07 05:40:00,39.83,2020-10-07 14:42:00,
Jhapa,Chnadra Gadhi,26.39616667,88.00375,2020-10-07 00:00:00,Humid and mostly cloudy throughout the day.,rain,2020-10-07 05:49:00,2020-10-07 17:34:00,0.67,0.1522,0.4885,2020-10-07 00:53:00,0.69,rain,27.95,2020-10-07 13:52:00,22.51,2020-10-08 05:26:00,31.69,2020-10-07 13:51:00,23.37,2020-10-08 05:33:00,23.3,0.87,1009.4,2.05,4.07,1602038760,97,0.79,6,1602051180,16.093,254.1,23.69,2020-10-07 06:09:00,27.95,2020-10-07 13:52:00,24.76,2020-10-07 06:14:00,31.69,2020-10-07 13:51:00,
Jhapa,Gaida (Kankai),26.68972222,87.98861111,2020-10-07 00:00:00,Humid and mostly cloudy throughout the day.,rain,2020-10-07 05:50:00,2020-10-07 17:34:00,0.67,0.096,0.4347,2020-10-07 00:51:00,0.58,rain,30.63,2020-10-07 12:56:00,22.57,2020-10-08 05:40:00,38.99,2020-10-07 14:41:00,23.24,2020-10-08 05:40:00,24.42,0.88,1010.1,1.53,2.4,1602094500,93,0.71,6,1602051420,16.093,254.0,23.21,2020-10-07 05:42:00,30.63,2020-10-07 12:56:00,24.24,2020-10-07 05:42:00,38.99,2020-10-07 14:41:00,
Jhapa,Jumla,26.5647011,88.0614307,2020-10-07 00:00:00,Humid and mostly cloudy throughout the day.,rain,2020-10-07 05:49:00,2020-10-07 17:34:00,0.67,0.1528,0.6651,2020-10-07 00:51:00,0.69,rain,29.27,2020-10-07 13:44:00,22.39,2020-10-08 05:38:00,34.98,2020-10-07 13:50:00,23.08,2020-10-08 05:40:00,23.54,0.86,1009.7,1.87,3.61,1602038640,93,0.74,6,1602051360,16.093,254.3,23.17,2020-10-07 05:53:00,29.27,2020-10-07 13:44:00,24.15,2020-10-07 05:55:00,34.98,2020-10-07 13:50:00,
Jhapa,Kechana,26.65688889,87.86072222,2020-10-07 00:00:00,Humid and mostly cloudy throughout the day.,rain,2020-10-07 05:50:00,2020-10-07 17:35:00,0.67,0.1078,0.3797,2020-10-07 02:24:00,0.57,rain,30.41,2020-10-07 13:00:00,22.83,2020-10-08 05:42:00,38.48,2020-10-07 14:41:00,23.57,2020-10-08 05:42:00,24.34,0.87,1009.8,1.66,2.6,1602032040,93,0.72,6,1602051780,16.093,253.8,23.71,2020-10-07 05:44:00,30.41,2020-10-07 13:00:00,24.72,2020-10-07 05:43:00,38.48,2020-10-07 14:41:00,
Jhapa,Sanischare,26.625063899999997,87.98858059999999,2020-10-07 00:00:00,Humid and mostly cloudy throughout the day.,rain,2020-10-07 05:50:00,2020-10-07 17:34:00,0.67,0.128,0.5273,2020-10-07 00:52:00,0.64,rain,30.1,2020-10-07 13:14:00,22.59,2020-10-08 05:40:00,37.35,2020-10-07 14:34:00,23.31,2020-10-08 05:41:00,24.19,0.87,1009.9,1.71,2.92,1602038340,94,0.72,6,1602051480,16.093,254.1,23.24,2020-10-07 05:44:00,30.1,2020-10-07 13:14:00,24.27,2020-10-07 05:44:00,37.35,2020-10-07 14:34:00,
Jumla,Dipal Gaun,29.23088056,82.33041944,2020-10-07 00:00:00,Clear throughout the day.,clear-day,2020-10-07 06:14:00,2020-10-07 17:56:00,0.67,0.0019,0.0063,2020-10-07 00:11:00,0.07,rain,19.97,2020-10-07 13:40:00,4.75,2020-10-08 05:10:00,19.69,2020-10-07 13:40:00,4.17,2020-10-08 04:44:00,5.88,0.75,1015.4,1.28,2.46,1602059040,72,0.27,10,1602051960,16.093,250.5,4.44,2020-10-07 05:34:00,19.97,2020-10-07 13:40:00,3.74,2020-10-07 05:29:00,19.69,2020-10-07 13:40:00,
Jumla,Jacha,29.43111111,82.10744444,2020-10-07 00:00:00,Clear throughout the day.,clear-day,2020-10-07 06:14:00,2020-10-07 17:56:00,0.67,0.0018,0.0064,2020-10-07 00:09:00,0.05,rain,19.75,2020-10-07 13:44:00,5.17,2020-10-08 05:33:00,19.47,2020-10-07 13:44:00,4.27,2020-10-08 05:26:00,6.06,0.78,1015.1,1.41,2.73,1602054660,62,0.15,10,1602051240,16.093,252.3,4.28,2020-10-07 05:18:00,19.75,2020-10-07 13:44:00,3.31,2020-10-07 05:18:00,19.47,2020-10-07 13:44:00,
Jumla,Jumla,29.26385556,82.22301111,2020-10-07 00:00:00,Clear throughout the day.,clear-day,2020-10-07 06:14:00,2020-10-07 17:56:00,0.67,0.0014,0.0064,2020-10-07 00:10:00,0.07,rain,21.8,2020-10-07 13:41:00,5.77,2020-10-08 04:55:00,21.52,2020-10-07 13:41:00,5.03,2020-10-08 04:54:00,6.39,0.72,1015.3,1.29,2.37,1602008100,58,0.3,9,1602051780,16.093,251.4,5.39,2020-10-07 05:19:00,21.8,2020-10-07 13:41:00,4.72,2020-10-07 05:16:00,21.52,2020-10-07 13:41:00,
Jumla,Tatopani,29.316667,82.283333,2020-10-07 00:00:00,Clear throughout the day.,clear-day,2020-10-07 06:14:00,2020-10-07 17:56:00,0.67,0.0016,0.0065,2020-10-07 00:12:00,0.07,rain,19.07,2020-10-07 13:44:00,3.43,2020-10-08 05:09:00,18.79,2020-10-07 13:44:00,2.31,2020-10-08 05:11:00,5.5,0.79,1015.3,1.34,2.47,1602055740,61,0.24,10,1602051900,16.093,250.8,2.9,2020-10-07 05:33:00,19.07,2020-10-07 13:44:00,1.75,2020-10-07 05:27:00,18.79,2020-10-07 13:44:00,
Kabhre,Budal (Banepa),27.61611667,85.56550278,2020-10-07 00:00:00,Mostly cloudy throughout the day.,partly-cloudy-day,2020-10-07 06:00:00,2020-10-07 17:43:00,0.67,0.0331,0.1105,2020-10-07 00:00:00,0.2,rain,27.56,2020-10-07 13:52:00,15.81,2020-10-08 05:42:00,27.96,2020-10-07 14:04:00,16.08,2020-10-08 05:42:00,17.38,0.84,1011.5,0.68,1.66,1602064500,204,0.75,6,1602049740,15.802,252.5,15.58,2020-10-07 05:42:00,27.56,2020-10-07 13:52:00,15.85,2020-10-07 05:41:00,27.96,2020-10-07 14:04:00,
Kabhre,Dhulikhel,27.63882194,85.70498083,2020-10-07 00:00:00,Mostly cloudy throughout the day.,partly-cloudy-day,2020-10-07 05:59:00,2020-10-07 17:43:00,0.67,0.0337,0.1288,2020-10-07 22:54:00,0.18,rain,30.85,2020-10-07 14:03:00,17.68,2020-10-08 05:35:00,31.95,2020-10-07 14:15:00,17.95,2020-10-08 05:35:00,18.05,0.73,1011.5,0.72,1.47,1602063420,339,0.72,7,1602050520,16.093,252.7,17.87,2020-10-07 05:35:00,30.85,2020-10-07 14:03:00,18.14,2020-10-07 05:35:00,31.95,2020-10-07 14:15:00,
Kabhre,Dolal Ghat,27.69382389,85.635637,2020-10-07 00:00:00,Mostly cloudy throughout the day.,partly-cloudy-day,2020-10-07 06:00:00,2020-10-07 17:43:00,0.67,0.0277,0.1126,2020-10-07 22:47:00,0.14,rain,30.03,2020-10-07 14:03:00,16.17,2020-10-08 05:44:00,30.09,2020-10-07 14:03:00,16.44,2020-10-08 05:44:00,16.29,0.7,1011.5,0.66,1.54,1602061860,356,0.74,7,1602050160,16.093,252.6,16.24,2020-10-07 05:50:00,30.03,2020-10-07 14:03:00,16.51,2020-10-07 05:50:00,30.09,2020-10-07 14:03:00,
Kabhre,Panchkhal,27.63333333,85.51666667,2020-10-07 00:00:00,Mostly cloudy throughout the day.,partly-cloudy-day,2020-10-07 06:00:00,2020-10-07 17:44:00,0.67,0.0304,0.0999,2020-10-07 22:34:00,0.19,rain,27.69,2020-10-07 13:59:00,15.78,2020-10-08 05:42:00,28.02,2020-10-07 14:13:00,16.05,2020-10-08 05:42:00,17.09,0.82,1011.5,0.65,1.71,1602064440,170,0.76,6,1602048360,15.544,252.5,15.48,2020-10-07 05:42:00,27.69,2020-10-07 13:59:00,15.75,2020-10-07 05:42:00,28.02,2020-10-07 14:13:00,
Kailali,Dhangadhi,28.68333333,80.6,2020-10-07 00:00:00,Humid throughout the day.,clear-day,2020-10-07 06:20:00,2020-10-07 18:03:00,0.67,0.0024,0.0074,2020-10-07 22:05:00,0.01,rain,33.18,2020-10-07 14:28:00,21.37,2020-10-08 05:42:00,35.67,2020-10-07 16:23:00,21.86,2020-10-08 05:43:00,20.54,0.67,1008.8,1.41,2.38,1602010260,43,0.09,8,1602052680,16.093,261.7,22.1,2020-10-07 05:40:00,33.18,2020-10-07 14:28:00,22.63,2020-10-07 05:41:00,35.67,2020-10-07 16:23:00,
Kailali,Godavari(West),28.554054999999998,80.831765,2020-10-07 00:00:00,Clear throughout the day.,clear-day,2020-10-07 06:19:00,2020-10-07 18:02:00,0.67,0.002,0.0074,2020-10-07 22:05:00,0.01,rain,33.16,2020-10-07 14:35:00,21.16,2020-10-08 05:33:00,35.25,2020-10-07 16:12:00,21.65,2020-10-08 05:35:00,20.17,0.67,1008.8,1.63,2.93,1602011700,50,0.13,8,1602051720,16.093,262.0,21.53,2020-10-07 05:44:00,33.16,2020-10-07 14:35:00,22.01,2020-10-07 05:45:00,35.25,2020-10-07 16:12:00,
Kailali,Malakheti,28.83333333,80.56666667,2020-10-07 00:00:00,Humid throughout the day.,clear-day,2020-10-07 06:20:00,2020-10-07 18:03:00,0.67,0.0035,0.01,2020-10-07 00:17:00,0.01,rain,33.63,2020-10-07 14:24:00,21.29,2020-10-08 05:42:00,37.47,2020-10-07 15:39:00,21.85,2020-10-08 05:42:00,21.09,0.69,1009.6,1.44,2.28,1602082500,36,0.09,8,1602052860,16.093,260.7,21.76,2020-10-07 05:38:00,33.63,2020-10-07 14:24:00,22.29,2020-10-07 05:40:00,37.47,2020-10-07 15:39:00,
Kailali,Sitapur,28.66417611,80.97850889,2020-10-07 00:00:00,Humid throughout the day.,clear-day,2020-10-07 06:19:00,2020-10-07 18:01:00,0.67,0.0022,0.0074,2020-10-07 22:05:00,0.01,rain,33.52,2020-10-07 14:09:00,22.05,2020-10-08 05:45:00,36.11,2020-10-07 15:39:00,22.55,2020-10-08 05:46:00,20.37,0.66,1009.2,1.67,3.07,1602017220,36,0.16,8,1602051180,16.093,261.7,22.22,2020-10-07 05:43:00,33.52,2020-10-07 14:09:00,22.75,2020-10-07 05:46:00,36.11,2020-10-07 15:39:00,
Kailali,Teghari,28.87623,80.57918889,2020-10-07 00:00:00,Humid throughout the day.,clear-day,2020-10-07 06:20:00,2020-10-07 18:03:00,0.67,0.0041,0.0145,2020-10-07 00:46:00,0.02,rain,33.05,2020-10-07 14:06:00,21.25,2020-10-08 05:42:00,36.18,2020-10-07 15:37:00,21.75,2020-10-08 05:43:00,20.58,0.69,1009.9,1.45,2.26,1602014460,35,0.11,8,1602052800,16.093,260.2,21.49,2020-10-07 05:39:00,33.05,2020-10-07 14:06:00,21.95,2020-10-07 05:40:00,36.18,2020-10-07 15:37:00,
Kalikot,Mahendra Nagar,29.09644444,81.70052778,2020-10-07 00:00:00,Clear throughout the day.,clear-day,2020-10-07 06:16:00,2020-10-07 17:58:00,0.67,0.0127,0.0504,2020-10-07 18:37:00,0.05,rain,26.44,2020-10-07 13:34:00,14.98,2020-10-08 05:59:00,26.16,2020-10-07 13:34:00,15.25,2020-10-08 05:59:00,13.13,0.71,1013.0,1.5,3.25,1602026580,15,0.2,9,1602050640,16.093,256.0,14.26,2020-10-07 05:34:00,26.44,2020-10-07 13:34:00,14.53,2020-10-07 05:34:00,26.16,2020-10-07 13:34:00,
Kalikot,Manma,29.2495,81.63913889,2020-10-07 00:00:00,Clear throughout the day.,clear-day,2020-10-07 06:16:00,2020-10-07 17:58:00,0.67,0.0038,0.0128,2020-10-07 05:46:00,0.04,rain,25.49,2020-10-07 13:16:00,13.06,2020-10-08 05:52:00,25.21,2020-10-07 13:16:00,13.33,2020-10-08 05:52:00,11.55,0.72,1013.8,1.55,3.49,1602026520,23,0.17,9,1602051360,16.093,255.1,11.83,2020-10-07 05:31:00,25.49,2020-10-07 13:16:00,12.1,2020-10-07 05:31:00,25.21,2020-10-07 13:16:00,
Kalikot,Nagma,29.12995833,81.58836111,2020-10-07 00:00:00,Clear throughout the day.,clear-day,2020-10-07 06:16:00,2020-10-07 17:59:00,0.67,0.0084,0.0335,2020-10-07 00:00:00,0.03,rain,27.75,2020-10-07 13:40:00,16.9,2020-10-08 06:09:00,27.64,2020-10-07 14:04:00,17.17,2020-10-08 06:09:00,14.44,0.71,1013.2,1.53,3.59,1602026100,35,0.19,8,1602050880,16.093,256.5,15.76,2020-10-07 05:01:00,27.75,2020-10-07 13:40:00,16.03,2020-10-07 05:01:00,27.64,2020-10-07 14:04:00,
Kanchanpur,Dodhara,28.86185889,80.44044194,2020-10-07 00:00:00,Humid throughout the day.,clear-day,2020-10-07 06:21:00,2020-10-07 18:03:00,0.67,0.0025,0.0074,2020-10-07 22:05:00,0.01,rain,33.4,2020-10-07 14:19:00,21.18,2020-10-08 05:43:00,37.24,2020-10-07 15:41:00,21.72,2020-10-08 05:44:00,21.07,0.7,1009.5,1.47,2.4,1602080760,36,0.09,7,1602052860,16.093,260.8,21.69,2020-10-07 05:40:00,33.4,2020-10-07 14:19:00,22.22,2020-10-07 05:41:00,37.24,2020-10-07 15:41:00,
Kanchanpur,Hanmannagar,28.698575,80.37540389,2020-10-07 00:00:00,Humid throughout the day.,clear-day,2020-10-07 06:21:00,2020-10-07 18:04:00,0.67,0.0022,0.0074,2020-10-07 22:05:00,0.02,rain,32.68,2020-10-07 14:37:00,20.78,2020-10-08 05:43:00,35.0,2020-10-07 16:29:00,21.26,2020-10-08 05:44:00,20.15,0.68,1009.2,1.31,2.82,1602073260,46,0.1,8,1602052620,16.093,261.8,21.69,2020-10-07 05:39:00,32.68,2020-10-07 14:37:00,22.21,2020-10-07 05:40:00,35.0,2020-10-07 16:29:00,
Kanchanpur,Taulihawa,28.89702,80.36996389,2020-10-07 00:00:00,Humid throughout the day.,clear-day,2020-10-07 06:21:00,2020-10-07 18:04:00,0.67,0.0022,0.0074,2020-10-07 22:05:00,0.01,rain,33.4,2020-10-07 14:07:00,21.35,2020-10-08 05:43:00,37.35,2020-10-07 15:39:00,21.89,2020-10-08 05:44:00,21.1,0.7,1009.5,1.54,2.54,1602081720,33,0.09,8,1602052680,16.093,260.8,21.7,2020-10-07 05:42:00,33.4,2020-10-07 14:07:00,22.21,2020-10-07 05:43:00,37.35,2020-10-07 15:39:00,
Kapilbastu,Banganga,27.669936100000005,82.7911917,2020-10-07 00:00:00,Humid and mostly cloudy throughout the day.,partly-cloudy-day,2020-10-07 06:11:00,2020-10-07 17:55:00,0.67,0.0291,0.2095,2020-10-07 17:50:00,0.03,rain,34.14,2020-10-07 15:09:00,22.13,2020-10-08 05:19:00,38.05,2020-10-07 15:39:00,22.68,2020-10-08 05:25:00,20.54,0.64,1008.5,1.86,2.37,1602064020,77,0.66,6,1602052680,16.093,257.7,23.16,2020-10-07 05:32:00,34.14,2020-10-07 15:09:00,23.61,2020-10-07 05:34:00,38.05,2020-10-07 15:39:00,
Kapilvastu,Bahadur Ganj,27.693294399999996,83.1612556,2020-10-07 00:00:00,Humid and mostly cloudy throughout the day.,partly-cloudy-day,2020-10-07 06:09:00,2020-10-07 17:53:00,0.67,0.0126,0.0527,2020-10-07 00:00:00,0.06,rain,34.01,2020-10-07 13:59:00,23.22,2020-10-08 05:39:00,37.72,2020-10-07 15:29:00,23.59,2020-10-08 05:41:00,20.74,0.65,1009.1,1.77,2.25,1602060480,98,0.71,6,1602053340,16.093,257.1,23.17,2020-10-07 05:40:00,34.01,2020-10-07 13:59:00,23.63,2020-10-07 05:41:00,37.72,2020-10-07 15:29:00,
Kapilvastu,Sallyan (Kaski),27.55,83.85,2020-10-07 00:00:00,Humid and mostly cloudy throughout the day.,partly-cloudy-day,2020-10-07 06:07:00,2020-10-07 17:50:00,0.67,0.0742,0.2485,2020-10-07 22:49:00,0.23,rain,30.47,2020-10-07 14:18:00,21.77,2020-10-08 05:25:00,32.55,2020-10-07 15:38:00,22.41,2020-10-08 05:30:00,20.22,0.73,1009.2,1.77,2.7,1602072300,87,0.76,6,1602051840,16.093,256.7,22.16,2020-10-07 03:43:00,30.47,2020-10-07 14:18:00,22.79,2020-10-07 03:43:00,32.55,2020-10-07 15:38:00,
Kaski,Begnas,28.212011100000005,83.8915417,2020-10-07 00:00:00,Mostly cloudy throughout the day.,partly-cloudy-day,2020-10-07 06:07:00,2020-10-07 17:50:00,0.67,0.0236,0.0826,2020-10-07 22:21:00,0.02,rain,26.08,2020-10-07 13:47:00,16.59,2020-10-08 05:42:00,25.8,2020-10-07 13:47:00,16.86,2020-10-08 05:42:00,11.94,0.61,1011.8,1.86,2.79,1602026820,19,0.67,7,1602054000,16.093,255.4,15.64,2020-10-07 05:40:00,26.08,2020-10-07 13:47:00,15.91,2020-10-07 05:40:00,25.8,2020-10-07 13:47:00,
Kaski,Begnas Tal,28.35805556,84.105175,2020-10-07 00:00:00,Mostly cloudy throughout the day.,partly-cloudy-day,2020-10-07 06:06:00,2020-10-07 17:49:00,0.67,0.0262,0.0824,2020-10-07 22:02:00,0.08,rain,20.84,2020-10-07 13:08:00,12.13,2020-10-08 05:56:00,20.57,2020-10-07 13:10:00,12.4,2020-10-08 05:56:00,10.5,0.74,1013.3,2.32,3.09,1602027000,7,0.62,7,1602053880,15.724,251.9,10.39,2020-10-07 05:34:00,20.84,2020-10-07 13:08:00,10.66,2020-10-07 05:34:00,20.57,2020-10-07 13:10:00,
Kaski,Bhadaure Deurali,28.21849444,83.9742,2020-10-07 00:00:00,Mostly cloudy throughout the day.,partly-cloudy-day,2020-10-07 06:06:00,2020-10-07 17:50:00,0.67,0.0337,0.1239,2020-10-07 22:20:00,0.03,rain,28.11,2020-10-07 13:45:00,17.6,2020-10-08 05:44:00,27.84,2020-10-07 13:35:00,17.87,2020-10-08 05:44:00,12.67,0.58,1011.7,2.29,3.04,1602059460,21,0.7,7,1602054120,16.093,255.5,16.24,2020-10-07 05:41:00,28.11,2020-10-07 13:45:00,16.51,2020-10-07 05:41:00,27.84,2020-10-07 13:35:00,
Kaski,Ghandruk,28.26168056,83.96873333,2020-10-07 00:00:00,Mostly cloudy throughout the day.,partly-cloudy-day,2020-10-07 06:06:00,2020-10-07 17:50:00,0.67,0.0348,0.1301,2020-10-07 00:53:00,0.03,rain,26.86,2020-10-07 13:43:00,17.08,2020-10-08 05:51:00,26.58,2020-10-07 13:43:00,17.35,2020-10-08 05:51:00,11.92,0.58,1012.0,2.44,3.24,1602059220,22,0.69,7,1602054120,16.093,255.0,15.38,2020-10-07 05:43:00,26.86,2020-10-07 13:43:00,15.65,2020-10-07 05:43:00,26.58,2020-10-07 13:43:00,
Kaski,Lamachaur,28.29653889,83.81791111,2020-10-07 00:00:00,Mostly cloudy throughout the day.,partly-cloudy-day,2020-10-07 06:07:00,2020-10-07 17:50:00,0.67,0.0136,0.0417,2020-10-07 17:08:00,0.03,rain,24.14,2020-10-07 13:45:00,14.8,2020-10-08 05:38:00,23.86,2020-10-07 13:45:00,15.07,2020-10-08 05:38:00,11.37,0.66,1012.5,1.65,2.91,1602024540,21,0.62,7,1602053640,16.093,254.0,13.89,2020-10-07 05:29:00,24.14,2020-10-07 13:45:00,14.16,2020-10-07 05:29:00,23.86,2020-10-07 13:45:00,
Kaski,Lumle,28.26555556,83.82211944,2020-10-07 00:00:00,Mostly cloudy throughout the day.,partly-cloudy-day,2020-10-07 06:07:00,2020-10-07 17:50:00,0.67,0.0156,0.0457,2020-10-07 22:23:00,0.03,rain,25.08,2020-10-07 13:46:00,15.65,2020-10-08 05:41:00,24.8,2020-10-07 13:46:00,15.92,2020-10-08 05:41:00,11.67,0.64,1012.2,1.65,2.95,1602024480,18,0.63,7,1602053760,16.093,254.7,14.69,2020-10-07 05:36:00,25.08,2020-10-07 13:46:00,14.96,2020-10-07 05:36:00,24.8,2020-10-07 13:46:00,
Kaski,Pokhara Airport,28.23333333,84.0,2020-10-07 00:00:00,Mostly cloudy throughout the day.,partly-cloudy-day,2020-10-07 06:06:00,2020-10-07 17:49:00,0.67,0.0384,0.1447,2020-10-07 00:53:00,0.03,rain,27.3,2020-10-07 13:46:00,17.38,2020-10-08 05:45:00,27.07,2020-10-07 13:46:00,17.65,2020-10-08 05:45:00,12.12,0.58,1011.7,2.52,3.33,1602059340,22,0.71,7,1602054180,16.093,255.5,15.9,2020-10-07 05:42:00,27.3,2020-10-07 13:46:00,16.17,2020-10-07 05:42:00,27.07,2020-10-07 13:46:00,
Kaski,Pokhara Airport,28.22,84.0,2020-10-07 00:00:00,Mostly cloudy throughout the day.,partly-cloudy-day,2020-10-07 06:06:00,2020-10-07 17:49:00,0.67,0.0369,0.1371,2020-10-07 22:20:00,0.03,rain,27.81,2020-10-07 13:45:00,17.54,2020-10-08 05:43:00,27.54,2020-10-07 13:31:00,17.81,2020-10-08 05:43:00,12.46,0.58,1011.6,2.43,3.21,1602059460,21,0.71,7,1602054180,16.093,255.6,16.15,2020-10-07 05:41:00,27.81,2020-10-07 13:45:00,16.42,2020-10-07 05:41:00,27.54,2020-10-07 13:31:00,
Kathmandu,Budhanilakan,27.78333333,85.31666667,2020-10-07 00:00:00,Mostly cloudy throughout the day.,partly-cloudy-day,2020-10-07 06:01:00,2020-10-07 17:44:00,0.67,0.0174,0.0715,2020-10-07 18:38:00,0.06,rain,28.19,2020-10-07 13:58:00,16.36,2020-10-08 05:43:00,27.99,2020-10-07 14:10:00,16.63,2020-10-08 05:43:00,14.95,0.7,1011.5,0.82,1.92,1602060240,76,0.73,7,1602050520,16.093,252.6,15.91,2020-10-07 05:41:00,28.19,2020-10-07 13:58:00,16.18,2020-10-07 05:41:00,27.99,2020-10-07 14:10:00,
Kathmandu,Kathmandu Airport,27.703825,85.35624722,2020-10-07 00:00:00,Mostly cloudy throughout the day.,partly-cloudy-day,2020-10-07 06:01:00,2020-10-07 17:44:00,0.67,0.0297,0.0975,2020-10-07 18:18:00,0.12,rain,27.72,2020-10-07 14:38:00,16.28,2020-10-08 05:43:00,27.99,2020-10-07 15:12:00,16.55,2020-10-08 05:43:00,17.65,0.76,1011.5,0.72,1.87,1602010800,52,0.75,6,1602050220,14.047,252.7,18.42,2020-10-07 03:21:00,27.72,2020-10-07 14:38:00,19.08,2020-10-07 03:10:00,27.99,2020-10-07 15:12:00,
Kathmandu,Naikap,27.7726953,85.4277003,2020-10-07 00:00:00,Mostly cloudy throughout the day.,partly-cloudy-day,2020-10-07 06:00:00,2020-10-07 17:44:00,0.67,0.0167,0.0583,2020-10-07 22:37:00,0.07,rain,25.88,2020-10-07 14:08:00,14.73,2020-10-08 05:37:00,25.6,2020-10-07 14:08:00,15.0,2020-10-08 05:37:00,13.33,0.71,1011.5,0.69,1.79,1602061200,34,0.74,7,1602048420,16.093,252.5,14.52,2020-10-07 05:40:00,25.88,2020-10-07 14:08:00,14.79,2020-10-07 05:40:00,25.6,2020-10-07 14:08:00,
Kathmandu,Pharping,27.76666667,85.31666667,2020-10-07 00:00:00,Mostly cloudy throughout the day.,partly-cloudy-day,2020-10-07 06:01:00,2020-10-07 17:44:00,0.67,0.0182,0.0764,2020-10-07 18:41:00,0.06,rain,28.51,2020-10-07 14:02:00,16.48,2020-10-08 05:43:00,28.28,2020-10-07 14:06:00,16.75,2020-10-08 05:43:00,15.29,0.7,1011.5,0.78,1.92,1602060540,61,0.74,7,1602050520,16.093,252.7,16.13,2020-10-07 05:41:00,28.51,2020-10-07 14:02:00,16.4,2020-10-07 05:41:00,28.28,2020-10-07 14:06:00,
Kathmandu,Sankhu,27.73333333,85.33333333,2020-10-07 00:00:00,Mostly cloudy throughout the day.,partly-cloudy-day,2020-10-07 06:01:00,2020-10-07 17:44:00,0.67,0.0231,0.0867,2020-10-07 18:37:00,0.09,rain,28.31,2020-10-07 14:05:00,16.41,2020-10-08 05:42:00,28.18,2020-10-07 14:08:00,16.68,2020-10-08 05:42:00,15.89,0.72,1011.5,0.74,1.89,1602060900,68,0.74,7,1602050400,16.093,252.8,16.53,2020-10-07 05:53:00,28.31,2020-10-07 14:05:00,16.8,2020-10-07 05:53:00,28.18,2020-10-07 14:08:00,
Kathmandu,Sankhu,27.73333333,85.33333333,2020-10-07 00:00:00,Mostly cloudy throughout the day.,partly-cloudy-day,2020-10-07 06:01:00,2020-10-07 17:44:00,0.67,0.0231,0.0867,2020-10-07 18:37:00,0.09,rain,28.31,2020-10-07 14:05:00,16.41,2020-10-08 05:42:00,28.18,2020-10-07 14:08:00,16.68,2020-10-08 05:42:00,15.89,0.72,1011.5,0.74,1.89,1602060900,68,0.74,7,1602050400,16.093,252.8,16.53,2020-10-07 05:53:00,28.31,2020-10-07 14:05:00,16.8,2020-10-07 05:53:00,28.18,2020-10-07 14:08:00,
Kathmandu,Sivapuri,27.75,85.43333333,2020-10-07 00:00:00,Mostly cloudy throughout the day.,partly-cloudy-day,2020-10-07 06:00:00,2020-10-07 17:44:00,0.67,0.0177,0.0643,2020-10-07 22:38:00,0.07,rain,28.24,2020-10-07 14:27:00,15.6,2020-10-08 05:40:00,27.92,2020-10-07 14:30:00,15.87,2020-10-08 05:40:00,14.41,0.68,1011.5,0.62,1.79,1602062400,40,0.74,7,1602048120,16.093,252.7,15.51,2020-10-07 05:46:00,28.24,2020-10-07 14:27:00,15.78,2020-10-07 05:46:00,27.92,2020-10-07 14:30:00,
Kathmandu,Sundarijal,27.8,85.43333333,2020-10-07 00:00:00,Mostly cloudy throughout the day.,partly-cloudy-day,2020-10-07 06:00:00,2020-10-07 17:44:00,0.67,0.0154,0.0525,2020-10-07 22:38:00,0.06,rain,23.73,2020-10-07 14:11:00,13.02,2020-10-08 05:13:00,23.45,2020-10-07 14:11:00,13.29,2020-10-08 05:13:00,12.25,0.75,1011.5,0.75,1.78,1602060420,30,0.73,7,1602048540,16.093,252.2,12.63,2020-10-07 05:15:00,23.73,2020-10-07 14:11:00,12.9,2020-10-07 05:15:00,23.45,2020-10-07 14:11:00,
Kathmandu,Tarebhir,27.78419167,85.29049444,2020-10-07 00:00:00,Mostly cloudy throughout the day.,partly-cloudy-day,2020-10-07 06:01:00,2020-10-07 17:44:00,0.67,0.0177,0.0804,2020-10-07 18:39:00,0.06,rain,27.26,2020-10-07 13:52:00,16.18,2020-10-08 05:42:00,27.18,2020-10-07 13:49:00,16.45,2020-10-08 05:42:00,14.69,0.72,1011.4,0.84,1.96,1602060120,143,0.73,7,1602050640,16.093,252.7,15.71,2020-10-07 05:40:00,27.26,2020-10-07 13:52:00,15.98,2020-10-07 05:40:00,27.18,2020-10-07 13:49:00,
Kathmandu,Tokha,27.7972222,85.3577778,2020-10-07 00:00:00,Mostly cloudy throughout the day.,partly-cloudy-day,2020-10-07 06:01:00,2020-10-07 17:44:00,0.67,0.0164,0.0542,2020-10-07 18:29:00,0.06,rain,24.26,2020-10-07 13:58:00,13.93,2020-10-08 05:08:00,23.98,2020-10-07 13:58:00,14.2,2020-10-08 05:08:00,12.85,0.74,1011.3,0.81,1.87,1602060120,44,0.73,7,1602050400,16.093,252.5,13.58,2020-10-07 05:08:00,24.26,2020-10-07 13:58:00,13.85,2020-10-07 05:08:00,23.98,2020-10-07 13:58:00,
Khotang,Diktel,27.02930083,86.84337278,2020-10-07 00:00:00,Humid and mostly cloudy throughout the day.,partly-cloudy-day,2020-10-07 05:54:00,2020-10-07 17:39:00,0.67,0.0284,0.0742,2020-10-07 19:39:00,0.25,rain,27.37,2020-10-07 12:26:00,19.25,2020-10-08 05:44:00,30.4,2020-10-07 12:38:00,19.98,2020-10-08 05:43:00,22.0,0.97,1010.6,0.98,2.02,1602061200,147,0.72,6,1602050160,16.093,252.2,19.12,2020-10-07 05:37:00,27.37,2020-10-07 12:26:00,20.13,2020-10-07 05:35:00,30.4,2020-10-07 12:38:00,
Khotang,Dwarpa,27.359795000000002,86.7486619,2020-10-07 00:00:00,Mostly cloudy throughout the day.,partly-cloudy-day,2020-10-07 05:55:00,2020-10-07 17:39:00,0.67,0.0534,0.183,2020-10-07 17:59:00,0.19,rain,22.39,2020-10-07 12:28:00,14.18,2020-10-08 05:02:00,22.76,2020-10-07 12:44:00,14.47,2020-10-08 05:10:00,16.53,0.97,1011.7,1.15,2.21,1602009000,53,0.67,7,1602048120,15.889,251.5,14.15,2020-10-07 00:00:00,22.39,2020-10-07 12:28:00,14.47,2020-10-07 05:36:00,22.76,2020-10-07 12:44:00,
Khotang,Khotang Bazar,27.1408985,86.4317585,2020-10-07 00:00:00,Humid and mostly cloudy throughout the day.,partly-cloudy-day,2020-10-07 05:56:00,2020-10-07 17:40:00,0.67,0.0588,0.1344,2020-10-07 20:46:00,0.31,rain,30.65,2020-10-07 12:30:00,21.98,2020-10-08 05:38:00,36.62,2020-10-07 13:00:00,22.75,2020-10-08 05:39:00,23.31,0.89,1010.6,1.04,1.92,1602060960,152,0.71,5,1602048120,16.093,253.2,21.59,2020-10-07 05:25:00,30.65,2020-10-07 12:30:00,22.39,2020-10-07 05:27:00,36.62,2020-10-07 13:00:00,
Khotang,Kurle Ghat,27.21666667,86.85,2020-10-07 00:00:00,Humid and mostly cloudy throughout the day.,partly-cloudy-day,2020-10-07 05:54:00,2020-10-07 17:38:00,0.67,0.0501,0.1771,2020-10-07 17:05:00,0.22,rain,23.5,2020-10-07 12:52:00,15.55,2020-10-08 05:03:00,24.05,2020-10-07 12:59:00,16.15,2020-10-08 04:56:00,18.01,0.99,1011.3,0.92,1.9,1602058620,178,0.7,6,1602048660,16.093,252.2,15.13,2020-10-07 05:22:00,23.5,2020-10-07 12:52:00,15.98,2020-10-07 05:18:00,24.05,2020-10-07 12:59:00,
Lalitpur,Chapa Gaun,27.566666700000003,85.3166667,2020-10-07 00:00:00,Humid and mostly cloudy throughout the day.,partly-cloudy-day,2020-10-07 06:01:00,2020-10-07 17:44:00,0.67,0.0702,0.2689,2020-10-07 17:52:00,0.28,rain,26.54,2020-10-07 13:39:00,16.42,2020-10-08 05:42:00,26.64,2020-10-07 13:41:00,17.04,2020-10-08 05:43:00,18.75,0.93,1011.1,0.79,1.71,1602060720,170,0.74,6,1602050160,16.093,252.6,15.91,2020-10-07 05:41:00,26.54,2020-10-07 13:39:00,16.59,2020-10-07 05:41:00,26.64,2020-10-07 13:41:00,
Lalitpur,Godavari,27.68333333,85.3,2020-10-07 00:00:00,Mostly cloudy throughout the day.,partly-cloudy-day,2020-10-07 06:01:00,2020-10-07 17:44:00,0.67,0.0387,0.1503,2020-10-07 18:13:00,0.15,rain,28.53,2020-10-07 13:51:00,16.92,2020-10-08 05:44:00,28.85,2020-10-07 13:58:00,17.19,2020-10-08 05:44:00,17.29,0.78,1011.4,0.77,1.86,1602060660,161,0.74,7,1602050460,16.093,252.7,16.75,2020-10-07 05:40:00,28.53,2020-10-07 13:51:00,17.02,2020-10-07 05:40:00,28.85,2020-10-07 13:58:00,
Lalitpur,Khokana,27.65,85.38333333,2020-10-07 00:00:00,Mostly cloudy throughout the day.,partly-cloudy-day,2020-10-07 06:01:00,2020-10-07 17:44:00,0.67,0.0401,0.1208,2020-10-07 17:57:00,0.18,rain,28.35,2020-10-07 13:56:00,16.56,2020-10-08 05:44:00,28.8,2020-10-07 14:06:00,16.83,2020-10-08 05:44:00,17.65,0.8,1011.5,0.72,1.77,1602061260,157,0.75,6,1602049920,16.093,252.6,16.51,2020-10-07 05:41:00,28.35,2020-10-07 13:56:00,16.79,2020-10-07 05:41:00,28.8,2020-10-07 14:06:00,
Lalitpur,Khumaltar,27.5929167,85.3788333,2020-10-07 00:00:00,Mostly cloudy throughout the day.,partly-cloudy-day,2020-10-07 06:01:00,2020-10-07 17:44:00,0.67,0.0533,0.1675,2020-10-07 17:53:00,0.24,rain,26.65,2020-10-07 13:43:00,16.07,2020-10-08 05:41:00,26.64,2020-10-07 13:44:00,16.53,2020-10-08 05:42:00,18.16,0.9,1011.2,0.75,1.72,1602061260,174,0.75,6,1602050040,16.054,252.5,15.65,2020-10-07 05:41:00,26.65,2020-10-07 13:43:00,16.11,2020-10-07 05:40:00,26.64,2020-10-07 13:44:00,
Lalitpur,Kritipur (Bagban),27.68333333,85.33333333,2020-10-07 00:00:00,Mostly cloudy throughout the day.,partly-cloudy-day,2020-10-07 06:01:00,2020-10-07 17:44:00,0.67,0.0363,0.1288,2020-10-07 18:10:00,0.15,rain,28.34,2020-10-07 14:03:00,16.7,2020-10-08 05:44:00,28.64,2020-10-07 14:13:00,16.97,2020-10-08 05:44:00,17.47,0.77,1011.4,0.75,1.83,1602060840,130,0.75,6,1602050340,16.093,252.7,17.43,2020-10-07 05:38:00,28.34,2020-10-07 14:03:00,17.77,2020-10-07 05:39:00,28.64,2020-10-07 14:13:00,
Lalitpur,Lalitpur (Kopundol),27.659325,85.3697083,2020-10-07 00:00:00,Mostly cloudy throughout the day.,partly-cloudy-day,2020-10-07 06:01:00,2020-10-07 17:44:00,0.67,0.0393,0.1244,2020-10-07 17:59:00,0.17,rain,28.41,2020-10-07 13:59:00,16.63,2020-10-08 05:44:00,28.84,2020-10-07 14:10:00,16.9,2020-10-08 05:44:00,17.64,0.79,1011.5,0.72,1.78,1602061140,149,0.75,6,1602050100,16.093,252.6,16.85,2020-10-07 05:40:00,28.41,2020-10-07 13:59:00,17.13,2020-10-07 05:40:00,28.84,2020-10-07 14:10:00,
Lalitpur,Lubhu,27.60325833,85.32656389,2020-10-07 00:00:00,Mostly cloudy throughout the day.,partly-cloudy-day,2020-10-07 06:01:00,2020-10-07 17:44:00,0.67,0.0585,0.2166,2020-10-07 17:54:00,0.24,rain,27.17,2020-10-07 13:43:00,16.56,2020-10-08 05:43:00,27.92,2020-10-07 13:45:00,17.0,2020-10-08 05:44:00,18.49,0.89,1011.2,0.77,1.75,1602060780,169,0.74,6,1602050280,16.093,252.6,16.14,2020-10-07 05:41:00,27.17,2020-10-07 13:43:00,16.58,2020-10-07 05:41:00,27.92,2020-10-07 13:45:00,
Lalitpur,Tikathali,27.576825,85.3540444,2020-10-07 00:00:00,Humid and mostly cloudy throughout the day.,partly-cloudy-day,2020-10-07 06:01:00,2020-10-07 17:44:00,0.67,0.061,0.2107,2020-10-07 17:53:00,0.26,rain,25.93,2020-10-07 13:39:00,15.93,2020-10-08 05:40:00,25.93,2020-10-07 13:40:00,16.49,2020-10-08 05:41:00,18.13,0.93,1011.1,0.76,1.72,1602061020,173,0.75,6,1602050100,16.07,252.6,15.45,2020-10-07 05:39:00,25.93,2020-10-07 13:39:00,16.06,2020-10-07 05:39:00,25.93,2020-10-07 13:40:00,
Lamiung,Khudi Bazar,28.12677778,84.34494167,2020-10-07 00:00:00,Mostly cloudy throughout the day.,partly-cloudy-day,2020-10-07 06:05:00,2020-10-07 17:48:00,0.67,0.0159,0.0494,2020-10-07 21:43:00,0.03,rain,31.13,2020-10-07 13:46:00,17.85,2020-10-08 05:44:00,30.85,2020-10-07 13:47:00,18.12,2020-10-08 05:44:00,14.16,0.57,1011.3,1.33,2.09,1602011340,356,0.73,6,1602053880,16.093,255.5,17.43,2020-10-07 05:38:00,31.13,2020-10-07 13:46:00,17.7,2020-10-07 05:38:00,30.85,2020-10-07 13:47:00,
Lamjung,Besishahar,28.25596667,84.47929722,2020-10-06 21:45:00,Mostly cloudy throughout the day.,partly-cloudy-day,2020-10-07 06:04:00,2020-10-07 17:48:00,0.67,0.0067,0.0265,2020-10-06 23:32:00,0.06,rain,27.13,2020-10-07 13:51:00,17.14,2020-10-08 00:47:00,27.74,2020-10-07 14:07:00,17.41,2020-10-08 00:47:00,13.22,0.64,1012.4,1.77,2.97,1602011100,14,0.62,6,1602050700,15.41,254.2,15.96,2020-10-07 05:32:00,27.13,2020-10-07 13:51:00,16.23,2020-10-07 05:32:00,27.74,2020-10-07 14:07:00,
Lamjung,Bhorletar,28.21813889,84.24153889,2020-10-07 00:00:00,Mostly cloudy throughout the day.,partly-cloudy-day,2020-10-07 06:05:00,2020-10-07 17:48:00,0.67,0.0362,0.1242,2020-10-07 21:34:00,0.05,rain,27.7,2020-10-07 13:57:00,17.29,2020-10-08 05:45:00,27.43,2020-10-07 14:01:00,17.56,2020-10-08 05:45:00,11.46,0.55,1011.4,1.98,2.88,1602011280,352,0.73,6,1602054120,16.093,255.4,16.26,2020-10-07 05:38:00,27.7,2020-10-07 13:57:00,16.53,2020-10-07 05:38:00,27.43,2020-10-07 14:01:00,
Lamjung,Faleni,28.30964722,84.26600278,2020-10-07 00:00:00,Mostly cloudy throughout the day.,partly-cloudy-day,2020-10-07 06:05:00,2020-10-07 17:48:00,0.67,0.0307,0.1033,2020-10-07 21:30:00,0.08,rain,25.21,2020-10-07 13:32:00,15.44,2020-10-08 05:58:00,24.98,2020-10-07 13:35:00,15.71,2020-10-08 05:58:00,11.61,0.63,1012.6,2.13,3.19,1602024600,347,0.66,7,1602054060,16.093,253.3,14.09,2020-10-07 05:46:00,25.21,2020-10-07 13:32:00,14.36,2020-10-07 05:46:00,24.98,2020-10-07 13:35:00,
Lamjung,Gausala,28.07621667,84.47669444,2020-10-07 00:00:00,Mostly cloudy throughout the day.,partly-cloudy-day,2020-10-07 06:04:00,2020-10-07 17:48:00,0.67,0.0041,0.0256,2020-10-07 22:44:00,0.03,rain,31.99,2020-10-07 13:59:00,19.22,2020-10-08 05:37:00,32.38,2020-10-07 14:23:00,19.49,2020-10-08 05:37:00,16.1,0.6,1011.4,1.07,1.78,1602010500,34,0.72,6,1602053700,16.093,255.6,18.44,2020-10-07 05:30:00,31.99,2020-10-07 13:59:00,18.71,2020-10-07 05:30:00,32.38,2020-10-07 14:23:00,
Lamjung,Gharedhunga,28.282208299999997,84.3454164,2020-10-07 00:00:00,Mostly cloudy throughout the day.,partly-cloudy-day,2020-10-07 06:05:00,2020-10-07 17:48:00,0.67,0.0235,0.0797,2020-10-07 21:31:00,0.07,rain,27.34,2020-10-07 13:42:00,17.55,2020-10-08 00:49:00,27.68,2020-10-07 14:01:00,17.82,2020-10-08 00:49:00,12.93,0.61,1012.5,1.98,2.99,1602011280,357,0.68,6,1602053640,16.093,253.6,16.63,2020-10-07 05:12:00,27.34,2020-10-07 13:42:00,16.9,2020-10-07 05:12:00,27.68,2020-10-07 14:01:00,
Mahottari,Chisapani Gadhi,26.65224722,85.807275,2020-10-07 00:00:00,Humid and mostly cloudy throughout the day.,partly-cloudy-day,2020-10-07 05:58:00,2020-10-07 17:43:00,0.67,0.0483,0.214,2020-10-07 02:50:00,0.33,rain,30.15,2020-10-07 14:03:00,23.55,2020-10-08 05:05:00,36.07,2020-10-07 13:56:00,24.56,2020-10-08 05:08:00,23.2,0.82,1008.8,2.2,2.8,1602054480,83,0.73,5,1602052920,16.093,253.8,23.44,2020-10-07 05:54:00,30.15,2020-10-07 14:03:00,24.41,2020-10-07 05:51:00,36.07,2020-10-07 13:56:00,
Mahottari,Jalesore,26.88333333,85.78333333,2020-10-07 00:00:00,Humid and mostly cloudy throughout the day.,rain,2020-10-07 05:59:00,2020-10-07 17:43:00,0.67,0.0836,0.4111,2020-10-07 02:45:00,0.44,rain,31.22,2020-10-07 13:53:00,23.75,2020-10-08 05:18:00,37.95,2020-10-07 13:49:00,24.73,2020-10-08 05:21:00,23.46,0.81,1009.0,1.91,2.76,1602054480,106,0.71,5,1602052140,16.093,254.5,23.92,2020-10-07 05:44:00,31.22,2020-10-07 13:53:00,24.88,2020-10-07 05:43:00,37.95,2020-10-07 13:49:00,
Makwanpur,Daman,27.5599456,85.1386067,2020-10-07 00:00:00,Humid and mostly cloudy throughout the day.,partly-cloudy-day,2020-10-07 06:01:00,2020-10-07 17:45:00,0.67,0.0719,0.2629,2020-10-07 17:50:00,0.28,rain,25.15,2020-10-07 13:29:00,15.98,2020-10-08 05:32:00,25.33,2020-10-07 13:33:00,16.79,2020-10-08 05:37:00,18.41,0.96,1010.8,0.88,1.7,1602060000,164,0.73,6,1602050340,16.093,253.1,15.53,2020-10-07 05:36:00,25.15,2020-10-07 13:29:00,16.59,2020-10-07 05:34:00,25.33,2020-10-07 13:33:00,
Makwanpur,Hetanuda(Ind. Dist),27.619,85.1496,2020-10-07 00:00:00,Humid and mostly cloudy throughout the day.,partly-cloudy-day,2020-10-07 06:01:00,2020-10-07 17:45:00,0.67,0.0558,0.2067,2020-10-07 17:53:00,0.22,rain,25.78,2020-10-07 13:40:00,16.46,2020-10-08 05:33:00,25.75,2020-10-07 13:42:00,17.1,2020-10-08 05:34:00,18.11,0.93,1010.8,0.86,1.75,1602060300,168,0.72,6,1602050520,16.093,253.1,15.97,2020-10-07 05:36:00,25.78,2020-10-07 13:40:00,16.7,2020-10-07 05:35:00,25.75,2020-10-07 13:42:00,
Makwanpur,Makwanpur Gadhi,27.43333333,85.03333333,2020-10-07 00:00:00,Humid and mostly cloudy throughout the day.,rain,2020-10-07 06:02:00,2020-10-07 17:46:00,0.67,0.1026,0.3125,2020-10-07 00:00:00,0.41,rain,31.36,2020-10-07 13:04:00,21.58,2020-10-08 05:38:00,37.83,2020-10-07 15:24:00,22.43,2020-10-08 05:39:00,23.98,0.91,1010.5,1.08,1.97,1602060120,136,0.73,6,1602050520,16.093,253.9,21.48,2020-10-07 05:42:00,31.36,2020-10-07 13:04:00,22.48,2020-10-07 05:39:00,37.83,2020-10-07 15:24:00,
Makwanpur,Manang Bhot,27.635081899999996,84.7416103,2020-10-07 00:00:00,Humid and mostly cloudy throughout the day.,partly-cloudy-day,2020-10-07 06:03:00,2020-10-07 17:47:00,0.67,0.0856,0.3124,2020-10-07 02:52:00,0.33,rain,29.82,2020-10-07 13:42:00,20.61,2020-10-08 05:33:00,31.65,2020-10-07 13:45:00,21.39,2020-10-08 05:34:00,20.98,0.84,1010.4,0.89,1.58,1602008100,179,0.75,6,1602049200,16.093,254.8,20.11,2020-10-07 05:29:00,29.82,2020-10-07 13:42:00,20.86,2020-10-07 05:28:00,31.65,2020-10-07 13:45:00,
Makwanpur,Markhu Gaun,27.4227,85.0279,2020-10-07 00:00:00,Humid and mostly cloudy throughout the day.,rain,2020-10-07 06:02:00,2020-10-07 17:46:00,0.67,0.1061,0.3179,2020-10-07 00:00:00,0.43,rain,31.35,2020-10-07 13:08:00,21.7,2020-10-08 05:38:00,38.06,2020-10-07 15:25:00,22.56,2020-10-08 05:38:00,24.02,0.91,1010.4,1.1,2.01,1602060180,133,0.73,6,1602050580,16.093,254.0,21.62,2020-10-07 05:42:00,31.35,2020-10-07 13:08:00,22.62,2020-10-07 05:39:00,38.06,2020-10-07 15:25:00,
Manang,Goga,28.63989694,84.08811583,2020-10-07 00:00:00,Partly cloudy throughout the day.,partly-cloudy-day,2020-10-07 06:06:00,2020-10-07 17:49:00,0.67,0.0045,0.0136,2020-10-07 16:37:00,0.13,rain,10.97,2020-10-07 12:37:00,2.31,2020-10-08 04:30:00,10.69,2020-10-07 12:32:00,1.09,2020-10-08 03:55:00,3.19,0.89,1017.0,1.68,2.55,1602008100,45,0.39,8,1602052620,15.541,245.9,0.97,2020-10-07 05:03:00,10.97,2020-10-07 12:37:00,-0.97,2020-10-07 05:04:00,10.69,2020-10-07 12:32:00,
Manang,Humde,28.66627083,84.02257194,2020-10-07 00:00:00,Partly cloudy throughout the day.,partly-cloudy-day,2020-10-07 06:06:00,2020-10-07 17:49:00,0.67,0.0039,0.0111,2020-10-07 17:11:00,0.13,rain,10.73,2020-10-07 12:40:00,1.4,2020-10-08 04:47:00,10.5,2020-10-07 12:30:00,0.32,2020-10-08 00:29:00,2.65,0.89,1017.1,1.58,2.82,1602008100,81,0.36,9,1602051480,15.95,245.7,0.0,2020-10-07 06:28:00,10.73,2020-10-07 12:40:00,-1.61,2020-10-07 06:22:00,10.5,2020-10-07 12:30:00,
Manang,Naar,28.76666667,84.28333333,2020-10-07 00:00:00,Partly cloudy throughout the day.,partly-cloudy-day,2020-10-07 06:05:00,2020-10-07 17:48:00,0.67,0.0019,0.0074,2020-10-07 22:05:00,0.09,rain,6.3,2020-10-07 13:46:00,-4.9,2020-10-08 05:49:00,5.56,2020-10-07 14:31:00,-6.23,2020-10-08 03:19:00,-3.77,0.82,1018.4,1.29,2.11,1602049140,49,0.37,9,1602054060,16.093,244.3,-5.25,2020-10-07 05:33:00,6.3,2020-10-07 13:46:00,-7.63,2020-10-07 05:33:00,5.56,2020-10-07 14:31:00,
Manang,Phu Gaun,28.55,84.2333333,2020-10-07 00:00:00,Partly cloudy throughout the day.,partly-cloudy-day,2020-10-07 06:06:00,2020-10-07 17:48:00,0.67,0.0065,0.0256,2020-10-07 15:38:00,0.14,rain,13.06,2020-10-07 12:01:00,4.97,2020-10-08 01:36:00,12.77,2020-10-07 11:58:00,3.51,2020-10-08 01:39:00,6.0,0.91,1016.5,1.97,3.35,1602025140,338,0.43,8,1602054000,13.819,247.1,3.75,2020-10-07 05:01:00,13.06,2020-10-07 12:01:00,1.6,2020-10-07 05:00:00,12.77,2020-10-07 11:58:00,
Morang,Biratnagar,29.2160678,83.983333,2020-10-06 21:45:00,Clear throughout the day.,clear-day,2020-10-07 06:07:00,2020-10-07 17:49:00,0.67,0.0016,0.0072,2020-10-07 21:45:00,0.07,rain,14.53,2020-10-07 13:52:00,-4.13,2020-10-08 05:45:00,14.25,2020-10-07 13:52:00,-3.86,2020-10-08 05:45:00,-4.51,0.63,1017.9,2.05,5.44,1602061440,202,0.12,10,1602050340,16.093,247.2,-4.92,2020-10-07 06:04:00,14.53,2020-10-07 13:52:00,-4.65,2020-10-07 06:04:00,14.25,2020-10-07 13:52:00,
Morang,Biratnagar Airport,26.61000889,87.37074778,2020-10-07 00:00:00,Humid and mostly cloudy throughout the day.,rain,2020-10-07 05:52:00,2020-10-07 17:37:00,0.67,0.0679,0.2022,2020-10-07 02:48:00,0.46,rain,30.65,2020-10-07 14:10:00,23.71,2020-10-08 05:40:00,38.33,2020-10-07 15:03:00,24.59,2020-10-08 05:41:00,24.48,0.86,1009.4,1.96,3.07,1602035100,97,0.74,6,1602051960,16.093,253.4,24.17,2020-10-07 05:42:00,30.65,2020-10-07 14:10:00,25.18,2020-10-07 05:41:00,38.33,2020-10-07 15:03:00,
Morang,Gam Shree Nagar,26.73416667,87.50166667,2020-10-07 00:00:00,Humid and mostly cloudy throughout the day.,rain,2020-10-07 05:52:00,2020-10-07 17:36:00,0.67,0.0534,0.3419,2020-10-07 02:44:00,0.44,rain,31.85,2020-10-07 12:51:00,23.75,2020-10-08 05:32:00,42.64,2020-10-07 14:30:00,24.66,2020-10-08 05:30:00,25.45,0.92,1009.7,1.53,2.61,1602027780,91,0.73,6,1602052020,16.093,253.2,23.75,2020-10-07 05:20:00,31.85,2020-10-07 12:51:00,24.82,2020-10-07 05:20:00,42.64,2020-10-07 14:30:00,
Morang,Haraincha,28.46717,84.37307390000001,2020-10-07 00:00:00,Mostly cloudy throughout the day.,partly-cloudy-day,2020-10-07 06:05:00,2020-10-07 17:48:00,0.67,0.0078,0.019,2020-10-07 15:21:00,0.13,rain,15.97,2020-10-07 12:29:00,8.43,2020-10-07 23:10:00,15.72,2020-10-07 13:19:00,7.97,2020-10-07 23:11:00,8.27,0.86,1015.8,1.76,2.54,1602024780,358,0.53,7,1602053820,14.948,248.0,7.45,2020-10-07 05:07:00,15.97,2020-10-07 12:29:00,6.45,2020-10-07 05:06:00,15.72,2020-10-07 13:19:00,
Morang,Letang,26.46666667,87.28333333,2020-10-07 00:00:00,Humid and mostly cloudy throughout the day.,rain,2020-10-07 05:52:00,2020-10-07 17:37:00,0.67,0.094,0.2764,2020-10-07 11:42:00,0.52,rain,28.6,2020-10-07 13:57:00,22.96,2020-10-08 05:22:00,32.96,2020-10-07 13:50:00,23.94,2020-10-08 05:27:00,23.5,0.87,1009.0,2.33,4.27,1602038880,100,0.75,6,1602051960,16.093,253.4,23.38,2020-10-07 05:55:00,28.6,2020-10-07 13:57:00,24.47,2020-10-07 05:54:00,32.96,2020-10-07 13:50:00,
Morang,Mugu,26.483967,87.26700600000001,2020-10-07 00:00:00,Humid and mostly cloudy throughout the day.,rain,2020-10-07 05:52:00,2020-10-07 17:37:00,0.67,0.0806,0.2958,2020-10-07 11:41:00,0.49,rain,28.66,2020-10-07 13:55:00,22.93,2020-10-08 05:21:00,33.07,2020-10-07 13:28:00,23.91,2020-10-08 05:26:00,23.51,0.86,1009.1,2.33,4.15,1602038700,101,0.75,6,1602051960,16.093,253.5,23.33,2020-10-07 05:54:00,28.66,2020-10-07 13:55:00,24.42,2020-10-07 05:53:00,33.07,2020-10-07 13:28:00,
Mugu,Jomsom,29.50867889,81.89267389,2020-10-07 00:00:00,Clear throughout the day.,clear-day,2020-10-07 06:15:00,2020-10-07 17:57:00,0.67,0.0015,0.0055,2020-10-07 21:25:00,0.04,rain,25.41,2020-10-07 13:44:00,9.03,2020-10-08 05:29:00,25.13,2020-10-07 13:44:00,9.3,2020-10-08 05:29:00,8.58,0.68,1014.9,1.12,2.68,1602064320,167,0.19,10,1602051540,16.093,253.8,7.98,2020-10-07 05:35:00,25.41,2020-10-07 13:44:00,8.25,2020-10-07 05:35:00,25.13,2020-10-07 13:44:00,
Mugu,Mangri,29.540125,82.081825,2020-10-07 00:00:00,Clear throughout the day.,clear-day,2020-10-07 06:15:00,2020-10-07 17:56:00,0.67,0.002,0.0083,2020-10-07 22:45:00,0.05,rain,19.13,2020-10-07 13:46:00,5.89,2020-10-08 05:37:00,18.85,2020-10-07 13:46:00,5.3,2020-10-08 05:31:00,5.94,0.78,1015.2,1.35,2.78,1602054240,76,0.1,10,1602051480,16.093,252.4,4.86,2020-10-07 05:08:00,19.13,2020-10-07 13:46:00,4.18,2020-10-07 05:10:00,18.85,2020-10-07 13:46:00,
Mugu,Rara,29.75,82.55,2020-10-07 00:00:00,Clear throughout the day.,clear-day,2020-10-07 06:13:00,2020-10-07 17:54:00,0.67,0.002,0.0083,2020-10-07 22:45:00,0.08,rain,6.01,2020-10-07 13:10:00,-4.87,2020-10-08 05:43:00,3.85,2020-10-07 13:06:00,-4.6,2020-10-08 05:43:00,-2.32,0.91,1018.8,1.53,5.2,1602056820,102,0.08,11,1602051360,16.093,246.9,-5.31,2020-10-07 05:34:00,6.01,2020-10-07 13:10:00,-5.04,2020-10-07 05:34:00,3.85,2020-10-07 13:06:00,
Mugu,Seroge,29.58904306,82.30580306,2020-10-07 00:00:00,Clear throughout the day.,clear-day,2020-10-07 06:14:00,2020-10-07 17:56:00,0.67,0.002,0.0083,2020-10-07 22:45:00,0.06,rain,16.92,2020-10-07 13:37:00,5.45,2020-10-08 01:25:00,16.64,2020-10-07 13:37:00,4.82,2020-10-08 01:26:00,4.7,0.76,1016.9,1.47,3.53,1602054600,61,0.06,10,1602051420,16.093,249.7,4.7,2020-10-07 05:00:00,16.92,2020-10-07 13:37:00,3.7,2020-10-07 05:04:00,16.64,2020-10-07 13:37:00,
Mustang,Lete,28.78401111,83.72981667,2020-10-07 00:00:00,Clear throughout the day.,clear-day,2020-10-07 06:08:00,2020-10-07 17:50:00,0.67,0.0021,0.0072,2020-10-07 00:00:00,0.1,rain,12.1,2020-10-07 12:48:00,2.25,2020-10-08 05:16:00,11.82,2020-10-07 12:48:00,2.48,2020-10-07 23:37:00,5.32,0.95,1017.5,1.64,4.74,1602061200,230,0.27,10,1602050940,16.093,247.0,3.23,2020-10-08 00:00:00,12.1,2020-10-07 12:48:00,2.48,2020-10-07 23:37:00,11.82,2020-10-07 12:48:00,
Mustang,Mustang(Lomangthang),28.81555556,83.86222222,2020-10-07 00:00:00,Clear throughout the day.,clear-day,2020-10-07 06:07:00,2020-10-07 17:50:00,0.67,0.0021,0.0074,2020-10-07 22:05:00,0.11,rain,11.75,2020-10-07 12:58:00,0.27,2020-10-08 04:45:00,11.47,2020-10-07 12:58:00,0.2,2020-10-08 00:36:00,3.03,0.89,1017.6,1.56,3.91,1602060780,178,0.27,10,1602051120,16.093,246.3,0.64,2020-10-07 06:27:00,11.75,2020-10-07 12:58:00,0.25,2020-10-07 01:31:00,11.47,2020-10-07 12:58:00,
Mustang,Ranipauwa (M.Nath),28.73887222,83.68183333,2020-10-07 00:00:00,Clear throughout the day.,clear-day,2020-10-07 06:08:00,2020-10-07 17:50:00,0.67,0.0021,0.0106,2020-10-07 00:00:00,0.11,rain,11.1,2020-10-07 12:45:00,2.26,2020-10-08 05:32:00,10.92,2020-10-07 13:16:00,2.53,2020-10-08 05:32:00,5.28,0.96,1017.4,1.54,4.36,1602060540,250,0.26,9,1602050940,16.093,247.1,3.05,2020-10-08 00:00:00,11.1,2020-10-07 12:45:00,3.32,2020-10-08 00:00:00,10.92,2020-10-07 13:16:00,
Mustang,Tatopani,28.9,83.68333333,2020-10-07 00:00:00,Clear throughout the day.,clear-day,2020-10-07 06:08:00,2020-10-07 17:50:00,0.67,0.0019,0.0077,2020-10-07 00:00:00,0.09,rain,10.87,2020-10-07 13:22:00,-1.22,2020-10-08 06:23:00,10.75,2020-10-07 13:19:00,-2.33,2020-10-08 02:33:00,1.84,0.9,1017.8,1.79,4.84,1602060540,255,0.28,10,1602050640,16.093,246.2,-1.46,2020-10-07 05:01:00,10.87,2020-10-07 13:22:00,-1.64,2020-10-07 02:33:00,10.75,2020-10-07 13:19:00,
Myagdi,Bega,28.4,83.73333333,2020-10-07 00:00:00,Mostly cloudy throughout the day.,partly-cloudy-day,2020-10-07 06:07:00,2020-10-07 17:50:00,0.67,0.0044,0.0286,2020-10-07 17:04:00,0.05,rain,19.76,2020-10-07 13:07:00,10.41,2020-10-08 01:30:00,19.49,2020-10-07 13:09:00,10.68,2020-10-08 01:30:00,9.66,0.8,1012.9,1.52,2.83,1602024180,34,0.56,7,1602052380,16.093,251.8,10.31,2020-10-07 02:31:00,19.76,2020-10-07 13:07:00,10.58,2020-10-07 02:31:00,19.49,2020-10-07 13:09:00,
Myagdi,Beni Bazar,29.22713194,83.979815,2020-10-06 21:45:00,Clear throughout the day.,clear-day,2020-10-07 06:07:00,2020-10-07 17:49:00,0.67,0.0016,0.0072,2020-10-07 21:45:00,0.07,rain,14.34,2020-10-07 13:52:00,-4.59,2020-10-08 05:45:00,14.06,2020-10-07 13:52:00,-4.89,2020-10-08 02:39:00,-5.03,0.62,1017.9,2.08,5.48,1602061500,202,0.12,10,1602050340,16.093,247.2,-5.4,2020-10-07 06:07:00,14.34,2020-10-07 13:52:00,-5.77,2020-10-07 03:41:00,14.06,2020-10-07 13:52:00,
Myagdi,Dumkauli,28.56666667,83.38333333,2020-10-07 00:00:00,Partly cloudy throughout the day.,partly-cloudy-day,2020-10-07 06:09:00,2020-10-07 17:52:00,0.67,0.0085,0.0429,2020-10-07 00:00:00,0.11,rain,17.39,2020-10-07 12:54:00,8.19,2020-10-08 05:41:00,17.11,2020-10-07 12:54:00,7.47,2020-10-08 05:38:00,8.87,0.85,1015.1,2.02,2.81,1602058800,0,0.39,8,1602050640,15.954,250.4,7.74,2020-10-07 05:18:00,17.39,2020-10-07 12:54:00,6.58,2020-10-07 05:17:00,17.11,2020-10-07 12:54:00,
Myagdi,Ghorepani,28.35083333,83.56666667,2020-10-07 00:00:00,Mostly cloudy throughout the day.,partly-cloudy-day,2020-10-07 06:08:00,2020-10-07 17:51:00,0.67,0.0038,0.0372,2020-10-07 00:00:00,0.04,rain,25.91,2020-10-07 13:23:00,14.92,2020-10-08 05:03:00,25.63,2020-10-07 13:23:00,15.19,2020-10-08 05:03:00,11.56,0.63,1013.4,1.7,2.96,1602025380,334,0.55,7,1602052920,16.093,253.3,14.25,2020-10-07 05:01:00,25.91,2020-10-07 13:23:00,14.52,2020-10-07 05:01:00,25.63,2020-10-07 13:23:00,
Myagdi,Muna,28.44271389,83.576185,2020-10-07 00:00:00,Partly cloudy throughout the day.,partly-cloudy-day,2020-10-07 06:08:00,2020-10-07 17:51:00,0.67,0.0033,0.0374,2020-10-07 00:00:00,0.06,rain,23.42,2020-10-07 12:55:00,13.13,2020-10-08 00:57:00,23.14,2020-10-07 12:55:00,13.4,2020-10-08 00:57:00,10.26,0.67,1013.6,1.92,3.03,1602025080,347,0.49,7,1602052320,16.093,252.1,12.67,2020-10-07 05:20:00,23.42,2020-10-07 12:55:00,12.94,2020-10-07 05:20:00,23.14,2020-10-07 12:55:00,
Nawalparasi,Bara Ghat,27.680675,84.22854170000001,2020-10-07 00:00:00,Humid and mostly cloudy throughout the day.,partly-cloudy-day,2020-10-07 06:05:00,2020-10-07 17:49:00,0.67,0.0868,0.2867,2020-10-07 02:41:00,0.24,rain,33.72,2020-10-07 14:05:00,21.9,2020-10-08 05:50:00,38.59,2020-10-07 15:38:00,22.48,2020-10-08 05:54:00,21.64,0.73,1009.8,1.2,1.86,1602027060,70,0.76,6,1602050700,16.093,256.2,21.91,2020-10-07 05:41:00,33.72,2020-10-07 14:05:00,22.49,2020-10-07 05:42:00,38.59,2020-10-07 15:38:00,
Nawalparasi,Dumkibas,27.51925,83.66218333,2020-10-07 00:00:00,Humid and mostly cloudy throughout the day.,partly-cloudy-day,2020-10-07 06:07:00,2020-10-07 17:51:00,0.67,0.0514,0.222,2020-10-07 22:56:00,0.16,rain,33.05,2020-10-07 14:57:00,22.75,2020-10-08 05:32:00,37.51,2020-10-07 16:08:00,23.42,2020-10-08 05:36:00,21.43,0.69,1009.0,1.98,2.95,1602072360,95,0.73,6,1602050880,16.093,257.1,23.23,2020-10-07 05:44:00,33.05,2020-10-07 14:57:00,23.84,2020-10-07 05:45:00,37.51,2020-10-07 16:08:00,
