district,formal_name,lat,long,time,summary,icon,sunriseTime,sunsetTime,moonPhase,precipIntensity,precipIntensityMax,precipIntensityMaxTime,precipProbability,precipType,temperatureHigh,temperatureHighTime,temperatureLow,temperatureLowTime,apparentTemperatureHigh,apparentTemperatureHighTime,apparentTemperatureLow,apparentTemperatureLowTime,dewPoint,humidity,pressure,windSpeed,windGust,windGustTime,windBearing,cloudCover,uvIndex,uvIndexTime,visibility,ozone,temperatureMin,temperatureMinTime,temperatureMax,temperatureMaxTime,apparentTemperatureMin,apparentTemperatureMinTime,apparentTemperatureMax,apparentTemperatureMaxTime
Achham,Asara Ghat,28.95029444,81.44431944,2020-09-29 00:00:00,Humid throughout the day.,clear-day,2020-09-29 06:13:00,2020-09-29 18:09:00,0.43,0.0098,0.0588,2020-09-29 21:04:00,0.06,rain,31.58,2020-09-29 13:46:00,19.67,2020-09-30 05:43:00,34.18,2020-09-29 13:58:00,19.94,2020-09-30 05:43:00,20.03,0.77,1008.2,1.3,2.66,1601335500,82,0.14,9,1601360100,16.093,257.2,19.21,2020-09-29 05:36:00,31.58,2020-09-29 13:46:00,19.48,2020-09-29 05:36:00,34.18,2020-09-29 13:58:00
Achham,Basti,29.03098333,81.17113333,2020-09-29 00:00:00,Humid throughout the day.,clear-day,2020-09-29 06:14:00,2020-09-29 18:10:00,0.43,0.0261,0.1815,2020-09-29 20:46:00,0.09,rain,32.43,2020-09-29 13:26:00,19.68,2020-09-30 05:47:00,38.26,2020-09-29 16:33:00,19.97,2020-09-30 05:51:00,21.9,0.82,1008.1,1.08,2.03,1601335800,33,0.22,8,1601360880,16.093,258.0,19.45,2020-09-29 05:55:00,32.43,2020-09-29 13:26:00,19.96,2020-09-29 05:57:00,38.26,2020-09-29 16:33:00
Achham,Mangalsen,29.13611389,81.25009167,2020-09-29 00:00:00,Humid throughout the day.,clear-day,2020-09-29 06:13:00,2020-09-29 18:09:00,0.43,0.0155,0.1152,2020-09-29 20:49:00,0.07,rain,29.35,2020-09-29 13:45:00,17.62,2020-09-30 06:05:00,30.09,2020-09-29 13:55:00,17.89,2020-09-30 06:05:00,18.29,0.8,1008.3,1.19,2.14,1601335020,67,0.17,9,1601359800,16.093,257.5,17.1,2020-09-29 06:03:00,29.35,2020-09-29 13:45:00,17.37,2020-09-29 06:03:00,30.09,2020-09-29 13:55:00
Achham,Sugali,29.17980694,81.37293889,2020-09-29 00:00:00,Humid throughout the day.,clear-day,2020-09-29 06:13:00,2020-09-29 18:09:00,0.43,0.0066,0.0471,2020-09-29 20:50:00,0.07,rain,26.94,2020-09-29 13:46:00,15.94,2020-09-30 06:05:00,27.43,2020-09-29 13:46:00,16.21,2020-09-30 06:05:00,16.51,0.82,1009.0,1.35,2.89,1601335440,53,0.18,9,1601360280,16.093,256.2,14.99,2020-09-29 05:44:00,26.94,2020-09-29 13:46:00,15.26,2020-09-29 05:44:00,27.43,2020-09-29 13:46:00
Arghakhanchi,Rangsing,27.80330278,82.78400833,2020-09-29 00:00:00,Humid and partly cloudy throughout the day.,partly-cloudy-day,2020-09-29 06:07:00,2020-09-29 18:04:00,0.43,0.0121,0.0912,2020-09-29 00:00:00,0.05,rain,33.34,2020-09-29 13:49:00,22.59,2020-09-30 05:30:00,39.63,2020-09-29 13:46:00,23.48,2020-09-30 05:31:00,22.96,0.77,1005.9,1.51,2.5,1601369280,358,0.32,8,1601356800,16.093,257.9,22.72,2020-09-29 05:34:00,33.34,2020-09-29 13:49:00,23.69,2020-09-29 05:34:00,39.63,2020-09-29 13:46:00
Arghakhanchi,Sandhikharka,27.96402222,83.12056944,2020-09-29 00:00:00,Humid and partly cloudy throughout the day.,partly-cloudy-day,2020-09-29 06:06:00,2020-09-29 18:02:00,0.43,0.0326,0.0949,2020-09-29 17:36:00,0.12,rain,29.53,2020-09-29 13:32:00,18.91,2020-09-30 05:40:00,32.18,2020-09-29 13:38:00,19.37,2020-09-30 05:41:00,20.26,0.86,1007.4,1.21,2.42,1601369760,29,0.35,9,1601359080,16.093,255.7,18.36,2020-09-29 05:41:00,29.53,2020-09-29 13:32:00,18.99,2020-09-29 06:03:00,32.18,2020-09-29 13:38:00
Arghakhanchi,Sidhara,27.7945,82.82838333,2020-09-29 00:00:00,Humid and partly cloudy throughout the day.,partly-cloudy-day,2020-09-29 06:07:00,2020-09-29 18:03:00,0.43,0.0106,0.0788,2020-09-29 00:00:00,0.05,rain,32.61,2020-09-29 13:46:00,22.56,2020-09-30 05:33:00,38.03,2020-09-29 13:40:00,23.4,2020-09-30 05:34:00,22.5,0.77,1005.7,1.53,2.49,1601369400,13,0.31,8,1601356920,16.093,257.9,22.52,2020-09-29 05:35:00,32.61,2020-09-29 13:46:00,23.5,2020-09-29 05:36:00,38.03,2020-09-29 13:40:00
Baglung,Baglung,28.26363611,83.60032222,2020-09-29 00:00:00,Partly cloudy throughout the day.,partly-cloudy-day,2020-09-29 06:04:00,2020-09-29 18:00:00,0.43,0.0895,0.4457,2020-09-29 16:46:00,0.24,rain,28.42,2020-09-29 12:51:00,16.96,2020-09-30 05:57:00,29.28,2020-09-29 13:05:00,17.22,2020-09-30 05:59:00,16.48,0.74,1009.4,1.19,2.46,1601369400,319,0.42,8,1601359380,16.057,253.4,16.58,2020-09-29 05:39:00,28.42,2020-09-29 12:51:00,16.85,2020-09-29 05:39:00,29.28,2020-09-29 13:05:00
Baglung,Dhorpatan,28.48333333,83.08333333,2020-09-29 00:00:00,Foggy in the afternoon and evening.,fog,2020-09-29 06:06:00,2020-09-29 18:02:00,0.43,0.0484,0.2586,2020-09-29 16:35:00,0.29,rain,18.81,2020-09-29 12:48:00,8.3,2020-09-30 05:36:00,18.77,2020-09-29 12:59:00,7.6,2020-09-30 05:33:00,11.57,0.97,1010.6,1.56,2.48,1601336340,24,0.37,9,1601358480,14.314,250.1,7.45,2020-09-29 05:19:00,18.81,2020-09-29 12:48:00,6.37,2020-09-29 05:21:00,18.77,2020-09-29 12:59:00
Baglung,Galkot,28.21869167,83.41881111,2020-09-29 00:00:00,Partly cloudy throughout the day.,partly-cloudy-day,2020-09-29 06:05:00,2020-09-29 18:01:00,0.43,0.0733,0.3838,2020-09-29 17:02:00,0.22,rain,27.64,2020-09-29 12:52:00,15.13,2020-09-30 05:45:00,28.25,2020-09-29 13:08:00,15.4,2020-09-30 05:45:00,16.02,0.77,1009.2,1.21,2.26,1601369520,327,0.47,8,1601359260,16.093,253.6,14.85,2020-09-29 06:05:00,27.64,2020-09-29 12:52:00,15.12,2020-09-29 06:05:00,28.25,2020-09-29 13:08:00
Baglung,Rangkhani,28.14408889,83.55824444,2020-09-29 00:00:00,Partly cloudy throughout the day.,partly-cloudy-day,2020-09-29 06:04:00,2020-09-29 18:00:00,0.43,0.08,0.3524,2020-09-29 16:48:00,0.2,rain,25.57,2020-09-29 12:49:00,15.21,2020-09-30 05:45:00,25.47,2020-09-29 12:51:00,15.48,2020-09-30 05:45:00,15.87,0.83,1008.5,1.06,2.19,1601369400,317,0.45,8,1601359140,16.093,254.2,15.25,2020-09-29 05:44:00,25.57,2020-09-29 12:49:00,15.52,2020-09-29 05:44:00,25.47,2020-09-29 12:51:00
Baitadi,Patan (West),29.467137,80.54575109999999,2020-09-29 00:00:00,Clear throughout the day.,clear-day,2020-09-29 06:16:00,2020-09-29 18:12:00,0.43,0.0036,0.0212,2020-09-29 17:27:00,0.05,rain,29.22,2020-09-29 13:45:00,14.6,2020-09-30 05:40:00,29.6,2020-09-29 13:45:00,14.87,2020-09-30 05:40:00,17.96,0.83,1009.1,1.04,2.02,1601370480,315,0.15,9,1601360280,16.093,258.9,15.15,2020-09-29 05:55:00,29.22,2020-09-29 13:45:00,15.62,2020-09-29 06:03:00,29.6,2020-09-29 13:45:00
Baitadi,Satbanjh,29.4973,80.49741194,2020-09-29 00:00:00,Clear throughout the day.,clear-day,2020-09-29 06:17:00,2020-09-29 18:12:00,0.43,0.0021,0.0157,2020-09-29 17:44:00,0.05,rain,25.43,2020-09-29 13:53:00,12.77,2020-09-30 05:42:00,25.15,2020-09-29 13:53:00,13.04,2020-09-30 05:43:00,15.36,0.86,1008.7,1.07,2.05,1601369040,319,0.14,9,1601360580,16.093,259.1,13.24,2020-09-29 05:48:00,25.43,2020-09-29 13:53:00,13.86,2020-09-29 05:56:00,25.15,2020-09-29 13:53:00
Bajhang,Chainpur (West),29.55,81.21666667,2020-09-29 00:00:00,Clear throughout the day.,clear-day,2020-09-29 06:14:00,2020-09-29 18:09:00,0.43,0.0005,0.0032,2020-09-29 17:44:00,0.01,rain,26.41,2020-09-29 13:35:00,13.89,2020-09-30 05:25:00,26.13,2020-09-29 13:35:00,14.16,2020-09-30 05:25:00,11.88,0.67,1011.1,1.4,2.64,1601334900,49,0.15,10,1601360220,16.093,255.2,12.61,2020-09-29 05:16:00,26.41,2020-09-29 13:35:00,12.88,2020-09-29 05:16:00,26.13,2020-09-29 13:35:00
Bajhang,Chainpur Bajhang Aws Climate,29.545890000000004,81.20114000000001,2020-09-29 00:00:00,Clear throughout the day.,clear-day,2020-09-29 06:14:00,2020-09-29 18:10:00,0.43,0.0005,0.0036,2020-09-29 17:44:00,0.01,rain,26.6,2020-09-29 13:37:00,14.22,2020-09-30 05:25:00,26.32,2020-09-29 13:37:00,14.49,2020-09-30 05:25:00,11.86,0.66,1011.0,1.38,2.62,1601335020,49,0.15,10,1601360280,16.093,255.3,13.06,2020-09-29 05:15:00,26.6,2020-09-29 13:37:00,13.33,2020-09-29 05:15:00,26.32,2020-09-29 13:37:00
Bajhang,Kalukheti,29.447359999999996,81.16838,2020-09-29 00:00:00,Clear throughout the day.,clear-day,2020-09-29 06:14:00,2020-09-29 18:10:00,0.43,0.0027,0.013,2020-09-29 17:41:00,0.04,rain,28.59,2020-09-29 13:47:00,14.68,2020-09-30 05:48:00,28.48,2020-09-29 13:47:00,14.95,2020-09-30 05:48:00,13.99,0.68,1009.7,1.26,2.53,1601335140,53,0.16,10,1601360820,16.093,256.5,13.84,2020-09-29 05:45:00,28.59,2020-09-29 13:47:00,14.11,2020-09-29 05:45:00,28.48,2020-09-29 13:47:00
Bajhang,Rayal,29.464595000000003,80.95405,2020-09-29 00:00:00,Clear throughout the day.,clear-day,2020-09-29 06:15:00,2020-09-29 18:11:00,0.43,0.0044,0.0252,2020-09-29 17:41:00,0.04,rain,30.71,2020-09-29 13:46:00,16.87,2020-09-30 05:42:00,30.86,2020-09-29 13:45:00,17.14,2020-09-30 05:42:00,15.53,0.66,1009.4,1.08,2.12,1601335320,18,0.18,9,1601360880,16.093,257.3,16.33,2020-09-29 05:43:00,30.71,2020-09-29 13:46:00,16.6,2020-09-29 05:43:00,30.86,2020-09-29 13:45:00
Bajura,Bajura (Martadi),29.45697889,81.48038389,2020-09-29 00:00:00,Clear throughout the day.,clear-day,2020-09-29 06:13:00,2020-09-29 18:08:00,0.43,0.0012,0.0072,2020-09-29 14:46:00,0.04,rain,25.67,2020-09-29 13:42:00,13.74,2020-09-30 05:37:00,25.62,2020-09-29 13:45:00,14.01,2020-09-30 05:37:00,14.32,0.83,1011.1,1.49,3.29,1601335680,30,0.12,10,1601360700,16.093,254.0,11.99,2020-09-29 05:06:00,25.67,2020-09-29 13:42:00,12.26,2020-09-29 05:06:00,25.62,2020-09-29 13:45:00
Bajura,Kailasmandu,29.35291694,81.33385889,2020-09-29 00:00:00,Clear throughout the day.,clear-day,2020-09-29 06:13:00,2020-09-29 18:09:00,0.43,0.0016,0.0125,2020-09-29 20:45:00,0.04,rain,28.87,2020-09-29 13:43:00,16.7,2020-09-30 05:34:00,29.0,2020-09-29 13:45:00,16.97,2020-09-30 05:34:00,15.11,0.71,1010.2,1.38,2.86,1601335200,49,0.15,9,1601360640,16.093,255.8,15.34,2020-09-29 05:13:00,28.87,2020-09-29 13:43:00,15.61,2020-09-29 05:13:00,29.0,2020-09-29 13:45:00
Bajura,Kolti,29.50348694,81.66617611,2020-09-29 00:00:00,Clear throughout the day.,clear-day,2020-09-29 06:12:00,2020-09-29 18:08:00,0.43,0.0011,0.0041,2020-09-29 17:46:00,0.02,rain,25.42,2020-09-29 13:40:00,10.99,2020-09-30 05:41:00,25.16,2020-09-29 13:42:00,11.26,2020-09-30 05:41:00,13.09,0.85,1011.2,1.02,3.08,1601371320,331,0.17,10,1601360580,16.093,253.8,9.32,2020-09-29 05:50:00,25.42,2020-09-29 13:40:00,9.59,2020-09-29 05:50:00,25.16,2020-09-29 13:42:00
Banke,Amlekhganj,27.94748333,81.78569444,2020-09-29 00:15:00,Humid throughout the day.,clear-day,2020-09-29 06:11:00,2020-09-29 18:08:00,0.43,0.0,0.0,2020-09-29 20:45:00,0.0,,33.02,2020-09-29 14:14:00,22.28,2020-09-30 05:38:00,39.0,2020-09-29 11:53:00,23.18,2020-09-30 05:37:00,22.78,0.75,1005.3,1.21,2.34,1601370000,31,0.11,9,1601360460,16.093,259.3,22.57,2020-09-29 04:55:00,33.02,2020-09-29 14:14:00,23.48,2020-09-29 04:55:00,39.0,2020-09-29 11:53:00
Banke,Dhakeri,28.10055556,81.66824722,2020-09-29 00:15:00,Humid throughout the day.,clear-day,2020-09-29 06:12:00,2020-09-29 18:08:00,0.43,0.0,0.0,2020-09-29 20:45:00,0.0,,33.21,2020-09-29 13:54:00,22.69,2020-09-30 05:39:00,39.93,2020-09-29 12:07:00,23.65,2020-09-30 05:38:00,23.34,0.77,1005.4,1.26,2.22,1601369880,24,0.12,8,1601360460,16.093,259.2,22.51,2020-09-29 04:56:00,33.21,2020-09-29 13:54:00,23.43,2020-09-29 04:56:00,39.93,2020-09-29 12:07:00
Banke,Khajura (Nepalganj),28.11368333,81.59030556,2020-09-29 00:15:00,Humid throughout the day.,clear-day,2020-09-29 06:12:00,2020-09-29 18:08:00,0.43,0.0,0.0,2020-09-29 20:45:00,0.0,,33.05,2020-09-29 13:58:00,22.79,2020-09-30 05:39:00,39.76,2020-09-29 12:06:00,23.75,2020-09-30 05:38:00,23.26,0.77,1005.3,1.24,2.25,1601370360,25,0.12,8,1601360520,16.093,259.3,22.53,2020-09-29 04:56:00,33.05,2020-09-29 13:58:00,23.45,2020-09-29 04:56:00,39.76,2020-09-29 12:06:00
Banke,Naubasta,28.230225,81.65270278,2020-09-29 00:00:00,Humid throughout the day.,clear-day,2020-09-29 06:12:00,2020-09-29 18:08:00,0.43,0.0,0.0,2020-09-29 20:45:00,0.0,,33.72,2020-09-29 13:48:00,23.3,2020-09-30 05:28:00,41.3,2020-09-29 13:10:00,24.34,2020-09-30 05:25:00,24.17,0.8,1005.7,1.34,2.13,1601369280,25,0.13,8,1601360640,16.093,259.1,22.97,2020-09-29 05:17:00,33.72,2020-09-29 13:48:00,23.95,2020-09-29 05:12:00,41.3,2020-09-29 13:10:00
Banke,Nepalgunj Airport,28.051994399999995,81.6228389,2020-09-29 00:15:00,Humid throughout the day.,clear-day,2020-09-29 06:12:00,2020-09-29 18:08:00,0.43,0.0,0.0,2020-09-29 20:45:00,0.0,,32.81,2020-09-29 14:15:00,22.68,2020-09-30 05:41:00,38.99,2020-09-29 11:58:00,23.62,2020-09-30 05:39:00,22.92,0.76,1005.3,1.21,2.29,1601370240,24,0.12,9,1601360340,16.093,259.3,22.41,2020-09-29 04:51:00,32.81,2020-09-29 14:15:00,23.31,2020-09-29 04:51:00,38.99,2020-09-29 11:58:00
Bara,Gulariya,27.164166700000003,84.98,2020-09-29 00:00:00,Humid and partly cloudy throughout the day.,partly-cloudy-day,2020-09-29 05:58:00,2020-09-29 17:55:00,0.43,0.0144,0.0526,2020-09-29 16:20:00,0.07,rain,32.34,2020-09-29 13:52:00,23.02,2020-09-30 05:27:00,42.34,2020-09-29 13:32:00,24.08,2020-09-30 05:24:00,25.26,0.86,1005.7,1.58,3.54,1601371320,317,0.37,8,1601359980,16.093,256.7,23.96,2020-09-29 05:36:00,32.34,2020-09-29 13:52:00,25.12,2020-09-29 05:34:00,42.34,2020-09-29 13:32:00
Bara,Kalaiya,27.079,84.9329,2020-09-29 00:00:00,Humid throughout the day.,clear-day,2020-09-29 05:58:00,2020-09-29 17:55:00,0.43,0.0088,0.0431,2020-09-29 10:52:00,0.05,rain,31.79,2020-09-29 14:17:00,23.1,2020-09-30 05:28:00,40.69,2020-09-29 13:55:00,24.13,2020-09-30 05:26:00,25.02,0.86,1005.5,1.54,3.5,1601372040,335,0.35,8,1601360100,16.093,256.8,24.28,2020-09-29 05:21:00,31.79,2020-09-29 14:17:00,25.47,2020-09-29 05:17:00,40.69,2020-09-29 13:55:00
Bara,Nijgadh,27.16416667,84.98,2020-09-29 00:00:00,Humid and partly cloudy throughout the day.,partly-cloudy-day,2020-09-29 05:58:00,2020-09-29 17:55:00,0.43,0.0144,0.0526,2020-09-29 16:20:00,0.07,rain,32.34,2020-09-29 13:52:00,23.02,2020-09-30 05:27:00,42.34,2020-09-29 13:32:00,24.08,2020-09-30 05:24:00,25.26,0.86,1005.7,1.58,3.54,1601371320,317,0.37,8,1601359980,16.093,256.7,23.96,2020-09-29 05:36:00,32.34,2020-09-29 13:52:00,25.12,2020-09-29 05:34:00,42.34,2020-09-29 13:32:00
Bara,Parwanipur,27.20300556,85.170475,2020-09-29 00:00:00,Humid and partly cloudy throughout the day.,partly-cloudy-day,2020-09-29 05:57:00,2020-09-29 17:54:00,0.43,0.0208,0.0557,2020-09-29 13:59:00,0.09,rain,32.09,2020-09-29 13:15:00,22.98,2020-09-30 05:28:00,42.71,2020-09-29 13:06:00,24.05,2020-09-30 05:26:00,25.23,0.87,1005.9,1.53,3.47,1601370540,304,0.4,8,1601361420,16.093,256.3,23.44,2020-09-29 05:35:00,32.09,2020-09-29 13:15:00,24.54,2020-09-29 05:34:00,42.71,2020-09-29 13:06:00
Bara,Simara Airport,27.2813,84.9919,2020-09-29 00:00:00,Humid and partly cloudy throughout the day.,partly-cloudy-day,2020-09-29 05:58:00,2020-09-29 17:55:00,0.43,0.0226,0.1032,2020-09-29 16:01:00,0.09,rain,31.57,2020-09-29 13:34:00,22.66,2020-09-30 05:26:00,40.0,2020-09-29 13:32:00,23.77,2020-09-30 05:22:00,24.52,0.88,1006.0,1.54,3.42,1601370900,300,0.42,8,1601359740,16.093,256.2,23.04,2020-09-29 05:38:00,31.57,2020-09-29 13:34:00,24.17,2020-09-29 05:36:00,40.0,2020-09-29 13:32:00
Bardiya,Chisapani(Karnali),28.21278611,81.34521111,2020-09-29 00:00:00,Humid throughout the day.,clear-day,2020-09-29 06:13:00,2020-09-29 18:09:00,0.43,0.0011,0.0071,2020-09-29 14:45:00,0.02,rain,32.68,2020-09-29 14:23:00,22.28,2020-09-30 05:42:00,38.55,2020-09-29 12:13:00,23.21,2020-09-30 05:41:00,22.79,0.77,1005.5,1.2,2.33,1601373240,22,0.1,8,1601361420,16.093,259.8,22.28,2020-09-29 04:53:00,32.68,2020-09-29 14:23:00,23.17,2020-09-29 04:53:00,38.55,2020-09-29 12:13:00
Bardiya,Kumalgaun,28.33735833,81.33784167,2020-09-29 00:00:00,Humid throughout the day.,clear-day,2020-09-29 06:13:00,2020-09-29 18:09:00,0.43,0.0,0.0,2020-09-29 05:43:00,0.0,,32.92,2020-09-29 14:11:00,22.29,2020-09-30 05:41:00,39.32,2020-09-29 12:47:00,23.23,2020-09-30 05:40:00,23.15,0.78,1005.5,1.22,2.03,1601371800,29,0.1,8,1601360760,16.093,259.7,22.32,2020-09-29 05:19:00,32.92,2020-09-29 14:11:00,23.21,2020-09-29 05:18:00,39.32,2020-09-29 12:47:00
Bardiya,Manpur,28.36353889,81.41428333,2020-09-29 00:00:00,Humid throughout the day.,clear-day,2020-09-29 06:13:00,2020-09-29 18:09:00,0.43,0.0,0.0,2020-09-29 05:43:00,0.0,,33.41,2020-09-29 13:56:00,22.51,2020-09-30 05:36:00,40.72,2020-09-29 13:03:00,23.49,2020-09-30 05:34:00,23.77,0.79,1005.7,1.24,1.95,1601371020,33,0.12,8,1601360940,16.093,259.4,22.42,2020-09-29 05:31:00,33.41,2020-09-29 13:56:00,23.35,2020-09-29 05:28:00,40.72,2020-09-29 13:03:00
Bardiya,Rajapur,28.64721944,81.28542778,2020-09-29 00:00:00,Humid throughout the day.,clear-day,2020-09-29 06:13:00,2020-09-29 18:09:00,0.43,0.0037,0.0189,2020-09-29 23:45:00,0.03,rain,32.74,2020-09-29 13:49:00,22.2,2020-09-30 05:45:00,39.15,2020-09-29 14:06:00,23.11,2020-09-30 05:44:00,23.25,0.81,1006.4,1.21,1.87,1601326380,32,0.13,9,1601359800,16.093,259.5,21.99,2020-09-29 05:42:00,32.74,2020-09-29 13:49:00,22.9,2020-09-29 05:41:00,39.15,2020-09-29 14:06:00
Bardiya,Rambhapur,28.307825,81.27586389,2020-09-29 00:00:00,Humid throughout the day.,clear-day,2020-09-29 06:13:00,2020-09-29 18:09:00,0.43,0.0,0.0,2020-09-29 05:43:00,0.0,,32.56,2020-09-29 14:31:00,22.15,2020-09-30 05:42:00,38.07,2020-09-29 12:45:00,23.06,2020-09-30 05:41:00,22.69,0.77,1005.5,1.19,2.13,1601372340,27,0.09,8,1601360820,16.093,260.0,22.2,2020-09-29 04:54:00,32.56,2020-09-29 14:31:00,23.07,2020-09-29 04:54:00,38.07,2020-09-29 12:45:00
Bardiya,Rani Jaruwa Nursery,28.42588611,81.33803611,2020-09-29 00:00:00,Humid throughout the day.,clear-day,2020-09-29 06:13:00,2020-09-29 18:09:00,0.43,0.0022,0.016,2020-09-29 05:43:00,0.01,rain,33.23,2020-09-29 14:11:00,22.39,2020-09-30 05:38:00,40.19,2020-09-29 13:25:00,23.35,2020-09-30 05:38:00,23.55,0.79,1005.7,1.25,1.82,1601370780,33,0.11,8,1601360160,16.093,259.6,22.37,2020-09-29 05:37:00,33.23,2020-09-29 14:11:00,23.29,2020-09-29 05:35:00,40.19,2020-09-29 13:25:00
Bhaktapur,Bhaktapur,27.63333333,85.43333333,2020-09-29 00:00:00,Humid and partly cloudy throughout the day.,partly-cloudy-day,2020-09-29 05:56:00,2020-09-29 17:53:00,0.43,0.057,0.2604,2020-09-29 16:34:00,0.21,rain,26.53,2020-09-29 12:54:00,16.28,2020-09-30 05:44:00,28.17,2020-09-29 12:58:00,17.16,2020-09-30 05:43:00,19.61,0.96,1008.1,0.81,2.37,1601368920,161,0.62,9,1601358900,16.081,252.6,15.71,2020-09-29 05:36:00,26.53,2020-09-29 12:54:00,16.43,2020-09-29 05:38:00,28.17,2020-09-29 12:58:00
Bhaktapur,Changu Narayan,27.67668056,85.42396944,2020-09-29 00:00:00,Humid and partly cloudy throughout the day.,partly-cloudy-day,2020-09-29 05:56:00,2020-09-29 17:53:00,0.43,0.0511,0.276,2020-09-29 23:56:00,0.19,rain,28.55,2020-09-29 13:08:00,16.73,2020-09-30 05:42:00,31.31,2020-09-29 13:27:00,17.37,2020-09-30 05:41:00,20.26,0.91,1008.1,0.77,2.44,1601369460,153,0.58,9,1601358960,16.093,252.6,16.33,2020-09-29 05:16:00,28.55,2020-09-29 13:08:00,16.86,2020-09-29 05:18:00,31.31,2020-09-29 13:27:00
Bhaktapur,Nagarkot,27.645725,85.4615833,2020-09-29 00:00:00,Humid and partly cloudy throughout the day.,partly-cloudy-day,2020-09-29 05:56:00,2020-09-29 17:53:00,0.43,0.0564,0.2573,2020-09-30 00:00:00,0.21,rain,27.77,2020-09-29 13:02:00,16.56,2020-09-30 05:43:00,30.41,2020-09-29 13:17:00,17.32,2020-09-30 05:43:00,20.25,0.95,1008.1,0.78,2.35,1601369040,154,0.62,9,1601358960,16.078,252.5,15.94,2020-09-29 05:36:00,27.77,2020-09-29 13:02:00,16.57,2020-09-29 05:37:00,30.41,2020-09-29 13:17:00
Bhaktapur,Sanga,27.71605833,85.42675556,2020-09-29 00:00:00,Humid and partly cloudy throughout the day.,partly-cloudy-day,2020-09-29 05:56:00,2020-09-29 17:53:00,0.43,0.0461,0.3257,2020-09-29 23:55:00,0.17,rain,28.08,2020-09-29 13:14:00,16.23,2020-09-30 05:41:00,29.91,2020-09-29 13:27:00,16.76,2020-09-30 05:41:00,19.16,0.88,1008.1,0.73,2.49,1601369760,141,0.55,9,1601359020,16.093,252.6,16.06,2020-09-29 05:19:00,28.08,2020-09-29 13:14:00,16.5,2020-09-29 05:21:00,29.91,2020-09-29 13:27:00
Bhojpur,Dingla,27.1944798,87.04862659999999,2020-09-29 00:00:00,Humid and mostly cloudy throughout the day.,rain,2020-09-29 05:50:00,2020-09-29 17:47:00,0.43,0.2633,1.125,2020-09-29 15:00:00,0.39,rain,23.63,2020-09-29 13:27:00,15.61,2020-09-30 05:46:00,25.01,2020-09-29 13:32:00,17.02,2020-09-30 05:44:00,18.5,1.0,1008.1,0.81,2.31,1601364180,163,0.77,7,1601359440,15.562,251.2,15.11,2020-09-29 05:43:00,23.63,2020-09-29 13:27:00,16.8,2020-09-29 05:41:00,25.01,2020-09-29 13:32:00
Bhojpur,Rampur,27.5282716,87.2177064,2020-09-29 00:00:00,Humid and mostly cloudy throughout the day.,partly-cloudy-day,2020-09-29 05:49:00,2020-09-29 17:46:00,0.43,0.113,0.7169,2020-09-29 16:40:00,0.25,rain,25.97,2020-09-29 12:42:00,17.57,2020-09-30 05:42:00,26.46,2020-09-29 12:46:00,17.91,2020-09-30 05:39:00,19.41,0.94,1009.6,1.05,2.04,1601365500,355,0.69,7,1601357460,16.025,250.0,16.56,2020-09-29 05:21:00,25.97,2020-09-29 12:42:00,17.19,2020-09-29 05:17:00,26.46,2020-09-29 12:46:00
Chitawan,Bharatpur,27.72113611,84.58525556,2020-09-29 00:00:00,Humid throughout the day.,clear-day,2020-09-29 06:00:00,2020-09-29 17:56:00,0.43,0.003,0.0283,2020-09-29 14:45:00,0.02,rain,33.67,2020-09-29 13:49:00,20.99,2020-09-30 05:37:00,37.95,2020-09-29 13:52:00,21.69,2020-09-30 05:37:00,22.22,0.77,1006.5,1.09,1.87,1601377740,57,0.26,8,1601359560,16.093,255.9,20.94,2020-09-29 05:34:00,33.67,2020-09-29 13:49:00,21.79,2020-09-29 05:35:00,37.95,2020-09-29 13:52:00
Chitawan,Bharatpur,27.5909,84.5223,2020-09-29 00:00:00,Humid throughout the day.,clear-day,2020-09-29 06:00:00,2020-09-29 17:57:00,0.43,0.002,0.009,2020-09-30 00:00:00,0.02,rain,34.03,2020-09-29 13:56:00,21.31,2020-09-30 05:34:00,39.86,2020-09-29 15:24:00,22.09,2020-09-30 05:34:00,23.22,0.77,1006.1,1.13,3.1,1601379360,334,0.25,8,1601359740,16.093,256.5,21.92,2020-09-29 05:30:00,34.03,2020-09-29 13:56:00,22.8,2020-09-29 05:29:00,39.86,2020-09-29 15:24:00
Chitawan,Jhuwani,27.654025,84.3507944,2020-09-29 00:00:00,Humid throughout the day.,clear-day,2020-09-29 06:01:00,2020-09-29 17:57:00,0.43,0.0049,0.0287,2020-09-29 12:45:00,0.02,rain,34.06,2020-09-29 14:03:00,21.16,2020-09-30 05:37:00,40.17,2020-09-29 15:35:00,21.82,2020-09-30 05:37:00,22.74,0.76,1006.1,1.18,2.93,1601379840,357,0.21,8,1601360340,16.093,256.7,21.51,2020-09-29 05:28:00,34.06,2020-09-29 14:03:00,22.28,2020-09-29 05:29:00,40.17,2020-09-29 15:35:00
Chitwan,Gobindabasti,27.423171500000002,84.30374090000001,2020-09-29 00:00:00,Humid throughout the day.,clear-day,2020-09-29 06:01:00,2020-09-29 17:58:00,0.43,0.0068,0.031,2020-09-29 08:45:00,0.02,rain,31.58,2020-09-29 14:08:00,21.32,2020-09-30 05:37:00,36.83,2020-09-29 14:40:00,22.09,2020-09-30 05:37:00,22.57,0.79,1005.7,1.39,4.34,1601379900,27,0.25,8,1601360160,16.093,257.2,22.41,2020-09-29 05:04:00,31.58,2020-09-29 14:08:00,23.28,2020-09-29 05:06:00,36.83,2020-09-29 14:40:00
Chitwan,Madi Kalyanpur,27.580483299999997,84.2242222,2020-09-29 00:00:00,Humid and partly cloudy throughout the day.,partly-cloudy-day,2020-09-29 06:01:00,2020-09-29 17:58:00,0.43,0.0073,0.045,2020-09-29 12:43:00,0.03,rain,33.48,2020-09-29 14:00:00,20.8,2020-09-30 05:35:00,40.54,2020-09-29 16:30:00,21.43,2020-09-30 05:35:00,22.8,0.77,1005.9,1.29,3.76,1601379900,353,0.24,8,1601360460,16.093,257.1,21.43,2020-09-29 05:15:00,33.48,2020-09-29 14:00:00,22.14,2020-09-29 05:17:00,40.54,2020-09-29 16:30:00
Chitwan,Meghauli,27.67303333,84.42227222,2020-09-29 00:00:00,Humid throughout the day.,clear-day,2020-09-29 06:00:00,2020-09-29 17:57:00,0.43,0.0031,0.0157,2020-09-29 14:38:00,0.02,rain,34.15,2020-09-29 13:59:00,21.39,2020-09-30 05:38:00,39.62,2020-09-29 15:17:00,22.07,2020-09-30 05:38:00,22.7,0.75,1006.1,1.15,2.6,1601379780,11,0.19,8,1601360580,16.093,256.6,21.63,2020-09-29 05:32:00,34.15,2020-09-29 13:59:00,22.44,2020-09-29 05:32:00,39.62,2020-09-29 15:17:00
Dadeldhura,Dadeldhura,29.301352,80.58775194,2020-09-29 00:00:00,Clear throughout the day.,clear-day,2020-09-29 06:16:00,2020-09-29 18:12:00,0.43,0.0123,0.0704,2020-09-29 16:59:00,0.06,rain,25.37,2020-09-29 13:16:00,14.81,2020-09-30 05:44:00,25.32,2020-09-29 13:19:00,15.29,2020-09-30 05:57:00,17.1,0.92,1008.5,0.97,2.07,1601370900,235,0.26,8,1601360040,16.093,258.7,14.27,2020-09-29 06:02:00,25.37,2020-09-29 13:16:00,15.27,2020-09-29 06:07:00,25.32,2020-09-29 13:19:00
Dadeldhura,Dailekh,29.12785778,80.34740778,2020-09-29 00:00:00,Humid throughout the day.,clear-day,2020-09-29 06:17:00,2020-09-29 18:13:00,0.43,0.0048,0.023,2020-09-29 17:02:00,0.03,rain,32.87,2020-09-29 13:18:00,21.64,2020-09-30 05:38:00,41.54,2020-09-29 16:27:00,22.53,2020-09-30 05:39:00,24.47,0.88,1007.5,1.3,2.39,1601331780,13,0.16,8,1601360220,16.093,260.8,21.7,2020-09-29 05:53:00,32.87,2020-09-29 13:18:00,22.79,2020-09-29 05:48:00,41.54,2020-09-29 16:27:00
Dadeldhura,Sahukharka,29.288393100000004,80.37301500000001,2020-09-29 00:00:00,Humid throughout the day.,clear-day,2020-09-29 06:17:00,2020-09-29 18:13:00,0.43,0.009,0.0461,2020-09-29 17:01:00,0.06,rain,26.56,2020-09-29 12:58:00,16.7,2020-09-30 06:17:00,27.59,2020-09-29 12:49:00,17.47,2020-09-30 06:25:00,19.23,0.94,1007.9,1.14,2.46,1601333520,354,0.24,9,1601360100,16.093,259.7,16.32,2020-09-29 06:18:00,26.56,2020-09-29 12:58:00,17.53,2020-09-29 06:22:00,27.59,2020-09-29 12:49:00
Dailekh,Bale Budha (Tallo Dhungeshwor),28.83811111,81.70848333,2020-09-29 00:00:00,Humid throughout the day.,clear-day,2020-09-29 06:12:00,2020-09-29 18:08:00,0.43,0.0139,0.1065,2020-09-29 14:47:00,0.09,rain,29.19,2020-09-29 13:04:00,18.64,2020-09-30 06:13:00,32.51,2020-09-29 13:32:00,19.29,2020-09-30 06:13:00,21.19,0.92,1008.5,1.25,2.14,1601369220,220,0.22,8,1601361720,16.093,255.2,17.72,2020-09-29 05:18:00,29.19,2020-09-29 13:04:00,18.45,2020-09-29 05:18:00,32.51,2020-09-29 13:32:00
Dailekh,Katti,28.92202778,81.62608333,2020-09-29 00:00:00,Humid throughout the day.,clear-day,2020-09-29 06:12:00,2020-09-29 18:08:00,0.43,0.0082,0.0443,2020-09-29 14:48:00,0.07,rain,29.1,2020-09-29 13:28:00,18.3,2020-09-30 06:02:00,31.33,2020-09-29 13:49:00,18.57,2020-09-30 06:03:00,19.55,0.85,1008.5,1.34,2.52,1601335140,221,0.18,8,1601361600,16.093,255.5,17.35,2020-09-29 05:27:00,29.1,2020-09-29 13:28:00,17.71,2020-09-29 05:31:00,31.33,2020-09-29 13:49:00
Dailekh,Nayabasti (Dang),28.78022222,81.82144444,2020-09-29 00:00:00,Humid throughout the day.,clear-day,2020-09-29 06:11:00,2020-09-29 18:07:00,0.43,0.0179,0.1345,2020-09-29 14:47:00,0.11,rain,29.56,2020-09-29 13:02:00,18.89,2020-09-30 06:17:00,33.35,2020-09-29 13:23:00,19.62,2020-09-30 06:16:00,21.9,0.93,1008.8,1.15,2.23,1601369760,199,0.24,8,1601357040,16.093,254.9,18.2,2020-09-29 05:29:00,29.56,2020-09-29 13:02:00,19.04,2020-09-29 05:26:00,33.35,2020-09-29 13:23:00
Dailekh,Ranimatta,28.90711111,81.75019167,2020-09-29 00:00:00,Humid throughout the day.,clear-day,2020-09-29 06:11:00,2020-09-29 18:07:00,0.43,0.0122,0.0949,2020-09-29 14:48:00,0.1,rain,27.16,2020-09-29 12:58:00,17.0,2020-09-30 06:07:00,28.81,2020-09-29 13:17:00,17.43,2020-09-30 06:09:00,19.16,0.93,1008.7,1.33,2.27,1601334600,232,0.24,8,1601356560,16.093,254.2,15.77,2020-09-29 05:26:00,27.16,2020-09-29 12:58:00,16.42,2020-09-29 05:37:00,28.81,2020-09-29 13:17:00
Dang,Ghorahi (Masina),28.13174722,82.30278333,2020-09-29 00:00:00,Humid and partly cloudy throughout the day.,partly-cloudy-day,2020-09-29 06:09:00,2020-09-29 18:05:00,0.43,0.0498,0.2069,2020-09-29 14:46:00,0.12,rain,31.14,2020-09-29 13:01:00,21.04,2020-09-30 05:28:00,37.07,2020-09-29 13:51:00,22.0,2020-09-30 05:22:00,23.21,0.87,1007.2,1.47,2.65,1601369220,249,0.32,8,1601359500,16.093,256.9,20.76,2020-09-29 05:28:00,31.14,2020-09-29 13:01:00,21.72,2020-09-29 05:24:00,37.07,2020-09-29 13:51:00
Dang,Ghorai (Dang),27.69233306,82.52512694,2020-09-29 00:00:00,Humid throughout the day.,clear-day,2020-09-29 06:08:00,2020-09-29 18:05:00,0.43,0.0,0.0,2020-09-29 00:00:00,0.0,,32.38,2020-09-29 13:54:00,22.38,2020-09-30 05:25:00,37.08,2020-09-29 13:39:00,23.28,2020-09-30 05:25:00,22.28,0.75,1005.4,1.53,2.66,1601370900,49,0.14,8,1601361600,16.093,259.0,22.9,2020-09-29 05:28:00,32.38,2020-09-29 13:54:00,23.86,2020-09-29 05:27:00,37.08,2020-09-29 13:39:00
Dang,Koilabas,28.05,82.5,2020-09-29 00:00:00,Humid and partly cloudy throughout the day.,partly-cloudy-day,2020-09-29 06:08:00,2020-09-29 18:05:00,0.43,0.0449,0.1782,2020-09-29 02:39:00,0.11,rain,31.49,2020-09-29 13:36:00,21.79,2020-09-30 05:38:00,37.85,2020-09-29 13:37:00,22.79,2020-09-30 05:35:00,23.49,0.87,1007.0,1.46,2.71,1601369820,242,0.36,8,1601359020,16.093,256.8,21.46,2020-09-29 05:31:00,31.49,2020-09-29 13:36:00,22.51,2020-09-29 05:27:00,37.85,2020-09-29 13:37:00
Dang,Lalmatiya,27.87055556,82.53666667,2020-09-29 00:00:00,Humid and partly cloudy throughout the day.,partly-cloudy-day,2020-09-29 06:08:00,2020-09-29 18:05:00,0.43,0.015,0.0723,2020-09-29 02:44:00,0.03,rain,33.87,2020-09-29 14:08:00,23.03,2020-09-30 05:24:00,41.64,2020-09-29 14:08:00,24.02,2020-09-30 05:23:00,23.93,0.79,1006.1,1.48,2.65,1601369880,253,0.26,8,1601360100,16.093,258.0,23.16,2020-09-29 05:32:00,33.87,2020-09-29 14:08:00,24.2,2020-09-29 05:30:00,41.64,2020-09-29 14:08:00
Dang,Lamahi,27.88486889,82.33509611,2020-09-29 00:00:00,Humid throughout the day.,clear-day,2020-09-29 06:09:00,2020-09-29 18:05:00,0.43,0.0055,0.0308,2020-09-29 02:45:00,0.01,rain,33.74,2020-09-29 13:55:00,22.85,2020-09-30 05:23:00,40.98,2020-09-29 13:21:00,23.82,2020-09-30 05:22:00,23.81,0.78,1005.8,1.54,2.77,1601369520,294,0.19,8,1601359740,16.093,258.5,23.1,2020-09-29 05:33:00,33.74,2020-09-29 13:55:00,24.13,2020-09-29 05:31:00,40.98,2020-09-29 13:21:00
Dang,Padhampur,28.03719889,82.484156,2020-09-29 00:00:00,Humid and partly cloudy throughout the day.,partly-cloudy-day,2020-09-29 06:08:00,2020-09-29 18:05:00,0.43,0.0388,0.1658,2020-09-29 02:41:00,0.09,rain,31.58,2020-09-29 13:36:00,21.91,2020-09-30 05:37:00,37.98,2020-09-29 13:29:00,22.93,2020-09-30 05:34:00,23.48,0.87,1006.9,1.48,2.73,1601369820,248,0.35,8,1601359020,16.093,257.0,21.62,2020-09-29 05:31:00,31.58,2020-09-29 13:36:00,22.68,2020-09-29 05:26:00,37.98,2020-09-29 13:29:00
Dang,Tulsipur,28.201323,82.1393939,2020-09-29 00:00:00,Humid and partly cloudy throughout the day.,partly-cloudy-day,2020-09-29 06:10:00,2020-09-29 18:06:00,0.43,0.0411,0.2341,2020-09-29 14:45:00,0.1,rain,31.33,2020-09-29 13:10:00,21.4,2020-09-30 05:39:00,37.79,2020-09-29 14:02:00,22.56,2020-09-30 05:32:00,23.85,0.91,1007.0,1.41,2.44,1601368740,262,0.27,8,1601359320,16.093,257.0,20.96,2020-09-29 05:25:00,31.33,2020-09-29 13:10:00,22.05,2020-09-29 05:18:00,37.79,2020-09-29 14:02:00
Darchula,Darchula New,29.666666999999997,80.55,2020-09-29 00:15:00,Clear throughout the day.,clear-day,2020-09-29 06:16:00,2020-09-29 18:12:00,0.43,0.0009,0.0054,2020-09-29 17:45:00,0.03,rain,30.15,2020-09-29 14:00:00,16.81,2020-09-30 05:38:00,30.24,2020-09-29 13:59:00,17.08,2020-09-30 05:38:00,15.48,0.64,1009.4,1.11,2.13,1601335560,228,0.08,9,1601360820,16.093,258.6,16.83,2020-09-29 05:46:00,30.15,2020-09-29 14:00:00,17.1,2020-09-29 05:46:00,30.24,2020-09-29 13:59:00
Darchula,Dhaulatiya (Dallekhdhar),29.78255194,80.82215806,2020-09-29 00:00:00,Clear throughout the day.,clear-day,2020-09-29 06:15:00,2020-09-29 18:11:00,0.43,0.0019,0.0084,2020-09-29 17:23:00,0.05,rain,23.64,2020-09-29 13:42:00,13.78,2020-09-30 05:41:00,23.41,2020-09-29 13:45:00,14.05,2020-09-30 05:41:00,12.11,0.74,1011.4,1.5,2.74,1601335800,128,0.05,10,1601360640,16.093,254.9,12.22,2020-09-29 05:15:00,23.64,2020-09-29 13:42:00,12.49,2020-09-29 05:15:00,23.41,2020-09-29 13:45:00
Darchula,Gokuleshwar,29.84287806,80.53884806,2020-09-29 00:15:00,Clear throughout the day.,clear-day,2020-09-29 06:16:00,2020-09-29 18:12:00,0.43,0.0005,0.0041,2020-09-29 20:44:00,0.01,rain,27.37,2020-09-29 13:53:00,16.35,2020-09-30 05:39:00,27.33,2020-09-29 14:07:00,16.62,2020-09-30 05:39:00,12.25,0.58,1010.0,1.3,2.23,1601335020,189,0.05,10,1601360940,16.093,257.3,15.65,2020-09-29 05:40:00,27.37,2020-09-29 13:53:00,15.92,2020-09-29 05:40:00,27.33,2020-09-29 14:07:00
Darchula,Lumpthi,29.84496194,80.54539389,2020-09-29 00:15:00,Clear throughout the day.,clear-day,2020-09-29 06:16:00,2020-09-29 18:12:00,0.43,0.0005,0.0041,2020-09-29 20:44:00,0.01,rain,27.25,2020-09-29 13:52:00,16.26,2020-09-30 05:40:00,27.24,2020-09-29 14:06:00,16.53,2020-09-30 05:40:00,12.22,0.59,1010.1,1.31,2.24,1601334960,186,0.05,10,1601360940,16.093,257.2,15.55,2020-09-29 05:40:00,27.25,2020-09-29 13:52:00,15.82,2020-09-29 05:40:00,27.24,2020-09-29 14:06:00
Dhading,Dhading,28.05,84.82,2020-09-29 00:00:00,Partly cloudy throughout the day.,partly-cloudy-day,2020-09-29 05:59:00,2020-09-29 17:55:00,0.43,0.0116,0.1216,2020-09-29 23:00:00,0.04,rain,31.08,2020-09-29 13:41:00,19.27,2020-09-30 05:42:00,33.63,2020-09-29 13:46:00,19.54,2020-09-30 05:42:00,18.3,0.7,1008.4,1.06,1.94,1601362860,345,0.38,8,1601361480,16.093,253.5,18.84,2020-09-29 05:34:00,31.08,2020-09-29 13:41:00,19.11,2020-09-29 05:34:00,33.63,2020-09-29 13:46:00
Dhading,Dhunibesi,27.912505600000003,84.8961333,2020-09-29 00:00:00,Humid and partly cloudy throughout the day.,partly-cloudy-day,2020-09-29 05:59:00,2020-09-29 17:55:00,0.43,0.019,0.2013,2020-09-29 23:02:00,0.05,rain,32.13,2020-09-29 13:39:00,19.57,2020-09-30 05:36:00,35.2,2020-09-29 13:46:00,19.89,2020-09-30 05:34:00,19.9,0.73,1007.9,0.96,2.0,1601368920,273,0.44,8,1601359560,16.093,254.1,19.15,2020-09-29 05:34:00,32.13,2020-09-29 13:39:00,19.53,2020-09-29 05:33:00,35.2,2020-09-29 13:46:00
Dhading,Gajuri,27.8053359,84.7055012,2020-09-29 00:00:00,Humid and partly cloudy throughout the day.,partly-cloudy-day,2020-09-29 05:59:00,2020-09-29 17:56:00,0.43,0.0054,0.0557,2020-09-29 14:45:00,0.03,rain,33.24,2020-09-29 13:45:00,19.31,2020-09-30 05:28:00,36.73,2020-09-29 13:46:00,19.87,2020-09-30 05:27:00,21.08,0.76,1007.5,0.98,1.79,1601363700,111,0.4,8,1601359200,16.093,255.2,19.28,2020-09-29 05:31:00,33.24,2020-09-29 13:45:00,19.96,2020-09-29 05:30:00,36.73,2020-09-29 13:46:00
Dhading,Majhimtar,27.72311667,85.1642,2020-09-29 00:00:00,Humid and partly cloudy throughout the day.,partly-cloudy-day,2020-09-29 05:57:00,2020-09-29 17:54:00,0.43,0.0249,0.1328,2020-09-29 23:49:00,0.11,rain,30.78,2020-09-29 12:53:00,18.23,2020-09-30 05:34:00,33.93,2020-09-29 13:12:00,18.89,2020-09-30 05:32:00,20.58,0.83,1007.9,0.91,2.73,1601369940,277,0.48,9,1601359020,16.093,253.1,17.69,2020-09-29 05:26:00,30.78,2020-09-29 12:53:00,18.29,2020-09-29 05:27:00,33.93,2020-09-29 13:12:00
Dhading,Pakhribas,27.802707399999996,84.8797782,2020-09-29 00:00:00,Humid and partly cloudy throughout the day.,partly-cloudy-day,2020-09-29 05:59:00,2020-09-29 17:55:00,0.43,0.0113,0.0591,2020-09-29 23:05:00,0.06,rain,33.06,2020-09-29 13:27:00,19.81,2020-09-30 05:29:00,36.74,2020-09-29 13:46:00,20.43,2020-09-30 05:28:00,21.12,0.76,1007.7,0.95,2.05,1601369220,240,0.44,8,1601359140,16.093,254.3,19.17,2020-09-29 05:29:00,33.06,2020-09-29 13:27:00,19.87,2020-09-29 05:27:00,36.74,2020-09-29 13:46:00
Dhankuta,Barahkshetra,26.91424278,87.15986,2020-09-29 00:00:00,Humid and mostly cloudy throughout the day.,partly-cloudy-day,2020-09-29 05:49:00,2020-09-29 17:46:00,0.43,0.0658,0.2461,2020-09-29 23:49:00,0.24,rain,32.55,2020-09-29 13:12:00,23.11,2020-09-30 05:39:00,47.52,2020-09-29 15:26:00,24.27,2020-09-30 05:37:00,26.35,0.95,1006.9,1.22,2.25,1601369460,4,0.62,7,1601361360,16.093,254.0,22.55,2020-09-29 05:35:00,32.55,2020-09-29 13:12:00,23.75,2020-09-29 05:33:00,47.52,2020-09-29 15:26:00
Dhankuta,Dhankuta,27.0500025,87.24444444,2020-09-29 00:00:00,Humid and mostly cloudy throughout the day.,partly-cloudy-day,2020-09-29 05:49:00,2020-09-29 17:46:00,0.43,0.0836,0.2581,2020-09-29 23:46:00,0.26,rain,25.38,2020-09-29 13:00:00,17.06,2020-09-30 05:43:00,26.33,2020-09-29 13:06:00,18.17,2020-09-30 05:42:00,20.11,1.0,1007.6,1.08,2.34,1601368920,55,0.63,7,1601362140,16.093,252.9,16.75,2020-09-29 05:38:00,25.38,2020-09-29 13:00:00,17.96,2020-09-29 05:37:00,26.33,2020-09-29 13:06:00
Dhankuta,Dhankuta,26.93805556,87.15472222,2020-09-29 00:00:00,Humid and mostly cloudy throughout the day.,partly-cloudy-day,2020-09-29 05:49:00,2020-09-29 17:46:00,0.43,0.0699,0.2285,2020-09-29 23:49:00,0.24,rain,32.35,2020-09-29 13:06:00,22.86,2020-09-30 05:38:00,47.02,2020-09-29 15:28:00,24.0,2020-09-30 05:35:00,26.21,0.95,1007.0,1.19,2.28,1601369040,11,0.63,7,1601360820,16.093,253.7,22.24,2020-09-29 05:32:00,32.35,2020-09-29 13:06:00,23.43,2020-09-29 05:30:00,47.02,2020-09-29 15:28:00
Dhankuta,Leguwa Ghat,27.04633889,87.2925,2020-09-29 00:00:00,Humid and mostly cloudy throughout the day.,partly-cloudy-day,2020-09-29 05:49:00,2020-09-29 17:46:00,0.43,0.0862,0.2557,2020-09-29 23:50:00,0.27,rain,24.56,2020-09-29 13:07:00,15.89,2020-09-30 05:45:00,25.63,2020-09-29 13:22:00,17.08,2020-09-30 05:44:00,19.33,1.0,1007.6,1.05,2.27,1601368680,83,0.63,7,1601361840,16.093,252.7,15.64,2020-09-29 05:42:00,24.56,2020-09-29 13:07:00,16.98,2020-09-29 05:41:00,25.63,2020-09-29 13:22:00
Dhankuta,Muga,27.15338889,87.28919444,2020-09-29 00:00:00,Humid and mostly cloudy throughout the day.,partly-cloudy-day,2020-09-29 05:49:00,2020-09-29 17:46:00,0.43,0.119,0.4507,2020-09-29 23:50:00,0.28,rain,30.97,2020-09-29 13:23:00,20.15,2020-09-30 05:36:00,39.91,2020-09-29 15:19:00,21.03,2020-09-30 05:34:00,23.93,0.94,1007.8,0.93,2.25,1601368200,191,0.69,7,1601362620,16.093,252.4,19.81,2020-09-29 05:34:00,30.97,2020-09-29 13:23:00,20.78,2020-09-29 05:31:00,39.91,2020-09-29 15:19:00
Dhankuta,Mul Ghat,26.98321944,87.34595556,2020-09-29 00:00:00,Humid and mostly cloudy throughout the day.,partly-cloudy-day,2020-09-29 05:49:00,2020-09-29 17:45:00,0.43,0.0808,0.3104,2020-09-29 14:58:00,0.27,rain,25.75,2020-09-29 12:28:00,18.12,2020-09-30 05:46:00,26.66,2020-09-29 12:18:00,19.36,2020-09-30 05:45:00,21.06,1.0,1007.4,1.07,2.18,1601368500,51,0.63,7,1601359200,16.093,252.9,17.97,2020-09-29 05:44:00,25.75,2020-09-29 12:28:00,19.33,2020-09-29 05:43:00,26.66,2020-09-29 12:18:00
Dhankuta,Mul Ghat,26.98321944,87.34595556,2020-09-29 00:00:00,Humid and mostly cloudy throughout the day.,partly-cloudy-day,2020-09-29 05:49:00,2020-09-29 17:45:00,0.43,0.0808,0.3104,2020-09-29 14:58:00,0.27,rain,25.75,2020-09-29 12:28:00,18.12,2020-09-30 05:46:00,26.66,2020-09-29 12:18:00,19.36,2020-09-30 05:45:00,21.06,1.0,1007.4,1.07,2.18,1601368500,51,0.63,7,1601359200,16.093,252.9,17.97,2020-09-29 05:44:00,25.75,2020-09-29 12:28:00,19.33,2020-09-29 05:43:00,26.66,2020-09-29 12:18:00
Dhanusa,Chisapani Bazar,27.01295556,85.92089722,2020-09-29 00:00:00,Humid and partly cloudy throughout the day.,partly-cloudy-day,2020-09-29 05:54:00,2020-09-29 17:51:00,0.43,0.1979,0.7373,2020-09-29 02:20:00,0.26,rain,31.91,2020-09-29 13:54:00,23.23,2020-09-30 05:30:00,41.95,2020-09-29 14:06:00,24.35,2020-09-30 05:27:00,25.34,0.89,1005.9,1.39,3.17,1601369280,318,0.51,8,1601359560,15.886,255.5,23.49,2020-09-29 05:33:00,31.91,2020-09-29 13:54:00,24.7,2020-09-29 05:30:00,41.95,2020-09-29 14:06:00
Dhanusa,Janakpur Airport,26.8,85.9833333,2020-09-29 00:00:00,Humid and partly cloudy throughout the day.,partly-cloudy-day,2020-09-29 05:54:00,2020-09-29 17:51:00,0.43,0.0972,0.5265,2020-09-29 04:27:00,0.18,rain,32.26,2020-09-29 14:38:00,23.73,2020-09-30 05:40:00,41.42,2020-09-29 14:33:00,24.87,2020-09-30 05:38:00,25.21,0.86,1005.4,1.39,3.0,1601370120,341,0.39,9,1601359560,16.093,256.6,23.89,2020-09-29 04:58:00,32.26,2020-09-29 14:38:00,25.05,2020-09-29 04:57:00,41.42,2020-09-29 14:33:00
Dhanusa,Tulsi,26.71666667,85.96666667,2020-09-29 00:00:00,Humid throughout the day.,clear-day,2020-09-29 05:54:00,2020-09-29 17:51:00,0.43,0.0529,0.373,2020-09-29 04:14:00,0.14,rain,32.3,2020-09-29 14:43:00,23.77,2020-09-30 05:40:00,40.9,2020-09-29 14:41:00,24.89,2020-09-30 05:38:00,24.91,0.85,1005.3,1.4,2.99,1601370720,340,0.36,10,1601359500,16.093,257.0,23.78,2020-09-29 04:52:00,32.3,2020-09-29 14:43:00,24.91,2020-09-29 04:51:00,40.9,2020-09-29 14:41:00
Dolakha,Charikot,27.67633111,86.10399389,2020-09-29 00:00:00,Humid and partly cloudy throughout the day.,partly-cloudy-day,2020-09-29 05:54:00,2020-09-29 17:50:00,0.43,0.0848,0.3442,2020-09-29 23:46:00,0.28,rain,28.69,2020-09-29 12:43:00,18.28,2020-09-30 05:38:00,33.66,2020-09-29 13:00:00,18.85,2020-09-30 05:34:00,21.25,0.96,1009.2,1.11,2.2,1601364960,218,0.61,8,1601359200,14.988,250.0,17.24,2020-09-29 05:42:00,28.69,2020-09-29 12:43:00,17.9,2020-09-29 05:41:00,33.66,2020-09-29 13:00:00
Dolakha,Dunai,27.63333333,86.13333333,2020-09-29 00:00:00,Humid and partly cloudy throughout the day.,partly-cloudy-day,2020-09-29 05:54:00,2020-09-29 17:50:00,0.43,0.0951,0.373,2020-09-29 23:46:00,0.3,rain,26.82,2020-09-29 12:45:00,16.34,2020-09-30 05:56:00,30.26,2020-09-29 12:46:00,17.23,2020-09-30 05:48:00,20.61,1.0,1008.9,1.12,2.25,1601365320,213,0.62,8,1601359200,15.012,250.2,15.33,2020-09-29 05:50:00,26.82,2020-09-29 12:45:00,16.28,2020-09-29 05:49:00,30.26,2020-09-29 12:46:00
Dolakha,Jiri,27.6666667,86.05,2020-09-29 00:00:00,Humid and partly cloudy throughout the day.,partly-cloudy-day,2020-09-29 05:54:00,2020-09-29 17:51:00,0.43,0.0816,0.3139,2020-09-29 23:42:00,0.29,rain,24.84,2020-09-29 12:46:00,14.79,2020-09-30 05:51:00,25.87,2020-09-29 12:51:00,15.7,2020-09-30 05:44:00,18.51,1.0,1008.9,1.03,2.12,1601366820,218,0.62,8,1601359140,15.225,250.4,14.03,2020-09-29 05:53:00,24.84,2020-09-29 12:46:00,15.22,2020-09-29 05:51:00,25.87,2020-09-29 12:51:00
Dolakha,Nagdaha,27.616666700000003,86.35,2020-09-29 00:00:00,Foggy in the afternoon and evening.,fog,2020-09-29 05:53:00,2020-09-29 17:49:00,0.43,0.1085,0.3794,2020-09-29 17:36:00,0.35,rain,19.24,2020-09-29 12:32:00,10.96,2020-09-30 05:57:00,21.19,2020-09-29 12:46:00,12.29,2020-09-30 05:38:00,13.92,1.0,1009.7,1.22,2.59,1601361180,239,0.58,9,1601359020,13.963,248.2,10.18,2020-09-29 05:35:00,19.24,2020-09-29 12:32:00,11.38,2020-09-29 05:34:00,21.19,2020-09-29 12:46:00
Dolpa,Kaigaun,29.03154722,82.76287778,2020-09-29 00:00:00,Clear throughout the day.,clear-day,2020-09-29 06:07:00,2020-09-29 18:03:00,0.43,0.0022,0.0186,2020-09-29 17:45:00,0.07,rain,19.6,2020-09-29 12:48:00,8.52,2020-09-29 22:53:00,19.32,2020-09-29 12:49:00,8.85,2020-09-30 01:06:00,10.59,0.94,1012.5,1.25,2.72,1601363880,25,0.27,10,1601359320,16.093,248.2,6.7,2020-09-29 05:33:00,19.6,2020-09-29 12:48:00,6.97,2020-09-29 05:33:00,19.32,2020-09-29 12:49:00
Dolpa,Silgadhi Doti,28.98363333,82.82074444,2020-09-29 00:00:00,Clear throughout the day.,clear-day,2020-09-29 06:07:00,2020-09-29 18:03:00,0.43,0.0021,0.0176,2020-09-29 17:45:00,0.08,rain,19.63,2020-09-29 12:55:00,8.55,2020-09-30 05:44:00,19.36,2020-09-29 12:57:00,8.82,2020-09-30 05:44:00,10.7,0.95,1012.4,1.28,2.81,1601363940,35,0.25,10,1601359260,16.093,248.1,6.37,2020-09-29 05:27:00,19.63,2020-09-29 12:55:00,6.64,2020-09-29 05:27:00,19.36,2020-09-29 12:57:00
Doti,Dipayal (Doti),29.12015194,80.70944778,2020-09-29 00:00:00,Humid and partly cloudy throughout the day.,partly-cloudy-day,2020-09-29 06:16:00,2020-09-29 18:12:00,0.43,0.0106,0.0794,2020-09-29 16:50:00,0.06,rain,27.78,2020-09-29 12:51:00,17.04,2020-09-30 06:00:00,29.73,2020-09-29 13:02:00,17.65,2020-09-30 06:12:00,19.86,0.93,1008.2,0.92,1.85,1601370840,198,0.26,8,1601361540,16.093,258.6,16.62,2020-09-29 06:13:00,27.78,2020-09-29 12:51:00,17.54,2020-09-29 06:17:00,29.73,2020-09-29 13:02:00
Doti,Dumrakot,29.16385278,80.600738,2020-09-29 00:00:00,Humid throughout the day.,clear-day,2020-09-29 06:16:00,2020-09-29 18:12:00,0.43,0.0113,0.0691,2020-09-29 16:53:00,0.06,rain,25.3,2020-09-29 13:06:00,15.09,2020-09-30 05:47:00,25.53,2020-09-29 13:12:00,15.72,2020-09-30 05:51:00,18.02,0.95,1007.9,1.05,2.01,1601370060,208,0.24,8,1601360400,16.093,259.0,14.61,2020-09-29 05:58:00,25.3,2020-09-29 13:06:00,15.76,2020-09-29 06:00:00,25.53,2020-09-29 13:12:00
Doti,Gaira,29.34106083,81.045105,2020-09-29 00:00:00,Clear throughout the day.,clear-day,2020-09-29 06:14:00,2020-09-29 18:10:00,0.43,0.0149,0.0966,2020-09-29 13:45:00,0.06,rain,24.19,2020-09-29 13:44:00,13.15,2020-09-30 05:39:00,23.91,2020-09-29 13:44:00,13.42,2020-09-30 05:39:00,14.38,0.85,1008.8,1.05,2.18,1601334900,41,0.23,9,1601361540,16.093,257.5,12.06,2020-09-29 05:50:00,24.19,2020-09-29 13:44:00,12.33,2020-09-29 05:50:00,23.91,2020-09-29 13:44:00
Doti,Jhingrana,29.26209694,80.93690083,2020-09-29 00:00:00,Humid throughout the day.,clear-day,2020-09-29 06:15:00,2020-09-29 18:11:00,0.43,0.0225,0.1339,2020-09-29 13:45:00,0.07,rain,31.5,2020-09-29 13:35:00,17.95,2020-09-30 05:48:00,33.21,2020-09-29 13:48:00,18.22,2020-09-30 05:48:00,19.37,0.8,1009.1,0.82,1.87,1601374800,259,0.29,8,1601362080,16.093,258.1,17.14,2020-09-29 05:55:00,31.5,2020-09-29 13:35:00,17.45,2020-09-29 05:56:00,33.21,2020-09-29 13:48:00
Doti,Khaptad,29.0,81.13333333,2020-09-29 00:00:00,Humid throughout the day.,clear-day,2020-09-29 06:14:00,2020-09-29 18:10:00,0.43,0.0273,0.1958,2020-09-29 20:44:00,0.09,rain,28.29,2020-09-29 13:07:00,18.41,2020-09-30 06:02:00,29.99,2020-09-29 13:38:00,18.78,2020-09-30 06:08:00,20.45,0.91,1007.6,1.07,2.08,1601335920,16,0.24,8,1601361360,16.093,258.1,17.79,2020-09-29 06:15:00,28.29,2020-09-29 13:07:00,18.57,2020-09-29 06:21:00,29.99,2020-09-29 13:38:00
Doti,Kola Gaun,29.38804889,81.14630111,2020-09-29 00:00:00,Clear throughout the day.,clear-day,2020-09-29 06:14:00,2020-09-29 18:10:00,0.43,0.0062,0.0344,2020-09-29 13:45:00,0.05,rain,22.94,2020-09-29 13:44:00,10.49,2020-09-30 05:35:00,22.66,2020-09-29 13:44:00,10.76,2020-09-30 05:35:00,12.49,0.85,1009.3,1.21,2.41,1601334960,54,0.18,10,1601360940,16.093,256.9,9.48,2020-09-29 05:40:00,22.94,2020-09-29 13:44:00,9.41,2020-09-29 05:42:00,22.66,2020-09-29 13:44:00
Gorkha,Barpak,28.2,84.73333333,2020-09-28 21:45:00,Humid and partly cloudy throughout the day.,partly-cloudy-day,2020-09-29 05:59:00,2020-09-29 17:56:00,0.43,0.008,0.0653,2020-09-29 14:49:00,0.07,rain,26.42,2020-09-29 12:47:00,17.42,2020-09-30 05:45:00,28.53,2020-09-29 12:47:00,17.69,2020-09-30 05:45:00,19.42,0.95,1009.3,1.48,2.81,1601335260,354,0.3,8,1601359440,12.598,251.5,15.95,2020-09-29 05:20:00,26.42,2020-09-29 12:47:00,16.24,2020-09-29 05:21:00,28.53,2020-09-29 12:47:00
Gorkha,Chhekampar,27.97138889,84.58944444,2020-09-29 00:00:00,Clear throughout the day.,clear-day,2020-09-29 06:00:00,2020-09-29 17:56:00,0.43,0.0,0.0,2020-09-29 20:41:00,0.0,,32.04,2020-09-29 13:50:00,18.35,2020-09-30 05:37:00,34.57,2020-09-29 13:45:00,18.63,2020-09-30 05:37:00,18.54,0.7,1007.3,0.89,1.59,1601378460,174,0.28,9,1601361360,16.093,255.5,18.5,2020-09-29 05:38:00,32.04,2020-09-29 13:50:00,18.87,2020-09-29 05:39:00,34.57,2020-09-29 13:45:00
Gorkha,Chumchet,28.48333333,85.0,2020-09-28 21:45:00,Clear throughout the day.,clear-day,2020-09-29 05:58:00,2020-09-29 17:55:00,0.43,0.0018,0.0108,2020-09-29 14:57:00,0.09,rain,11.96,2020-09-29 11:56:00,5.74,2020-09-30 00:39:00,14.01,2020-09-29 13:24:00,7.08,2020-09-30 05:28:00,7.27,1.0,1012.8,1.15,3.25,1601360280,30,0.07,12,1601359500,15.887,245.5,3.49,2020-09-29 05:04:00,11.96,2020-09-29 11:56:00,3.65,2020-09-29 05:08:00,14.01,2020-09-29 13:24:00
Gorkha,Gorkha,28.66666667,84.61666667,2020-09-28 21:45:00,Clear throughout the day.,clear-day,2020-09-29 06:00:00,2020-09-29 17:56:00,0.43,0.0014,0.0062,2020-09-29 14:55:00,0.07,rain,5.54,2020-09-29 13:27:00,-0.76,2020-09-30 05:45:00,3.64,2020-09-29 13:32:00,-0.49,2020-09-30 05:45:00,1.67,1.0,1014.4,1.23,3.39,1601361240,230,0.08,12,1601359380,16.093,244.0,-2.16,2020-09-29 05:51:00,5.54,2020-09-29 13:27:00,-1.89,2020-09-29 05:51:00,3.64,2020-09-29 13:32:00
Gorkha,Laprak,28.2,84.75,2020-09-28 21:45:00,Humid and partly cloudy throughout the day.,partly-cloudy-day,2020-09-29 05:59:00,2020-09-29 17:56:00,0.43,0.0076,0.0671,2020-09-29 14:48:00,0.07,rain,24.56,2020-09-29 12:50:00,14.8,2020-09-30 05:45:00,25.51,2020-09-29 12:52:00,15.07,2020-09-30 05:45:00,18.22,0.99,1009.2,1.48,2.89,1601335380,354,0.29,8,1601359500,12.583,251.4,13.52,2020-09-29 05:46:00,24.56,2020-09-29 12:50:00,13.79,2020-09-29 05:41:00,25.51,2020-09-29 12:52:00
Gorkha,Sama Gaun,28.42693611,84.90264444,2020-09-28 21:45:00,Clear throughout the day.,clear-day,2020-09-29 05:59:00,2020-09-29 17:55:00,0.43,0.0035,0.0266,2020-09-29 14:50:00,0.09,rain,16.42,2020-09-29 11:52:00,8.94,2020-09-29 23:00:00,16.86,2020-09-29 12:07:00,9.39,2020-09-30 00:30:00,10.93,1.0,1012.7,1.21,2.94,1601360280,14,0.14,10,1601359260,15.506,246.4,7.48,2020-09-29 05:14:00,16.42,2020-09-29 11:52:00,7.75,2020-09-29 05:14:00,16.86,2020-09-29 12:07:00
Gulmi,Darma,27.9365,83.33811667,2020-09-29 00:00:00,Humid and partly cloudy throughout the day.,partly-cloudy-day,2020-09-29 06:05:00,2020-09-29 18:01:00,0.43,0.0518,0.136,2020-09-29 01:42:00,0.14,rain,29.66,2020-09-29 13:24:00,18.8,2020-09-30 05:42:00,32.38,2020-09-29 13:42:00,19.17,2020-09-30 05:42:00,20.18,0.84,1007.4,1.16,2.3,1601369580,5,0.39,8,1601359020,16.093,255.5,18.49,2020-09-29 05:59:00,29.66,2020-09-29 13:24:00,19.13,2020-09-29 06:07:00,32.38,2020-09-29 13:42:00
Gulmi,Musikot,27.93856667,83.44315278,2020-09-29 00:00:00,Humid and partly cloudy throughout the day.,partly-cloudy-day,2020-09-29 06:04:00,2020-09-29 18:01:00,0.43,0.056,0.1557,2020-09-29 17:22:00,0.14,rain,32.08,2020-09-29 13:23:00,19.83,2020-09-30 05:35:00,37.86,2020-09-29 15:49:00,20.11,2020-09-30 05:34:00,21.21,0.77,1007.5,1.07,2.18,1601369340,15,0.44,8,1601359020,16.093,255.4,20.13,2020-09-29 05:42:00,32.08,2020-09-29 13:23:00,20.74,2020-09-29 05:41:00,37.86,2020-09-29 15:49:00
Gulmi,Tamghas,28.16998056,83.26802778,2020-09-29 00:00:00,Partly cloudy throughout the day.,partly-cloudy-day,2020-09-29 06:05:00,2020-09-29 18:02:00,0.43,0.055,0.2903,2020-09-29 17:33:00,0.18,rain,27.74,2020-09-29 13:11:00,15.62,2020-09-30 05:52:00,28.86,2020-09-29 13:25:00,15.89,2020-09-30 05:53:00,17.72,0.85,1008.9,1.23,2.23,1601369640,355,0.45,9,1601359260,16.093,253.9,14.87,2020-09-29 06:06:00,27.74,2020-09-29 13:11:00,15.14,2020-09-29 06:06:00,28.86,2020-09-29 13:25:00
Humla,Simikot,29.73056889,82.07185,2020-09-29 00:00:00,Clear throughout the day.,clear-day,2020-09-29 06:10:00,2020-09-29 18:06:00,0.43,0.0007,0.0041,2020-09-29 20:41:00,0.02,rain,22.85,2020-09-29 13:50:00,10.75,2020-09-30 05:35:00,22.57,2020-09-29 13:50:00,11.02,2020-09-30 05:35:00,12.48,0.88,1012.4,0.95,3.08,1601368740,89,0.04,11,1601360520,16.093,251.3,9.06,2020-09-29 05:19:00,22.85,2020-09-29 13:50:00,9.33,2020-09-29 05:19:00,22.57,2020-09-29 13:50:00
Humla,Simikot Airport,29.77827806,81.95264499999999,2020-09-29 00:00:00,Clear throughout the day.,clear-day,2020-09-29 06:11:00,2020-09-29 18:06:00,0.43,0.0006,0.0041,2020-09-29 20:41:00,0.02,rain,24.01,2020-09-29 13:50:00,11.39,2020-09-30 05:36:00,23.73,2020-09-29 13:50:00,11.66,2020-09-30 05:36:00,12.02,0.81,1012.4,0.9,2.99,1601369100,178,0.04,10,1601360460,16.093,251.9,9.59,2020-09-29 05:15:00,24.01,2020-09-29 13:50:00,9.86,2020-09-29 05:15:00,23.73,2020-09-29 13:50:00
Humla,Thali,29.91966194,81.87920194,2020-09-29 00:00:00,Clear throughout the day.,clear-day,2020-09-29 06:11:00,2020-09-29 18:07:00,0.43,0.0007,0.0041,2020-09-29 20:42:00,0.02,rain,18.02,2020-09-29 13:32:00,7.41,2020-09-30 01:25:00,17.74,2020-09-29 13:32:00,7.68,2020-09-30 01:25:00,8.73,0.89,1013.8,1.16,3.74,1601366640,95,0.05,11,1601360460,16.093,250.0,5.81,2020-09-29 05:28:00,18.02,2020-09-29 13:32:00,6.08,2020-09-29 05:28:00,17.74,2020-09-29 13:32:00
Ilam,Himali Gaun,26.90963889,87.92308333,2020-09-29 00:00:00,Humid and mostly cloudy throughout the day.,partly-cloudy-day,2020-09-29 05:46:00,2020-09-29 17:43:00,0.43,0.1431,0.5286,2020-09-29 15:35:00,0.31,rain,27.35,2020-09-29 11:58:00,19.66,2020-09-30 06:05:00,36.42,2020-09-29 12:17:00,21.24,2020-09-30 06:00:00,22.77,1.0,1007.8,1.12,2.5,1601360760,110,0.75,7,1601358240,14.92,251.9,19.04,2020-09-29 05:43:00,27.35,2020-09-29 11:58:00,20.62,2020-09-29 05:41:00,36.42,2020-09-29 12:17:00
Ilam,Ilam Tea Estate,27.06666667,88.0,2020-09-29 00:00:00,Foggy in the afternoon and evening.,rain,2020-09-29 05:46:00,2020-09-29 17:43:00,0.43,0.1965,0.692,2020-09-29 16:15:00,0.4,rain,20.21,2020-09-29 10:58:00,13.26,2020-09-30 05:41:00,22.34,2020-09-29 11:08:00,15.51,2020-09-30 05:38:00,15.43,1.0,1009.1,0.9,2.55,1601362020,149,0.77,7,1601357880,12.079,249.4,12.35,2020-09-29 05:33:00,20.21,2020-09-29 10:58:00,14.71,2020-09-29 05:30:00,22.34,2020-09-29 11:08:00
Ilam,Kanyam Tea Estate,26.8,87.9,2020-09-29 00:00:00,Humid and mostly cloudy throughout the day.,partly-cloudy-day,2020-09-29 05:46:00,2020-09-29 17:43:00,0.43,0.0965,0.3793,2020-09-29 15:07:00,0.28,rain,31.93,2020-09-29 12:45:00,23.18,2020-09-30 05:42:00,46.74,2020-09-29 12:54:00,24.54,2020-09-30 05:41:00,26.75,0.98,1006.7,1.3,2.19,1601361240,12,0.72,7,1601358600,16.093,253.9,22.67,2020-09-29 05:42:00,31.93,2020-09-29 12:45:00,24.02,2020-09-29 05:40:00,46.74,2020-09-29 12:54:00
Ilam,Soktim Tea E,26.88652778,88.02738889,2020-09-29 00:00:00,Humid and mostly cloudy throughout the day.,partly-cloudy-day,2020-09-29 05:46:00,2020-09-29 17:43:00,0.43,0.1543,0.546,2020-09-29 16:08:00,0.32,rain,24.33,2020-09-29 12:07:00,17.74,2020-09-30 05:45:00,25.88,2020-09-29 12:16:00,19.37,2020-09-30 05:44:00,20.16,1.0,1007.6,1.15,2.41,1601361660,58,0.76,7,1601358360,14.756,252.1,17.15,2020-09-29 05:43:00,24.33,2020-09-29 12:07:00,18.8,2020-09-29 05:41:00,25.88,2020-09-29 12:16:00
Jajarkot,Bhanu Thana,28.961315000000003,82.268888,2020-09-29 00:00:00,Clear throughout the day.,clear-day,2020-09-29 06:09:00,2020-09-29 18:05:00,0.43,0.0043,0.0224,2020-09-29 14:52:00,0.09,rain,23.52,2020-09-29 12:49:00,12.13,2020-09-30 05:36:00,23.24,2020-09-29 12:49:00,12.4,2020-09-30 05:36:00,14.02,0.9,1011.2,1.46,2.94,1601336280,122,0.34,9,1601359080,15.132,250.8,10.14,2020-09-29 05:14:00,23.52,2020-09-29 12:49:00,10.64,2020-09-29 05:16:00,23.24,2020-09-29 12:49:00
Jajarkot,Maina Gaun (D.Bas),28.69860389,82.200792,2020-09-29 00:00:00,Humid throughout the day.,clear-day,2020-09-29 06:10:00,2020-09-29 18:06:00,0.43,0.0102,0.0398,2020-09-29 14:46:00,0.09,rain,30.02,2020-09-29 13:53:00,18.36,2020-09-30 06:14:00,32.59,2020-09-29 15:44:00,18.63,2020-09-30 06:14:00,19.87,0.82,1008.8,1.0,2.06,1601369220,190,0.24,9,1601358900,16.093,255.1,18.01,2020-09-29 06:05:00,30.02,2020-09-29 13:53:00,18.33,2020-09-29 06:04:00,32.59,2020-09-29 15:44:00
Jhapa,Anarmani Birta,26.6706658,87.7004293,2020-09-29 00:00:00,Humid and mostly cloudy throughout the day.,partly-cloudy-day,2020-09-29 05:47:00,2020-09-29 17:44:00,0.43,0.0391,0.2289,2020-09-29 14:50:00,0.18,rain,33.47,2020-09-29 13:21:00,24.61,2020-09-30 05:43:00,47.73,2020-09-29 12:55:00,25.88,2020-09-30 06:09:00,26.8,0.9,1005.7,1.42,2.24,1601370180,311,0.65,7,1601357880,16.093,255.4,24.21,2020-09-29 05:37:00,33.47,2020-09-29 13:21:00,25.49,2020-09-29 05:35:00,47.73,2020-09-29 12:55:00
Jhapa,Chnadra Gadhi,26.39616667,88.00375,2020-09-29 00:00:00,Humid and mostly cloudy throughout the day.,partly-cloudy-day,2020-09-29 05:46:00,2020-09-29 17:43:00,0.43,0.0195,0.0836,2020-09-29 01:43:00,0.1,rain,31.6,2020-09-29 14:43:00,23.58,2020-09-30 05:47:00,40.39,2020-09-29 14:37:00,24.68,2020-09-30 05:45:00,24.67,0.85,1005.5,1.3,2.43,1601374020,161,0.73,7,1601358960,16.093,256.3,23.6,2020-09-29 05:38:00,31.6,2020-09-29 14:43:00,24.66,2020-09-29 03:52:00,40.39,2020-09-29 14:37:00
Jhapa,Gaida (Kankai),26.68972222,87.98861111,2020-09-29 00:00:00,Humid and mostly cloudy throughout the day.,partly-cloudy-day,2020-09-29 05:46:00,2020-09-29 17:43:00,0.43,0.0796,0.2579,2020-09-29 15:14:00,0.24,rain,32.68,2020-09-29 12:55:00,23.77,2020-09-30 05:42:00,47.35,2020-09-29 13:03:00,25.05,2020-09-30 05:41:00,26.76,0.93,1006.2,1.32,2.23,1601369820,2,0.72,7,1601358960,16.093,255.0,23.54,2020-09-29 05:44:00,32.68,2020-09-29 12:55:00,24.8,2020-09-29 05:43:00,47.35,2020-09-29 13:03:00
Jhapa,Jumla,26.5647011,88.0614307,2020-09-29 00:00:00,Humid and mostly cloudy throughout the day.,partly-cloudy-day,2020-09-29 05:46:00,2020-09-29 17:43:00,0.43,0.0401,0.0941,2020-09-29 15:26:00,0.14,rain,31.83,2020-09-29 13:06:00,23.18,2020-09-30 05:43:00,42.62,2020-09-29 12:55:00,24.27,2020-09-30 05:42:00,25.22,0.87,1005.8,1.29,2.47,1601371380,133,0.71,7,1601359140,16.093,255.7,23.22,2020-09-29 05:41:00,31.83,2020-09-29 13:06:00,24.32,2020-09-29 05:39:00,42.62,2020-09-29 12:55:00
Jhapa,Kechana,26.65688889,87.86072222,2020-09-29 00:00:00,Humid and mostly cloudy throughout the day.,partly-cloudy-day,2020-09-29 05:46:00,2020-09-29 17:43:00,0.43,0.05,0.2035,2020-09-29 15:01:00,0.19,rain,32.95,2020-09-29 12:58:00,24.13,2020-09-30 05:42:00,46.7,2020-09-29 12:52:00,25.39,2020-09-30 05:41:00,26.43,0.89,1005.9,1.37,2.28,1601370240,287,0.69,7,1601358120,16.093,255.3,23.88,2020-09-29 05:41:00,32.95,2020-09-29 12:58:00,25.11,2020-09-29 05:39:00,46.7,2020-09-29 12:52:00
Jhapa,Sanischare,26.625063899999997,87.98858059999999,2020-09-29 00:00:00,Humid and mostly cloudy throughout the day.,partly-cloudy-day,2020-09-29 05:46:00,2020-09-29 17:43:00,0.43,0.06,0.1756,2020-09-29 15:25:00,0.19,rain,32.41,2020-09-29 12:57:00,23.71,2020-09-30 05:41:00,45.78,2020-09-29 12:55:00,24.92,2020-09-30 05:40:00,26.15,0.9,1006.0,1.29,2.34,1601370600,197,0.71,7,1601359020,16.093,255.4,23.54,2020-09-29 05:41:00,32.41,2020-09-29 12:57:00,24.74,2020-09-29 05:40:00,45.78,2020-09-29 12:55:00
Jumla,Dipal Gaun,29.23088056,82.33041944,2020-09-29 00:00:00,Clear throughout the day.,clear-day,2020-09-29 06:09:00,2020-09-29 18:05:00,0.43,0.0044,0.0305,2020-09-29 17:45:00,0.1,rain,20.42,2020-09-29 12:51:00,6.65,2020-09-30 05:36:00,20.14,2020-09-29 12:51:00,6.16,2020-09-30 05:33:00,9.62,0.89,1012.1,1.27,2.81,1601362020,86,0.25,10,1601361600,16.093,248.9,4.52,2020-09-29 05:35:00,20.42,2020-09-29 12:51:00,3.69,2020-09-29 05:32:00,20.14,2020-09-29 12:51:00
Jumla,Jacha,29.43111111,82.10744444,2020-09-29 00:00:00,Clear throughout the day.,clear-day,2020-09-29 06:10:00,2020-09-29 18:06:00,0.43,0.0054,0.0346,2020-09-29 17:42:00,0.09,rain,19.8,2020-09-29 13:31:00,6.04,2020-09-30 05:33:00,19.52,2020-09-29 13:31:00,5.36,2020-09-30 05:29:00,9.47,0.91,1011.8,1.38,3.19,1601365380,59,0.17,11,1601361240,16.093,250.9,4.7,2020-09-29 05:26:00,19.8,2020-09-29 13:31:00,3.79,2020-09-29 05:24:00,19.52,2020-09-29 13:31:00
Jumla,Jumla,29.26385556,82.22301111,2020-09-29 00:00:00,Clear throughout the day.,clear-day,2020-09-29 06:10:00,2020-09-29 18:06:00,0.43,0.0072,0.0489,2020-09-29 17:44:00,0.13,rain,22.13,2020-09-29 12:57:00,7.3,2020-09-30 05:34:00,21.85,2020-09-29 12:57:00,6.8,2020-09-30 05:31:00,10.23,0.86,1011.9,1.26,2.82,1601362920,66,0.29,10,1601361660,16.093,249.8,5.86,2020-09-29 05:36:00,22.13,2020-09-29 12:57:00,5.13,2020-09-29 05:31:00,21.85,2020-09-29 12:57:00
Jumla,Tatopani,29.316667,82.283333,2020-09-29 00:00:00,Clear throughout the day.,clear-day,2020-09-29 06:09:00,2020-09-29 18:05:00,0.43,0.0044,0.0324,2020-09-29 17:45:00,0.1,rain,18.88,2020-09-29 13:11:00,5.17,2020-09-30 05:39:00,18.6,2020-09-29 13:11:00,4.3,2020-09-30 05:34:00,8.62,0.91,1012.1,1.35,3.04,1601363280,71,0.23,11,1601361720,16.093,249.3,3.32,2020-09-29 05:39:00,18.88,2020-09-29 13:11:00,2.15,2020-09-29 05:32:00,18.6,2020-09-29 13:11:00
Kabhre,Budal (Banepa),27.61611667,85.56550278,2020-09-29 00:00:00,Humid and partly cloudy throughout the day.,partly-cloudy-day,2020-09-29 05:56:00,2020-09-29 17:52:00,0.43,0.0638,0.2882,2020-09-29 23:52:00,0.25,rain,27.4,2020-09-29 13:01:00,16.55,2020-09-30 05:47:00,30.15,2020-09-29 13:12:00,17.42,2020-09-30 05:45:00,20.35,0.97,1008.1,0.8,2.18,1601368380,166,0.63,9,1601358900,16.093,252.5,15.94,2020-09-29 05:42:00,27.4,2020-09-29 13:01:00,16.68,2020-09-29 05:43:00,30.15,2020-09-29 13:12:00
Kabhre,Dhulikhel,27.63882194,85.70498083,2020-09-29 00:00:00,Humid and partly cloudy throughout the day.,partly-cloudy-day,2020-09-29 05:55:00,2020-09-29 17:52:00,0.43,0.0711,0.4575,2020-09-29 23:46:00,0.25,rain,30.79,2020-09-29 13:23:00,18.35,2020-09-30 05:43:00,36.23,2020-09-29 15:37:00,19.0,2020-09-30 05:41:00,21.72,0.87,1008.1,0.8,1.9,1601367900,244,0.57,9,1601359440,16.093,252.5,17.98,2020-09-29 05:40:00,30.79,2020-09-29 13:23:00,18.56,2020-09-29 05:40:00,36.23,2020-09-29 15:37:00
Kabhre,Dolal Ghat,27.69382389,85.635637,2020-09-29 00:00:00,Humid and partly cloudy throughout the day.,partly-cloudy-day,2020-09-29 05:56:00,2020-09-29 17:52:00,0.43,0.0645,0.4742,2020-09-29 23:48:00,0.23,rain,29.86,2020-09-29 13:42:00,17.17,2020-09-30 05:44:00,33.37,2020-09-29 13:50:00,17.69,2020-09-30 05:43:00,20.49,0.87,1008.1,0.74,1.97,1601369100,213,0.55,9,1601359320,16.093,252.5,16.78,2020-09-29 05:42:00,29.86,2020-09-29 13:42:00,17.23,2020-09-29 05:42:00,33.37,2020-09-29 13:50:00
Kabhre,Panchkhal,27.63333333,85.51666667,2020-09-29 00:00:00,Humid and partly cloudy throughout the day.,partly-cloudy-day,2020-09-29 05:56:00,2020-09-29 17:53:00,0.43,0.0597,0.2709,2020-09-29 23:59:00,0.23,rain,27.6,2020-09-29 13:03:00,16.49,2020-09-30 05:44:00,30.35,2020-09-29 13:17:00,17.29,2020-09-30 05:44:00,20.27,0.96,1008.1,0.77,2.27,1601368800,154,0.63,9,1601358900,16.093,252.5,15.81,2020-09-29 05:40:00,27.6,2020-09-29 13:03:00,16.47,2020-09-29 05:41:00,30.35,2020-09-29 13:17:00
Kailali,Dhangadhi,28.68333333,80.6,2020-09-29 00:00:00,Humid throughout the day.,clear-day,2020-09-29 06:16:00,2020-09-29 18:12:00,0.43,0.0014,0.0071,2020-09-29 05:43:00,0.01,rain,32.84,2020-09-29 14:10:00,22.57,2020-09-30 05:41:00,40.48,2020-09-29 12:19:00,23.55,2020-09-30 05:39:00,24.03,0.81,1005.6,1.25,2.09,1601374080,332,0.06,9,1601360460,16.093,261.6,23.41,2020-09-29 05:43:00,32.84,2020-09-29 14:10:00,24.49,2020-09-29 05:40:00,40.48,2020-09-29 12:19:00
Kailali,Godavari(West),28.554054999999998,80.831765,2020-09-29 00:00:00,Humid throughout the day.,clear-day,2020-09-29 06:15:00,2020-09-29 18:11:00,0.43,0.0049,0.0403,2020-09-29 05:43:00,0.03,rain,32.7,2020-09-29 14:19:00,22.63,2020-09-30 05:45:00,39.24,2020-09-29 12:52:00,23.62,2020-09-30 05:43:00,23.69,0.8,1005.6,1.25,2.12,1601317200,9,0.08,9,1601359920,16.093,261.0,23.38,2020-09-29 03:49:00,32.7,2020-09-29 14:19:00,24.41,2020-09-29 03:49:00,39.24,2020-09-29 12:52:00
Kailali,Malakheti,28.83333333,80.56666667,2020-09-29 00:00:00,Humid throughout the day.,clear-day,2020-09-29 06:16:00,2020-09-29 18:12:00,0.43,0.0018,0.0095,2020-09-29 16:45:00,0.02,rain,33.46,2020-09-29 14:22:00,22.64,2020-09-30 05:39:00,43.98,2020-09-29 16:30:00,23.59,2020-09-30 05:38:00,24.9,0.83,1006.3,1.25,1.93,1601367360,341,0.08,8,1601360580,16.093,261.2,23.38,2020-09-29 05:36:00,33.46,2020-09-29 14:22:00,24.45,2020-09-29 05:34:00,43.98,2020-09-29 16:30:00
Kailali,Sitapur,28.66417611,80.97850889,2020-09-29 00:00:00,Humid throughout the day.,clear-day,2020-09-29 06:14:00,2020-09-29 18:11:00,0.43,0.0057,0.0385,2020-09-29 05:39:00,0.04,rain,33.46,2020-09-29 13:56:00,23.75,2020-09-30 06:17:00,42.45,2020-09-29 16:26:00,24.83,2020-09-30 06:16:00,24.96,0.84,1006.1,1.26,2.06,1601322660,37,0.14,8,1601360040,16.093,260.5,23.7,2020-09-29 06:01:00,33.46,2020-09-29 13:56:00,24.87,2020-09-29 05:45:00,42.45,2020-09-29 16:26:00
Kailali,Teghari,28.87623,80.57918889,2020-09-29 00:00:00,Humid throughout the day.,clear-day,2020-09-29 06:16:00,2020-09-29 18:12:00,0.43,0.0026,0.0162,2020-09-29 16:45:00,0.03,rain,32.88,2020-09-29 14:02:00,22.39,2020-09-30 05:35:00,42.76,2020-09-29 16:12:00,23.33,2020-09-30 05:34:00,24.75,0.85,1006.6,1.26,1.95,1601366940,352,0.1,8,1601360640,16.093,260.8,22.89,2020-09-29 05:26:00,32.88,2020-09-29 14:02:00,23.94,2020-09-29 05:21:00,42.76,2020-09-29 16:12:00
Kalikot,Mahendra Nagar,29.09644444,81.70052778,2020-09-29 00:00:00,Humid throughout the day.,clear-day,2020-09-29 06:12:00,2020-09-29 18:08:00,0.43,0.0053,0.0281,2020-09-29 14:56:00,0.08,rain,27.32,2020-09-29 12:55:00,16.42,2020-09-30 06:13:00,28.03,2020-09-29 13:16:00,16.69,2020-09-30 06:13:00,17.13,0.84,1009.5,1.42,2.79,1601335800,345,0.2,9,1601361000,16.093,253.8,14.92,2020-09-29 05:48:00,27.32,2020-09-29 12:55:00,15.19,2020-09-29 05:48:00,28.03,2020-09-29 13:16:00
Kalikot,Manma,29.2495,81.63913889,2020-09-29 00:00:00,Humid throughout the day.,clear-day,2020-09-29 06:12:00,2020-09-29 18:08:00,0.43,0.0022,0.0105,2020-09-29 17:26:00,0.08,rain,26.39,2020-09-29 13:12:00,14.42,2020-09-30 05:57:00,26.28,2020-09-29 13:16:00,14.69,2020-09-30 05:57:00,15.88,0.87,1010.2,1.44,3.15,1601336100,11,0.2,9,1601360340,16.093,253.6,12.6,2020-09-29 05:43:00,26.39,2020-09-29 13:12:00,12.87,2020-09-29 05:43:00,26.28,2020-09-29 13:16:00
Kalikot,Nagma,29.12995833,81.58836111,2020-09-29 00:00:00,Humid throughout the day.,clear-day,2020-09-29 06:12:00,2020-09-29 18:08:00,0.43,0.004,0.0127,2020-09-29 22:26:00,0.06,rain,28.82,2020-09-29 13:21:00,17.99,2020-09-30 05:41:00,29.44,2020-09-29 13:37:00,18.26,2020-09-30 05:41:00,17.04,0.77,1009.7,1.44,3.18,1601335800,21,0.19,8,1601360520,16.093,254.7,16.43,2020-09-29 05:12:00,28.82,2020-09-29 13:21:00,16.7,2020-09-29 05:12:00,29.44,2020-09-29 13:37:00
Kanchanpur,Dodhara,28.86185889,80.44044194,2020-09-29 00:00:00,Humid throughout the day.,clear-day,2020-09-29 06:17:00,2020-09-29 18:13:00,0.43,0.0007,0.0041,2020-09-29 20:45:00,0.01,rain,33.28,2020-09-29 14:13:00,22.34,2020-09-30 05:38:00,42.85,2020-09-29 16:31:00,23.27,2020-09-30 05:36:00,24.62,0.83,1006.2,1.26,1.93,1601372460,339,0.08,8,1601360820,16.093,261.7,23.33,2020-09-29 05:38:00,33.28,2020-09-29 14:13:00,24.37,2020-09-29 05:35:00,42.85,2020-09-29 16:31:00
Kanchanpur,Hanmannagar,28.698575,80.37540389,2020-09-29 00:00:00,Humid throughout the day.,clear-day,2020-09-29 06:17:00,2020-09-29 18:13:00,0.43,0.0,0.0,2020-09-29 20:45:00,0.0,,32.37,2020-09-29 14:42:00,21.85,2020-09-30 05:37:00,38.71,2020-09-29 12:11:00,22.72,2020-09-30 05:35:00,23.06,0.79,1005.9,1.16,2.5,1601378940,305,0.08,9,1601361000,16.093,262.3,22.74,2020-09-29 03:45:00,32.37,2020-09-29 14:42:00,23.69,2020-09-29 03:45:00,38.71,2020-09-29 12:11:00
Kanchanpur,Taulihawa,28.89702,80.36996389,2020-09-29 00:00:00,Humid throughout the day.,clear-day,2020-09-29 06:17:00,2020-09-29 18:13:00,0.43,0.0,0.0,2020-09-29 20:45:00,0.0,,33.36,2020-09-29 14:05:00,22.39,2020-09-30 05:32:00,42.61,2020-09-29 16:27:00,23.33,2020-09-30 05:31:00,24.68,0.83,1006.2,1.29,1.99,1601316900,353,0.08,8,1601360640,16.093,261.9,23.4,2020-09-29 05:37:00,33.36,2020-09-29 14:05:00,24.46,2020-09-29 05:34:00,42.61,2020-09-29 16:27:00
Kapilbastu,Banganga,27.669936100000005,82.7911917,2020-09-29 00:00:00,Humid throughout the day.,clear-day,2020-09-29 06:07:00,2020-09-29 18:04:00,0.43,0.0036,0.0688,2020-09-29 00:00:00,0.02,rain,33.95,2020-09-29 13:56:00,22.99,2020-09-30 05:26:00,40.73,2020-09-29 13:40:00,23.87,2020-09-30 05:28:00,23.2,0.74,1005.2,1.69,2.69,1601370360,26,0.23,8,1601356560,16.093,258.5,23.42,2020-09-29 05:17:00,33.95,2020-09-29 13:56:00,24.38,2020-09-29 05:18:00,40.73,2020-09-29 13:40:00
Kapilvastu,Bahadur Ganj,27.693294399999996,83.1612556,2020-09-29 00:00:00,Humid and partly cloudy throughout the day.,partly-cloudy-day,2020-09-29 06:05:00,2020-09-29 18:02:00,0.43,0.0355,0.1416,2020-09-29 01:42:00,0.11,rain,34.31,2020-09-29 14:05:00,23.97,2020-09-30 05:36:00,44.35,2020-09-29 14:33:00,24.76,2020-09-30 05:36:00,24.78,0.8,1005.9,1.71,2.52,1601369640,41,0.34,7,1601359680,16.093,257.6,23.65,2020-09-29 05:19:00,34.31,2020-09-29 14:05:00,24.76,2020-09-29 05:18:00,44.35,2020-09-29 14:33:00
Kapilvastu,Sallyan (Kaski),27.55,83.85,2020-09-29 00:00:00,Humid and partly cloudy throughout the day.,partly-cloudy-day,2020-09-29 06:03:00,2020-09-29 17:59:00,0.43,0.0178,0.0542,2020-09-29 15:54:00,0.05,rain,30.29,2020-09-29 14:28:00,22.05,2020-09-30 05:42:00,34.13,2020-09-29 14:57:00,22.76,2020-09-30 05:43:00,21.67,0.8,1005.7,1.45,2.67,1601373060,63,0.32,8,1601359740,16.093,257.3,22.01,2020-09-29 03:38:00,30.29,2020-09-29 14:28:00,22.86,2020-09-29 03:35:00,34.13,2020-09-29 14:57:00
Kaski,Begnas,28.212011100000005,83.8915417,2020-09-29 00:00:00,Partly cloudy throughout the day.,partly-cloudy-day,2020-09-29 06:03:00,2020-09-29 17:59:00,0.43,0.1025,0.478,2020-09-29 23:01:00,0.23,rain,26.06,2020-09-29 12:54:00,15.68,2020-09-30 05:49:00,26.16,2020-09-29 12:55:00,15.95,2020-09-30 05:50:00,17.1,0.85,1008.5,1.86,2.72,1601368380,31,0.42,9,1601359860,16.093,254.4,15.53,2020-09-29 05:43:00,26.06,2020-09-29 12:54:00,15.8,2020-09-29 05:43:00,26.16,2020-09-29 12:55:00
Kaski,Begnas Tal,28.35805556,84.105175,2020-09-29 00:00:00,Partly cloudy throughout the day.,partly-cloudy-day,2020-09-29 06:02:00,2020-09-29 17:58:00,0.43,0.0736,0.4187,2020-09-29 23:15:00,0.17,rain,20.26,2020-09-29 12:39:00,12.23,2020-09-30 06:06:00,20.72,2020-09-29 12:46:00,12.49,2020-09-30 06:09:00,15.0,0.99,1010.1,2.28,2.87,1601360340,4,0.37,10,1601359800,15.765,250.5,10.6,2020-09-29 05:17:00,20.26,2020-09-29 12:39:00,10.87,2020-09-29 05:17:00,20.72,2020-09-29 12:46:00
Kaski,Bhadaure Deurali,28.21849444,83.9742,2020-09-29 00:00:00,Partly cloudy throughout the day.,partly-cloudy-day,2020-09-29 06:02:00,2020-09-29 17:59:00,0.43,0.1037,0.5651,2020-09-29 22:57:00,0.22,rain,27.66,2020-09-29 12:58:00,16.09,2020-09-30 05:44:00,28.59,2020-09-29 13:05:00,16.36,2020-09-30 05:44:00,16.39,0.76,1008.5,2.4,2.95,1601365140,31,0.44,10,1601359920,16.093,254.5,15.91,2020-09-29 05:33:00,27.66,2020-09-29 12:58:00,16.18,2020-09-29 05:33:00,28.59,2020-09-29 13:05:00
Kaski,Ghandruk,28.26168056,83.96873333,2020-09-29 00:00:00,Partly cloudy throughout the day.,partly-cloudy-day,2020-09-29 06:02:00,2020-09-29 17:59:00,0.43,0.1062,0.5843,2020-09-29 22:57:00,0.23,rain,26.58,2020-09-29 12:54:00,15.45,2020-09-30 05:44:00,26.64,2020-09-29 12:54:00,15.72,2020-09-30 05:44:00,16.05,0.78,1008.8,2.54,3.11,1601364060,31,0.43,10,1601359920,16.093,253.9,15.06,2020-09-29 05:34:00,26.58,2020-09-29 12:54:00,15.33,2020-09-29 05:34:00,26.64,2020-09-29 12:54:00
Kaski,Lamachaur,28.29653889,83.81791111,2020-09-29 00:00:00,Humid and partly cloudy throughout the day.,partly-cloudy-day,2020-09-29 06:03:00,2020-09-29 17:59:00,0.43,0.0891,0.3704,2020-09-29 22:58:00,0.22,rain,24.22,2020-09-29 12:52:00,14.52,2020-09-30 06:10:00,24.55,2020-09-29 12:56:00,14.81,2020-09-30 06:01:00,17.35,0.96,1009.2,1.51,2.69,1601368740,27,0.36,9,1601359680,16.075,252.9,13.86,2020-09-29 05:36:00,24.22,2020-09-29 12:52:00,14.13,2020-09-29 05:35:00,24.55,2020-09-29 12:56:00
Kaski,Lumle,28.26555556,83.82211944,2020-09-29 00:00:00,Humid and partly cloudy throughout the day.,partly-cloudy-day,2020-09-29 06:03:00,2020-09-29 17:59:00,0.43,0.1012,0.431,2020-09-29 22:58:00,0.24,rain,25.23,2020-09-29 12:52:00,15.22,2020-09-30 06:03:00,25.47,2020-09-29 12:54:00,15.5,2020-09-30 05:59:00,17.47,0.92,1009.0,1.54,2.75,1601368920,30,0.38,9,1601359740,16.093,253.7,14.8,2020-09-29 05:39:00,25.23,2020-09-29 12:52:00,15.07,2020-09-29 05:38:00,25.47,2020-09-29 12:54:00
Kaski,Pokhara Airport,28.22,84.0,2020-09-29 00:00:00,Partly cloudy throughout the day.,partly-cloudy-day,2020-09-29 06:02:00,2020-09-29 17:59:00,0.43,0.1041,0.5923,2020-09-29 22:57:00,0.22,rain,27.3,2020-09-29 12:59:00,15.92,2020-09-30 06:00:00,28.14,2020-09-29 13:04:00,16.19,2020-09-30 06:00:00,16.06,0.76,1008.4,2.57,3.05,1601363160,32,0.45,10,1601359920,16.093,254.5,15.75,2020-09-29 06:14:00,27.3,2020-09-29 12:59:00,16.02,2020-09-29 06:14:00,28.14,2020-09-29 13:04:00
Kaski,Pokhara Airport,28.23333333,84.0,2020-09-29 00:00:00,Partly cloudy throughout the day.,partly-cloudy-day,2020-09-29 06:02:00,2020-09-29 17:59:00,0.43,0.1075,0.6161,2020-09-29 22:57:00,0.23,rain,26.75,2020-09-29 12:58:00,15.69,2020-09-30 06:03:00,27.43,2020-09-29 12:49:00,15.96,2020-09-30 06:03:00,15.87,0.77,1008.4,2.67,3.15,1601361900,32,0.45,10,1601359920,16.093,254.4,15.51,2020-09-29 06:16:00,26.75,2020-09-29 12:58:00,15.78,2020-09-29 06:16:00,27.43,2020-09-29 12:49:00
Kathmandu,Budhanilakan,27.78333333,85.31666667,2020-09-29 00:00:00,Partly cloudy throughout the day.,partly-cloudy-day,2020-09-29 05:57:00,2020-09-29 17:53:00,0.43,0.0285,0.2345,2020-09-29 23:48:00,0.13,rain,28.2,2020-09-29 12:55:00,16.43,2020-09-30 05:42:00,29.73,2020-09-29 13:04:00,16.89,2020-09-30 05:41:00,18.82,0.86,1008.1,0.86,2.74,1601370000,231,0.49,9,1601358960,16.093,252.4,16.16,2020-09-29 05:28:00,28.2,2020-09-29 12:55:00,16.55,2020-09-29 05:30:00,29.73,2020-09-29 13:04:00
Kathmandu,Kathmandu Airport,27.703825,85.35624722,2020-09-29 00:00:00,Humid and partly cloudy throughout the day.,partly-cloudy-day,2020-09-29 05:57:00,2020-09-29 17:53:00,0.43,0.0431,0.2589,2020-09-29 23:51:00,0.16,rain,27.99,2020-09-29 13:49:00,16.78,2020-09-30 05:37:00,30.22,2020-09-29 14:01:00,17.39,2020-09-30 05:37:00,20.3,0.84,1008.0,0.74,2.62,1601369760,186,0.52,9,1601358720,14.298,252.7,16.5,2020-09-29 04:45:00,27.99,2020-09-29 13:49:00,17.03,2020-09-29 04:45:00,30.22,2020-09-29 14:01:00
Kathmandu,Naikap,27.7726953,85.4277003,2020-09-29 00:00:00,Partly cloudy throughout the day.,partly-cloudy-day,2020-09-29 05:56:00,2020-09-29 17:53:00,0.43,0.0391,0.3381,2020-09-29 23:54:00,0.15,rain,25.81,2020-09-29 13:05:00,15.19,2020-09-30 05:43:00,25.88,2020-09-29 13:08:00,15.58,2020-09-30 05:42:00,17.46,0.89,1008.1,0.74,2.48,1601369820,122,0.51,9,1601359080,16.077,252.3,14.94,2020-09-29 05:35:00,25.81,2020-09-29 13:05:00,15.25,2020-09-29 05:36:00,25.88,2020-09-29 13:08:00
Kathmandu,Pharping,27.76666667,85.31666667,2020-09-29 00:00:00,Partly cloudy throughout the day.,partly-cloudy-day,2020-09-29 05:57:00,2020-09-29 17:53:00,0.43,0.03,0.2495,2020-09-29 23:48:00,0.13,rain,28.49,2020-09-29 12:57:00,16.47,2020-09-30 05:40:00,30.1,2020-09-29 13:07:00,16.96,2020-09-30 05:40:00,18.87,0.85,1008.1,0.83,2.79,1601370060,253,0.5,9,1601358960,16.093,252.6,16.33,2020-09-29 05:24:00,28.49,2020-09-29 12:57:00,16.73,2020-09-29 05:26:00,30.1,2020-09-29 13:07:00
Kathmandu,Sankhu,27.73333333,85.33333333,2020-09-29 00:00:00,Partly cloudy throughout the day.,partly-cloudy-day,2020-09-29 05:57:00,2020-09-29 17:53:00,0.43,0.0362,0.2662,2020-09-29 23:49:00,0.14,rain,28.33,2020-09-29 13:01:00,16.49,2020-09-30 05:40:00,30.07,2020-09-29 13:14:00,17.05,2020-09-30 05:39:00,19.16,0.86,1008.0,0.79,2.75,1601370000,181,0.51,9,1601358960,16.093,252.7,16.46,2020-09-29 04:56:00,28.33,2020-09-29 13:01:00,16.93,2020-09-29 04:56:00,30.07,2020-09-29 13:14:00
Kathmandu,Sankhu,27.73333333,85.33333333,2020-09-29 00:00:00,Partly cloudy throughout the day.,partly-cloudy-day,2020-09-29 05:57:00,2020-09-29 17:53:00,0.43,0.0362,0.2662,2020-09-29 23:49:00,0.14,rain,28.33,2020-09-29 13:01:00,16.49,2020-09-30 05:40:00,30.07,2020-09-29 13:14:00,17.05,2020-09-30 05:39:00,19.16,0.86,1008.0,0.79,2.75,1601370000,181,0.51,9,1601358960,16.093,252.7,16.46,2020-09-29 04:56:00,28.33,2020-09-29 13:01:00,16.93,2020-09-29 04:56:00,30.07,2020-09-29 13:14:00
Kathmandu,Sivapuri,27.75,85.43333333,2020-09-29 00:00:00,Partly cloudy throughout the day.,partly-cloudy-day,2020-09-29 05:56:00,2020-09-29 17:53:00,0.43,0.0423,0.3735,2020-09-29 23:54:00,0.16,rain,28.27,2020-09-29 13:21:00,16.01,2020-09-30 05:40:00,29.75,2020-09-29 13:32:00,16.41,2020-09-30 05:40:00,18.29,0.84,1008.2,0.69,2.52,1601370000,129,0.53,9,1601359080,16.093,252.6,15.89,2020-09-29 05:30:00,28.27,2020-09-29 13:21:00,16.22,2020-09-29 05:31:00,29.75,2020-09-29 13:32:00
Kathmandu,Sundarijal,27.8,85.43333333,2020-09-29 00:00:00,Partly cloudy throughout the day.,partly-cloudy-day,2020-09-29 05:56:00,2020-09-29 17:53:00,0.43,0.0362,0.3064,2020-09-29 23:53:00,0.15,rain,23.84,2020-09-29 13:14:00,13.33,2020-09-30 05:40:00,23.9,2020-09-29 13:20:00,13.67,2020-09-30 05:38:00,16.49,0.94,1008.1,0.8,2.4,1601369640,107,0.5,10,1601359020,15.963,252.0,12.88,2020-09-29 05:31:00,23.84,2020-09-29 13:14:00,13.15,2020-09-29 05:31:00,23.9,2020-09-29 13:20:00
Kathmandu,Tarebhir,27.78419167,85.29049444,2020-09-29 00:00:00,Partly cloudy throughout the day.,partly-cloudy-day,2020-09-29 05:57:00,2020-09-29 17:54:00,0.43,0.0262,0.2132,2020-09-29 23:47:00,0.12,rain,27.22,2020-09-29 12:52:00,16.24,2020-09-30 05:43:00,28.39,2020-09-29 13:01:00,16.74,2020-09-30 05:42:00,18.49,0.88,1008.0,0.89,2.8,1601370060,264,0.48,9,1601358900,16.093,252.5,15.98,2020-09-29 05:33:00,27.22,2020-09-29 12:52:00,16.39,2020-09-29 05:35:00,28.39,2020-09-29 13:01:00
Kathmandu,Tokha,27.7972222,85.3577778,2020-09-29 00:00:00,Partly cloudy throughout the day.,partly-cloudy-day,2020-09-29 05:57:00,2020-09-29 17:53:00,0.43,0.0305,0.2527,2020-09-29 23:50:00,0.13,rain,24.25,2020-09-29 13:06:00,14.09,2020-09-30 05:39:00,24.28,2020-09-29 13:12:00,14.48,2020-09-30 05:38:00,16.87,0.93,1007.9,0.85,2.59,1601369880,138,0.49,9,1601358960,16.082,252.2,13.79,2020-09-29 05:27:00,24.25,2020-09-29 13:06:00,14.1,2020-09-29 05:28:00,24.28,2020-09-29 13:12:00
Khotang,Diktel,27.02930083,86.84337278,2020-09-29 00:00:00,Humid and mostly cloudy throughout the day.,partly-cloudy-day,2020-09-29 05:51:00,2020-09-29 17:47:00,0.43,0.134,0.4927,2020-09-29 00:00:00,0.36,rain,27.77,2020-09-29 12:24:00,19.99,2020-09-30 06:06:00,35.88,2020-09-29 12:55:00,21.39,2020-09-30 06:01:00,23.06,1.0,1007.3,0.99,2.05,1601365920,105,0.69,8,1601358960,15.539,252.8,19.71,2020-09-29 05:44:00,27.77,2020-09-29 12:24:00,21.26,2020-09-29 05:43:00,35.88,2020-09-29 12:55:00
Khotang,Dwarpa,27.359795000000002,86.7486619,2020-09-29 00:00:00,Partly cloudy throughout the day.,partly-cloudy-day,2020-09-29 05:51:00,2020-09-29 17:48:00,0.43,0.2145,0.8929,2020-09-29 16:31:00,0.37,rain,21.93,2020-09-29 12:25:00,14.55,2020-09-30 05:43:00,23.23,2020-09-29 12:36:00,15.43,2020-09-30 05:40:00,17.02,1.0,1008.7,1.07,2.19,1601360940,69,0.61,8,1601359080,14.953,250.3,13.95,2020-09-29 05:42:00,21.93,2020-09-29 12:25:00,15.24,2020-09-29 05:40:00,23.23,2020-09-29 12:36:00
Khotang,Khotang Bazar,27.1408985,86.4317585,2020-09-29 00:00:00,Humid and partly cloudy throughout the day.,partly-cloudy-day,2020-09-29 05:52:00,2020-09-29 17:49:00,0.43,0.1351,0.5544,2020-09-29 15:00:00,0.35,rain,31.11,2020-09-29 12:04:00,21.92,2020-09-30 05:40:00,45.57,2020-09-29 12:49:00,23.09,2020-09-30 05:37:00,26.17,0.99,1007.3,1.0,2.23,1601364480,160,0.55,8,1601359380,16.093,253.1,22.2,2020-09-29 05:44:00,31.11,2020-09-29 12:04:00,23.6,2020-09-29 05:40:00,45.57,2020-09-29 12:49:00
Khotang,Kurle Ghat,27.21666667,86.85,2020-09-29 00:00:00,Humid and mostly cloudy throughout the day.,rain,2020-09-29 05:51:00,2020-09-29 17:47:00,0.43,0.2349,0.8246,2020-09-29 17:06:00,0.41,rain,23.13,2020-09-29 13:00:00,15.53,2020-09-30 05:45:00,24.51,2020-09-29 13:07:00,16.81,2020-09-30 05:43:00,18.38,1.0,1008.3,0.91,2.08,1601365560,173,0.66,8,1601359140,15.681,251.4,15.3,2020-09-29 05:44:00,23.13,2020-09-29 13:00:00,16.91,2020-09-29 05:42:00,24.51,2020-09-29 13:07:00
Lalitpur,Chapa Gaun,27.566666700000003,85.3166667,2020-09-29 00:00:00,Humid and partly cloudy throughout the day.,partly-cloudy-day,2020-09-29 05:57:00,2020-09-29 17:53:00,0.43,0.067,0.4547,2020-09-29 16:43:00,0.21,rain,26.38,2020-09-29 12:43:00,16.94,2020-09-30 05:45:00,28.12,2020-09-29 12:45:00,18.15,2020-09-30 05:43:00,20.02,0.98,1007.9,0.94,2.33,1601367240,186,0.65,8,1601359020,16.007,252.8,16.08,2020-09-29 05:38:00,26.38,2020-09-29 12:43:00,17.04,2020-09-29 05:38:00,28.12,2020-09-29 12:45:00
Lalitpur,Godavari,27.68333333,85.3,2020-09-29 00:00:00,Humid and partly cloudy throughout the day.,partly-cloudy-day,2020-09-29 05:57:00,2020-09-29 17:54:00,0.43,0.0436,0.2294,2020-09-29 16:41:00,0.15,rain,28.56,2020-09-29 12:53:00,17.03,2020-09-30 05:41:00,31.04,2020-09-29 13:03:00,17.76,2020-09-30 05:40:00,20.28,0.91,1008.0,0.86,2.67,1601369640,206,0.55,9,1601358960,16.093,252.7,16.7,2020-09-29 05:05:00,28.56,2020-09-29 12:53:00,17.31,2020-09-29 05:07:00,31.04,2020-09-29 13:03:00
Lalitpur,Khokana,27.65,85.38333333,2020-09-29 00:00:00,Humid and partly cloudy throughout the day.,partly-cloudy-day,2020-09-29 05:57:00,2020-09-29 17:53:00,0.43,0.0532,0.263,2020-09-29 16:39:00,0.19,rain,28.32,2020-09-29 12:58:00,17.01,2020-09-30 05:42:00,31.26,2020-09-29 13:14:00,17.78,2020-09-30 05:41:00,20.71,0.94,1008.0,0.83,2.46,1601369160,169,0.59,9,1601358960,16.093,252.6,16.53,2020-09-29 05:07:00,28.32,2020-09-29 12:58:00,17.18,2020-09-29 05:08:00,31.26,2020-09-29 13:14:00
Lalitpur,Khumaltar,27.5929167,85.3788333,2020-09-29 00:00:00,Humid and partly cloudy throughout the day.,partly-cloudy-day,2020-09-29 05:57:00,2020-09-29 17:53:00,0.43,0.062,0.3487,2020-09-29 16:40:00,0.22,rain,26.43,2020-09-29 12:46:00,16.64,2020-09-30 05:45:00,28.17,2020-09-29 12:46:00,17.7,2020-09-30 05:43:00,19.91,0.98,1008.0,0.89,2.36,1601368080,177,0.64,8,1601358900,16.052,252.7,15.9,2020-09-29 05:37:00,26.43,2020-09-29 12:46:00,16.78,2020-09-29 05:38:00,28.17,2020-09-29 12:46:00
Lalitpur,Kritipur (Bagban),27.68333333,85.33333333,2020-09-29 00:00:00,Humid and partly cloudy throughout the day.,partly-cloudy-day,2020-09-29 05:57:00,2020-09-29 17:53:00,0.43,0.0453,0.2259,2020-09-29 23:51:00,0.16,rain,28.42,2020-09-29 13:02:00,16.98,2020-09-30 05:40:00,30.93,2020-09-29 13:18:00,17.67,2020-09-30 05:39:00,20.43,0.89,1008.0,0.82,2.61,1601369580,188,0.55,9,1601358900,16.093,252.7,16.67,2020-09-29 04:49:00,28.42,2020-09-29 13:02:00,17.26,2020-09-29 04:49:00,30.93,2020-09-29 13:18:00
Lalitpur,Lalitpur (Kopundol),27.659325,85.3697083,2020-09-29 00:00:00,Humid and partly cloudy throughout the day.,partly-cloudy-day,2020-09-29 05:57:00,2020-09-29 17:53:00,0.43,0.0512,0.2544,2020-09-29 16:39:00,0.18,rain,28.41,2020-09-29 13:00:00,17.03,2020-09-30 05:42:00,31.28,2020-09-29 13:16:00,17.77,2020-09-30 05:41:00,20.73,0.92,1008.0,0.82,2.5,1601369280,173,0.58,9,1601358900,16.093,252.7,16.61,2020-09-29 04:55:00,28.41,2020-09-29 13:00:00,17.25,2020-09-29 04:56:00,31.28,2020-09-29 13:16:00
Lalitpur,Lubhu,27.60325833,85.32656389,2020-09-29 00:00:00,Humid and partly cloudy throughout the day.,partly-cloudy-day,2020-09-29 05:57:00,2020-09-29 17:53:00,0.43,0.06,0.3751,2020-09-29 16:42:00,0.2,rain,27.21,2020-09-29 12:47:00,17.03,2020-09-30 05:44:00,29.61,2020-09-29 12:51:00,18.05,2020-09-30 05:43:00,20.34,0.97,1007.9,0.91,2.41,1601368380,185,0.62,8,1601358960,16.065,252.7,16.31,2020-09-29 05:34:00,27.21,2020-09-29 12:47:00,17.15,2020-09-29 05:35:00,29.61,2020-09-29 12:51:00
Lalitpur,Tikathali,27.576825,85.3540444,2020-09-29 00:00:00,Humid and partly cloudy throughout the day.,partly-cloudy-day,2020-09-29 05:57:00,2020-09-29 17:53:00,0.43,0.0647,0.397,2020-09-29 16:41:00,0.22,rain,25.66,2020-09-29 12:44:00,16.42,2020-09-30 05:44:00,26.25,2020-09-29 12:47:00,17.58,2020-09-30 05:43:00,19.5,0.99,1007.9,0.92,2.35,1601367600,182,0.65,8,1601358900,16.03,252.7,15.68,2020-09-29 05:38:00,25.66,2020-09-29 12:44:00,16.61,2020-09-29 05:38:00,26.25,2020-09-29 12:47:00
Lamiung,Khudi Bazar,28.12677778,84.34494167,2020-09-29 00:00:00,Partly cloudy throughout the day.,partly-cloudy-day,2020-09-29 06:01:00,2020-09-29 17:57:00,0.43,0.0522,0.315,2020-09-30 00:00:00,0.11,rain,30.7,2020-09-29 13:18:00,17.73,2020-09-30 05:44:00,32.87,2020-09-29 13:15:00,18.0,2020-09-30 05:44:00,18.32,0.74,1008.0,1.33,1.89,1601360160,341,0.38,8,1601361060,16.093,254.4,17.26,2020-09-29 05:29:00,30.7,2020-09-29 13:18:00,17.62,2020-09-29 05:31:00,32.87,2020-09-29 13:15:00
Lamjung,Besishahar,28.25596667,84.47929722,2020-09-28 21:45:00,Humid throughout the day.,fog,2020-09-29 06:00:00,2020-09-29 17:57:00,0.43,0.0208,0.0907,2020-09-29 15:50:00,0.11,rain,26.65,2020-09-29 12:50:00,18.16,2020-09-30 00:49:00,28.42,2020-09-29 12:54:00,18.52,2020-09-30 05:45:00,19.52,0.93,1009.2,1.53,2.61,1601360220,357,0.35,8,1601358900,11.973,252.4,16.41,2020-09-29 05:25:00,26.65,2020-09-29 12:50:00,16.85,2020-09-29 05:27:00,28.42,2020-09-29 12:54:00
Lamjung,Bhorletar,28.21813889,84.24153889,2020-09-29 00:00:00,Partly cloudy throughout the day.,partly-cloudy-day,2020-09-29 06:01:00,2020-09-29 17:58:00,0.43,0.1214,0.8584,2020-09-30 00:00:00,0.21,rain,27.37,2020-09-29 13:02:00,17.13,2020-09-30 06:07:00,28.36,2020-09-29 13:11:00,17.4,2020-09-30 06:07:00,16.72,0.78,1008.1,1.99,2.82,1601331480,344,0.51,9,1601360940,16.093,253.9,15.87,2020-09-29 05:16:00,27.37,2020-09-29 13:02:00,16.14,2020-09-29 05:16:00,28.36,2020-09-29 13:11:00
Lamjung,Faleni,28.30964722,84.26600278,2020-09-29 00:00:00,Humid and partly cloudy throughout the day.,partly-cloudy-day,2020-09-29 06:01:00,2020-09-29 17:58:00,0.43,0.1008,0.7138,2020-09-30 00:00:00,0.19,rain,25.02,2020-09-29 12:42:00,15.8,2020-09-30 06:09:00,25.28,2020-09-29 12:46:00,16.07,2020-09-30 06:10:00,17.17,0.89,1009.5,2.08,3.03,1601333220,343,0.45,9,1601360160,16.093,251.7,14.07,2020-09-29 05:33:00,25.02,2020-09-29 12:42:00,14.34,2020-09-29 05:33:00,25.28,2020-09-29 12:46:00
Lamjung,Gausala,28.07621667,84.47669444,2020-09-29 00:00:00,Clear throughout the day.,clear-day,2020-09-29 06:00:00,2020-09-29 17:57:00,0.43,0.0099,0.0285,2020-09-30 00:00:00,0.04,rain,31.92,2020-09-29 13:41:00,18.46,2020-09-30 05:36:00,34.74,2020-09-29 13:39:00,18.79,2020-09-30 05:36:00,19.05,0.71,1007.9,1.06,1.78,1601360520,352,0.28,9,1601360100,16.093,254.5,18.15,2020-09-29 05:33:00,31.92,2020-09-29 13:41:00,18.58,2020-09-29 05:32:00,34.74,2020-09-29 13:39:00
Lamjung,Gharedhunga,28.282208299999997,84.3454164,2020-09-29 00:00:00,Humid and partly cloudy throughout the day.,partly-cloudy-day,2020-09-29 06:01:00,2020-09-29 17:57:00,0.43,0.08,0.5395,2020-09-30 00:00:00,0.17,rain,27.26,2020-09-29 12:48:00,18.16,2020-09-30 01:44:00,28.88,2020-09-29 12:54:00,18.43,2020-09-30 01:44:00,18.07,0.83,1009.3,1.87,2.55,1601332740,347,0.43,9,1601359620,15.818,251.9,16.5,2020-09-29 05:04:00,27.26,2020-09-29 12:48:00,16.77,2020-09-29 05:04:00,28.88,2020-09-29 12:54:00
Mahottari,Chisapani Gadhi,26.65224722,85.807275,2020-09-29 00:00:00,Humid and partly cloudy throughout the day.,partly-cloudy-day,2020-09-29 05:55:00,2020-09-29 17:52:00,0.43,0.0211,0.0931,2020-09-29 03:59:00,0.06,rain,32.24,2020-09-29 14:43:00,23.63,2020-09-30 05:36:00,40.67,2020-09-29 14:42:00,24.74,2020-09-30 05:34:00,24.82,0.84,1005.2,1.46,3.19,1601370480,332,0.34,9,1601359560,16.093,257.1,23.91,2020-09-29 04:50:00,32.24,2020-09-29 14:43:00,25.05,2020-09-29 04:50:00,40.67,2020-09-29 14:42:00
Mahottari,Jalesore,26.88333333,85.78333333,2020-09-29 00:00:00,Humid and partly cloudy throughout the day.,partly-cloudy-day,2020-09-29 05:55:00,2020-09-29 17:52:00,0.43,0.0498,0.2801,2020-09-29 02:04:00,0.12,rain,32.38,2020-09-29 14:23:00,23.64,2020-09-30 05:32:00,41.7,2020-09-29 14:30:00,24.77,2020-09-30 05:30:00,25.38,0.86,1005.4,1.46,3.29,1601370180,317,0.39,9,1601359500,16.093,256.4,24.19,2020-09-29 05:07:00,32.38,2020-09-29 14:23:00,25.41,2020-09-29 05:06:00,41.7,2020-09-29 14:30:00
Makwanpur,Daman,27.5599456,85.1386067,2020-09-29 00:00:00,Humid and partly cloudy throughout the day.,partly-cloudy-day,2020-09-29 05:58:00,2020-09-29 17:54:00,0.43,0.0522,0.3585,2020-09-29 16:41:00,0.16,rain,25.39,2020-09-29 12:49:00,16.15,2020-09-30 05:43:00,25.9,2020-09-29 12:57:00,17.48,2020-09-30 05:40:00,19.1,0.98,1007.4,1.05,2.38,1601368740,197,0.6,8,1601359140,16.093,253.4,15.47,2020-09-29 05:30:00,25.39,2020-09-29 12:49:00,16.63,2020-09-29 05:30:00,25.9,2020-09-29 12:57:00
Makwanpur,Hetanuda(Ind. Dist),27.619,85.1496,2020-09-29 00:00:00,Humid and partly cloudy throughout the day.,partly-cloudy-day,2020-09-29 05:58:00,2020-09-29 17:54:00,0.43,0.043,0.2778,2020-09-29 16:41:00,0.14,rain,25.76,2020-09-29 12:49:00,16.6,2020-09-30 05:43:00,26.11,2020-09-29 12:54:00,17.72,2020-09-30 05:41:00,19.2,0.96,1007.4,1.0,2.49,1601369220,206,0.56,9,1601359140,16.093,253.3,16.0,2020-09-29 05:36:00,25.76,2020-09-29 12:49:00,17.01,2020-09-29 05:37:00,26.11,2020-09-29 12:54:00
Makwanpur,Makwanpur Gadhi,27.43333333,85.03333333,2020-09-29 00:00:00,Humid and partly cloudy throughout the day.,partly-cloudy-day,2020-09-29 05:58:00,2020-09-29 17:55:00,0.43,0.0379,0.2302,2020-09-29 15:54:00,0.13,rain,31.8,2020-09-29 12:59:00,22.02,2020-09-30 05:26:00,40.36,2020-09-29 13:46:00,23.25,2020-09-30 05:18:00,24.86,0.93,1007.0,1.29,2.74,1601369940,241,0.56,8,1601359500,16.093,254.7,21.41,2020-09-29 05:25:00,31.8,2020-09-29 12:59:00,22.57,2020-09-29 05:24:00,40.36,2020-09-29 13:46:00
Makwanpur,Manang Bhot,27.635081899999996,84.7416103,2020-09-29 00:00:00,Humid and partly cloudy throughout the day.,partly-cloudy-day,2020-09-29 05:59:00,2020-09-29 17:56:00,0.43,0.0068,0.0679,2020-09-29 14:45:00,0.04,rain,30.49,2020-09-29 13:30:00,20.08,2020-09-30 05:38:00,32.85,2020-09-29 13:26:00,20.92,2020-09-30 05:37:00,21.31,0.83,1006.6,1.11,2.33,1601369880,186,0.44,9,1601359020,16.093,255.4,20.24,2020-09-29 05:39:00,30.49,2020-09-29 13:30:00,21.22,2020-09-29 05:40:00,32.85,2020-09-29 13:26:00
Makwanpur,Markhu Gaun,27.4227,85.0279,2020-09-29 00:00:00,Humid and partly cloudy throughout the day.,partly-cloudy-day,2020-09-29 05:58:00,2020-09-29 17:55:00,0.43,0.0363,0.2202,2020-09-29 15:52:00,0.13,rain,31.78,2020-09-29 13:05:00,22.04,2020-09-30 05:26:00,40.57,2020-09-29 13:48:00,23.27,2020-09-30 05:19:00,24.9,0.93,1006.9,1.31,2.8,1601370000,249,0.55,8,1601359500,16.093,254.8,21.53,2020-09-29 05:26:00,31.78,2020-09-29 13:05:00,22.7,2020-09-29 05:25:00,40.57,2020-09-29 13:48:00
Manang,Goga,28.63989694,84.08811583,2020-09-29 00:00:00,Clear throughout the day.,clear-day,2020-09-29 06:02:00,2020-09-29 17:58:00,0.43,0.0047,0.0247,2020-09-29 15:08:00,0.09,rain,10.89,2020-09-29 12:41:00,4.34,2020-09-30 05:34:00,12.45,2020-09-29 13:25:00,3.41,2020-09-30 05:36:00,6.2,1.0,1013.5,1.6,3.18,1601360820,29,0.12,12,1601359560,15.674,244.6,2.07,2020-09-29 05:06:00,10.89,2020-09-29 12:41:00,0.6,2020-09-29 05:07:00,12.45,2020-09-29 13:25:00
Manang,Humde,28.66627083,84.02257194,2020-09-29 00:00:00,Clear throughout the day.,clear-day,2020-09-29 06:02:00,2020-09-29 17:58:00,0.43,0.0035,0.0173,2020-09-29 15:13:00,0.09,rain,10.7,2020-09-29 12:48:00,3.69,2020-09-30 05:39:00,12.2,2020-09-29 13:18:00,3.25,2020-09-30 00:10:00,5.89,1.0,1013.6,1.55,3.3,1601361120,113,0.1,12,1601359620,15.977,244.4,1.47,2020-09-29 05:08:00,10.7,2020-09-29 12:48:00,0.08,2020-09-29 05:07:00,12.2,2020-09-29 13:18:00
Manang,Naar,28.76666667,84.28333333,2020-09-29 00:00:00,Clear throughout the day.,clear-day,2020-09-29 06:01:00,2020-09-29 17:57:00,0.43,0.0015,0.0107,2020-09-29 17:45:00,0.1,rain,6.94,2020-09-29 13:02:00,-2.06,2020-09-30 05:05:00,5.54,2020-09-29 13:04:00,-1.79,2020-09-30 05:05:00,0.96,1.0,1015.1,1.23,3.54,1601360760,75,0.06,13,1601359920,16.093,243.0,-3.61,2020-09-29 05:13:00,6.94,2020-09-29 13:02:00,-3.34,2020-09-29 05:13:00,5.54,2020-09-29 13:04:00
Manang,Phu Gaun,28.55,84.2333333,2020-09-29 00:00:00,Clear throughout the day.,clear-day,2020-09-29 06:01:00,2020-09-29 17:58:00,0.43,0.0085,0.0529,2020-09-29 15:02:00,0.12,rain,13.56,2020-09-29 11:52:00,6.54,2020-09-29 23:53:00,14.63,2020-09-29 12:24:00,5.63,2020-09-29 23:58:00,8.56,1.0,1013.0,1.88,3.08,1601336400,346,0.18,11,1601359440,14.822,245.6,4.82,2020-09-29 05:07:00,13.56,2020-09-29 11:52:00,3.09,2020-09-29 05:10:00,14.63,2020-09-29 12:24:00
Morang,Biratnagar,29.2160678,83.983333,2020-09-28 21:45:00,Clear throughout the day.,clear-day,2020-09-29 06:02:00,2020-09-29 17:59:00,0.43,0.0003,0.0041,2020-09-29 20:45:00,0.02,rain,14.87,2020-09-29 13:38:00,-1.2,2020-09-30 05:38:00,14.59,2020-09-29 13:38:00,-2.75,2020-09-30 05:31:00,2.5,0.87,1014.8,2.27,7.79,1601369400,201,0.06,12,1601360040,16.093,244.1,-2.22,2020-09-29 05:17:00,14.87,2020-09-29 13:38:00,-3.76,2020-09-29 05:57:00,14.59,2020-09-29 13:38:00
Morang,Biratnagar Airport,26.61000889,87.37074778,2020-09-29 00:00:00,Humid and partly cloudy throughout the day.,partly-cloudy-day,2020-09-29 05:48:00,2020-09-29 17:45:00,0.43,0.0322,0.2241,2020-09-30 00:00:00,0.12,rain,33.33,2020-09-29 14:04:00,24.59,2020-09-30 05:43:00,45.32,2020-09-29 12:57:00,25.85,2020-09-30 06:08:00,26.31,0.87,1005.5,1.45,2.93,1601380560,332,0.61,7,1601361540,16.093,256.1,24.47,2020-09-29 05:39:00,33.33,2020-09-29 14:04:00,25.73,2020-09-29 05:38:00,45.32,2020-09-29 12:57:00
Morang,Gam Shree Nagar,26.73416667,87.50166667,2020-09-29 00:00:00,Humid and partly cloudy throughout the day.,partly-cloudy-day,2020-09-29 05:48:00,2020-09-29 17:45:00,0.43,0.0663,0.4213,2020-09-29 14:37:00,0.23,rain,33.8,2020-09-29 13:44:00,25.05,2020-09-30 05:55:00,53.78,2020-09-29 13:10:00,26.45,2020-09-30 06:14:00,28.15,0.98,1005.8,1.43,2.19,1601325720,349,0.58,7,1601358660,16.093,255.0,24.07,2020-09-29 05:31:00,33.8,2020-09-29 13:44:00,25.68,2020-09-29 06:11:00,53.78,2020-09-29 13:10:00
Morang,Haraincha,28.46717,84.37307390000001,2020-09-29 00:00:00,Clear throughout the day.,clear-day,2020-09-29 06:01:00,2020-09-29 17:57:00,0.43,0.0158,0.0668,2020-09-30 00:00:00,0.12,rain,16.53,2020-09-29 11:51:00,9.11,2020-09-30 00:01:00,17.2,2020-09-29 12:08:00,8.86,2020-09-30 00:03:00,11.47,1.0,1012.5,1.67,2.26,1601360280,351,0.24,10,1601358540,15.472,246.5,8.14,2020-09-29 05:13:00,16.53,2020-09-29 11:51:00,7.41,2020-09-29 05:13:00,17.2,2020-09-29 12:08:00
Morang,Letang,26.46666667,87.28333333,2020-09-29 00:00:00,Humid and mostly cloudy throughout the day.,partly-cloudy-day,2020-09-29 05:49:00,2020-09-29 17:46:00,0.43,0.0173,0.1493,2020-09-30 00:00:00,0.08,rain,32.44,2020-09-29 14:34:00,23.84,2020-09-30 05:42:00,40.48,2020-09-29 14:24:00,25.05,2020-09-30 05:40:00,24.68,0.83,1005.4,1.53,3.65,1601380800,328,0.65,6,1601359560,16.093,256.8,24.17,2020-09-29 03:49:00,32.44,2020-09-29 14:34:00,25.3,2020-09-29 03:49:00,40.48,2020-09-29 14:24:00
Morang,Mugu,26.483967,87.26700600000001,2020-09-29 00:00:00,Humid and mostly cloudy throughout the day.,partly-cloudy-day,2020-09-29 05:49:00,2020-09-29 17:46:00,0.43,0.0164,0.1329,2020-09-30 00:00:00,0.08,rain,32.47,2020-09-29 14:33:00,23.86,2020-09-30 05:42:00,40.5,2020-09-29 14:24:00,25.07,2020-09-30 05:40:00,24.68,0.83,1005.4,1.54,3.69,1601380800,330,0.64,6,1601359620,16.093,256.7,24.19,2020-09-29 03:49:00,32.47,2020-09-29 14:33:00,25.32,2020-09-29 03:49:00,40.5,2020-09-29 14:24:00
Mugu,Jomsom,29.50867889,81.89267389,2020-09-29 00:00:00,Clear throughout the day.,clear-day,2020-09-29 06:11:00,2020-09-29 18:07:00,0.43,0.0025,0.0205,2020-09-29 17:45:00,0.06,rain,25.3,2020-09-29 13:40:00,10.09,2020-09-30 05:39:00,25.02,2020-09-29 13:40:00,10.36,2020-09-30 05:39:00,12.45,0.83,1011.6,1.03,3.06,1601369340,285,0.2,10,1601360520,16.093,252.9,8.68,2020-09-29 05:52:00,25.3,2020-09-29 13:40:00,8.95,2020-09-29 05:52:00,25.02,2020-09-29 13:40:00
Mugu,Mangri,29.540125,82.081825,2020-09-29 00:00:00,Clear throughout the day.,clear-day,2020-09-29 06:10:00,2020-09-29 18:06:00,0.43,0.0025,0.0211,2020-09-29 17:45:00,0.07,rain,19.39,2020-09-29 13:44:00,6.65,2020-09-30 05:28:00,19.11,2020-09-29 13:44:00,6.92,2020-09-30 05:28:00,9.59,0.93,1011.9,1.3,3.23,1601365080,63,0.13,11,1601360940,16.093,251.3,5.21,2020-09-29 05:14:00,19.39,2020-09-29 13:44:00,4.59,2020-09-29 05:14:00,19.11,2020-09-29 13:44:00
Mugu,Rara,29.75,82.55,2020-09-29 00:00:00,Clear throughout the day.,clear-day,2020-09-29 06:08:00,2020-09-29 18:04:00,0.43,0.0003,0.0041,2020-09-29 20:45:00,0.02,rain,5.73,2020-09-29 12:56:00,-3.3,2020-09-30 05:48:00,3.45,2020-09-29 12:51:00,-3.67,2020-09-30 07:42:00,-0.23,1.0,1015.5,1.67,6.3,1601368800,83,0.04,12,1601360400,16.093,246.1,-4.61,2020-09-29 05:16:00,5.73,2020-09-29 12:56:00,-4.76,2020-09-29 07:41:00,3.45,2020-09-29 12:51:00
Mugu,Seroge,29.58904306,82.30580306,2020-09-29 00:00:00,Clear throughout the day.,clear-day,2020-09-29 06:09:00,2020-09-29 18:05:00,0.43,0.0009,0.0047,2020-09-29 17:45:00,0.02,rain,17.58,2020-09-29 13:34:00,7.21,2020-09-30 00:49:00,17.3,2020-09-29 13:34:00,6.9,2020-09-30 00:46:00,8.97,0.92,1013.7,1.54,4.06,1601367420,57,0.05,10,1601361420,16.093,248.7,5.59,2020-09-29 05:17:00,17.58,2020-09-29 13:34:00,4.82,2020-09-29 05:20:00,17.3,2020-09-29 13:34:00
Mustang,Lete,28.78401111,83.72981667,2020-09-29 00:00:00,Clear throughout the day.,clear-day,2020-09-29 06:03:00,2020-09-29 18:00:00,0.43,0.001,0.0052,2020-09-29 17:45:00,0.06,rain,13.21,2020-09-29 12:02:00,5.23,2020-09-30 00:52:00,13.09,2020-09-29 12:39:00,5.78,2020-09-29 19:05:00,7.57,1.0,1014.0,1.83,5.78,1601369280,240,0.04,12,1601360040,16.093,245.3,3.53,2020-09-29 05:34:00,13.21,2020-09-29 12:02:00,3.8,2020-09-29 05:34:00,13.09,2020-09-29 12:39:00
Mustang,Mustang(Lomangthang),28.81555556,83.86222222,2020-09-29 00:00:00,Clear throughout the day.,clear-day,2020-09-29 06:03:00,2020-09-29 17:59:00,0.43,0.0006,0.0041,2020-09-29 20:42:00,0.03,rain,12.42,2020-09-29 12:36:00,4.07,2020-09-30 05:37:00,12.59,2020-09-29 14:11:00,3.45,2020-09-30 00:22:00,6.54,1.0,1014.1,1.72,5.11,1601367960,197,0.03,12,1601359980,16.093,244.6,1.54,2020-09-29 05:25:00,12.42,2020-09-29 12:36:00,1.83,2020-09-29 05:35:00,12.59,2020-09-29 14:11:00
Mustang,Ranipauwa (M.Nath),28.73887222,83.68183333,2020-09-29 00:00:00,Clear throughout the day.,clear-day,2020-09-29 06:04:00,2020-09-29 18:00:00,0.43,0.0027,0.0159,2020-09-29 17:15:00,0.08,rain,12.42,2020-09-29 12:12:00,4.85,2020-09-30 00:49:00,12.99,2020-09-29 14:20:00,5.36,2020-09-29 19:11:00,7.09,1.0,1014.0,1.74,5.17,1601369100,252,0.07,11,1601359920,15.856,245.5,2.9,2020-09-29 05:16:00,12.42,2020-09-29 12:12:00,3.17,2020-09-29 05:16:00,12.99,2020-09-29 14:20:00
Mustang,Tatopani,28.9,83.68333333,2020-09-29 00:00:00,Clear throughout the day.,clear-day,2020-09-29 06:04:00,2020-09-29 18:00:00,0.43,0.001,0.0046,2020-09-29 17:40:00,0.03,rain,11.8,2020-09-29 12:53:00,3.54,2020-09-30 06:06:00,12.52,2020-09-29 14:21:00,2.9,2020-09-30 02:18:00,5.7,1.0,1014.2,1.85,6.16,1601368980,244,0.05,12,1601360040,16.093,244.1,0.57,2020-09-29 05:48:00,11.8,2020-09-29 12:53:00,0.84,2020-09-29 05:47:00,12.52,2020-09-29 14:21:00
Myagdi,Bega,28.4,83.73333333,2020-09-29 00:00:00,Partly cloudy throughout the day.,partly-cloudy-day,2020-09-29 06:03:00,2020-09-29 18:00:00,0.43,0.0493,0.2409,2020-09-29 16:44:00,0.15,rain,19.69,2020-09-29 12:47:00,10.83,2020-09-29 23:46:00,20.54,2020-09-29 12:56:00,11.83,2020-09-30 04:56:00,13.49,1.0,1009.7,1.26,2.39,1601368080,15,0.29,9,1601359320,15.062,250.6,9.49,2020-09-29 05:01:00,19.69,2020-09-29 12:47:00,9.42,2020-09-29 04:52:00,20.54,2020-09-29 12:56:00
Myagdi,Beni Bazar,29.22713194,83.979815,2020-09-28 21:45:00,Clear throughout the day.,clear-day,2020-09-29 06:02:00,2020-09-29 17:59:00,0.43,0.0003,0.0041,2020-09-29 20:45:00,0.02,rain,14.69,2020-09-29 13:40:00,-1.61,2020-09-30 05:38:00,14.41,2020-09-29 13:40:00,-3.23,2020-09-30 05:31:00,2.18,0.87,1014.8,2.29,7.89,1601369400,203,0.06,12,1601360040,16.093,244.0,-2.56,2020-09-29 05:18:00,14.69,2020-09-29 13:40:00,-4.18,2020-09-29 05:58:00,14.41,2020-09-29 13:40:00
Myagdi,Dumkauli,28.56666667,83.38333333,2020-09-29 00:00:00,Partly cloudy throughout the day.,partly-cloudy-day,2020-09-29 06:05:00,2020-09-29 18:01:00,0.43,0.0478,0.3259,2020-09-29 16:44:00,0.21,rain,18.47,2020-09-29 12:46:00,9.85,2020-09-30 05:40:00,18.45,2020-09-29 12:53:00,10.12,2020-09-30 05:40:00,11.7,0.96,1011.7,2.09,2.95,1601361420,354,0.3,9,1601359080,14.617,248.9,7.95,2020-09-29 05:13:00,18.47,2020-09-29 12:46:00,6.68,2020-09-29 05:11:00,18.45,2020-09-29 12:53:00
Myagdi,Ghorepani,28.35083333,83.56666667,2020-09-29 00:00:00,Partly cloudy throughout the day.,partly-cloudy-day,2020-09-29 06:04:00,2020-09-29 18:00:00,0.43,0.0686,0.3819,2020-09-29 16:48:00,0.2,rain,26.44,2020-09-29 12:47:00,16.32,2020-09-30 05:36:00,26.38,2020-09-29 12:49:00,16.59,2020-09-30 05:36:00,15.38,0.77,1009.9,1.51,2.42,1601368680,332,0.38,8,1601359260,15.965,252.2,15.27,2020-09-29 05:09:00,26.44,2020-09-29 12:47:00,15.54,2020-09-29 05:09:00,26.38,2020-09-29 12:49:00
Myagdi,Muna,28.44271389,83.576185,2020-09-29 00:00:00,Partly cloudy throughout the day.,partly-cloudy-day,2020-09-29 06:04:00,2020-09-29 18:00:00,0.43,0.0482,0.3065,2020-09-29 16:49:00,0.17,rain,23.65,2020-09-29 12:47:00,14.81,2020-09-30 01:44:00,23.71,2020-09-29 12:53:00,15.08,2020-09-30 01:45:00,15.9,0.91,1010.1,1.79,2.53,1601336040,342,0.32,9,1601359260,15.262,250.8,13.14,2020-09-29 05:05:00,23.65,2020-09-29 12:47:00,13.41,2020-09-29 05:05:00,23.71,2020-09-29 12:53:00
Nawalparasi,Bara Ghat,27.680675,84.22854170000001,2020-09-29 00:00:00,Humid and partly cloudy throughout the day.,partly-cloudy-day,2020-09-29 06:01:00,2020-09-29 17:58:00,0.43,0.0098,0.054,2020-09-29 14:45:00,0.04,rain,33.95,2020-09-29 14:05:00,20.95,2020-09-30 05:37:00,40.53,2020-09-29 15:54:00,21.54,2020-09-30 05:37:00,22.52,0.75,1006.2,1.19,2.79,1601379780,351,0.23,8,1601360400,16.093,256.8,21.22,2020-09-29 05:30:00,33.95,2020-09-29 14:05:00,21.94,2020-09-29 05:29:00,40.53,2020-09-29 15:54:00
Nawalparasi,Dumkibas,27.51925,83.66218333,2020-09-29 00:00:00,Humid and partly cloudy throughout the day.,partly-cloudy-day,2020-09-29 06:03:00,2020-09-29 18:00:00,0.43,0.0132,0.0798,2020-09-29 00:00:00,0.06,rain,32.88,2020-09-29 14:39:00,23.12,2020-09-30 05:42:00,39.67,2020-09-29 14:50:00,23.88,2020-09-30 05:43:00,23.48,0.77,1005.4,1.56,2.71,1601372520,80,0.27,8,1601359560,16.093,257.7,23.62,2020-09-29 05:45:00,32.88,2020-09-29 14:39:00,24.63,2020-09-29 05:44:00,39.67,2020-09-29 14:50:00
