district,formal_name,lat,long,time,summary,icon,sunriseTime,sunsetTime,moonPhase,precipIntensity,precipIntensityMax,precipIntensityMaxTime,precipProbability,precipType,temperatureHigh,temperatureHighTime,temperatureLow,temperatureLowTime,apparentTemperatureHigh,apparentTemperatureHighTime,apparentTemperatureLow,apparentTemperatureLowTime,dewPoint,humidity,pressure,windSpeed,windGust,windGustTime,windBearing,cloudCover,uvIndex,uvIndexTime,visibility,ozone,temperatureMin,temperatureMinTime,temperatureMax,temperatureMaxTime,apparentTemperatureMin,apparentTemperatureMinTime,apparentTemperatureMax,apparentTemperatureMaxTime,precipAccumulation
Achham,Asara Ghat,28.95029444,81.44431944,2020-10-08 00:00:00,Humid throughout the day.,clear-day,2020-10-08 06:17:00,2020-10-08 17:58:00,0.71,0.0035,0.0641,2020-10-08 00:00:00,0.02,rain,31.1,2020-10-08 13:47:00,19.34,2020-10-09 05:44:00,33.11,2020-10-08 13:57:00,19.61,2020-10-09 05:44:00,18.12,0.71,1012.2,1.35,2.84,1602110340,37,0.23,9,1602138000,16.093,257.2,18.17,2020-10-08 05:31:00,31.1,2020-10-08 13:47:00,18.44,2020-10-08 05:31:00,33.11,2020-10-08 13:57:00,
Achham,Basti,29.03098333,81.17113333,2020-10-08 00:00:00,Humid throughout the day.,clear-day,2020-10-08 06:19:00,2020-10-08 17:59:00,0.71,0.0071,0.1202,2020-10-08 00:00:00,0.05,rain,32.07,2020-10-08 13:51:00,20.01,2020-10-09 05:40:00,35.3,2020-10-08 15:32:00,20.28,2020-10-09 05:40:00,19.44,0.74,1012.1,1.14,2.17,1602111060,14,0.34,8,1602138360,16.093,257.5,18.86,2020-10-08 05:28:00,32.07,2020-10-08 13:51:00,19.13,2020-10-08 05:27:00,35.3,2020-10-08 15:32:00,
Achham,Mangalsen,29.13611389,81.25009167,2020-10-08 00:00:00,Clear throughout the day.,clear-day,2020-10-08 06:18:00,2020-10-08 17:59:00,0.71,0.0047,0.1097,2020-10-08 00:00:00,0.03,rain,28.7,2020-10-08 13:52:00,17.56,2020-10-09 05:57:00,29.07,2020-10-08 13:59:00,17.83,2020-10-09 05:57:00,16.42,0.75,1012.5,1.2,2.23,1602111300,49,0.32,8,1602139020,16.093,257.0,16.42,2020-10-08 05:34:00,28.7,2020-10-08 13:52:00,16.69,2020-10-08 05:34:00,29.07,2020-10-08 13:59:00,
Achham,Sugali,29.17980694,81.37293889,2020-10-08 00:00:00,Partly cloudy throughout the day.,partly-cloudy-day,2020-10-08 06:18:00,2020-10-08 17:58:00,0.71,0.0026,0.0568,2020-10-08 00:00:00,0.02,rain,26.12,2020-10-08 13:51:00,15.65,2020-10-09 05:52:00,25.94,2020-10-08 13:53:00,15.92,2020-10-09 05:52:00,14.82,0.78,1013.0,1.39,2.93,1602111120,45,0.34,8,1602139020,16.093,255.8,14.16,2020-10-08 05:37:00,26.12,2020-10-08 13:51:00,14.43,2020-10-08 05:37:00,25.94,2020-10-08 13:53:00,
Arghakhanchi,Rangsing,27.80330278,82.78400833,2020-10-08 00:00:00,Humid and partly cloudy throughout the day.,partly-cloudy-day,2020-10-08 06:12:00,2020-10-08 17:53:00,0.71,0.0075,0.0346,2020-10-08 00:00:00,0.03,rain,33.27,2020-10-08 13:56:00,22.2,2020-10-09 05:38:00,36.88,2020-10-08 13:49:00,22.62,2020-10-09 05:37:00,20.19,0.66,1009.6,1.59,2.93,1602148440,18,0.35,8,1602137340,16.093,256.5,21.84,2020-10-08 05:30:00,33.27,2020-10-08 13:56:00,22.23,2020-10-08 05:30:00,36.88,2020-10-08 13:49:00,
Arghakhanchi,Sandhikharka,27.96402222,83.12056944,2020-10-08 00:00:00,Partly cloudy throughout the day.,partly-cloudy-day,2020-10-08 06:10:00,2020-10-08 17:52:00,0.71,0.0092,0.0385,2020-10-08 00:00:00,0.04,rain,29.49,2020-10-08 13:40:00,18.33,2020-10-09 05:58:00,30.03,2020-10-08 13:45:00,18.6,2020-10-09 05:58:00,16.44,0.69,1011.2,1.29,2.04,1602147180,31,0.39,8,1602138240,16.093,254.8,17.78,2020-10-08 05:29:00,29.49,2020-10-08 13:40:00,18.05,2020-10-08 05:29:00,30.03,2020-10-08 13:45:00,
Arghakhanchi,Sidhara,27.7945,82.82838333,2020-10-08 00:00:00,Partly cloudy throughout the day.,partly-cloudy-day,2020-10-08 06:11:00,2020-10-08 17:53:00,0.71,0.0065,0.0303,2020-10-08 00:00:00,0.02,rain,32.66,2020-10-08 13:50:00,22.1,2020-10-09 05:38:00,35.56,2020-10-08 13:46:00,22.49,2020-10-09 05:37:00,19.73,0.66,1009.6,1.59,2.91,1602148200,23,0.35,8,1602137580,16.093,256.4,21.74,2020-10-08 05:31:00,32.66,2020-10-08 13:50:00,22.13,2020-10-08 05:31:00,35.56,2020-10-08 13:46:00,
Baglung,Baglung,28.26363611,83.60032222,2020-10-08 00:00:00,Partly cloudy throughout the day.,partly-cloudy-day,2020-10-08 06:08:00,2020-10-08 17:50:00,0.71,0.0035,0.0383,2020-10-08 16:41:00,0.01,rain,27.98,2020-10-08 13:47:00,16.46,2020-10-09 06:11:00,27.72,2020-10-08 14:01:00,16.73,2020-10-09 06:11:00,12.94,0.62,1013.5,1.38,2.52,1602111180,321,0.33,7,1602137580,16.093,253.5,15.84,2020-10-08 05:06:00,27.98,2020-10-08 13:47:00,16.11,2020-10-08 05:06:00,27.72,2020-10-08 14:01:00,
Baglung,Dhorpatan,28.48333333,83.08333333,2020-10-08 00:00:00,Partly cloudy throughout the day.,partly-cloudy-day,2020-10-08 06:11:00,2020-10-08 17:52:00,0.71,0.0113,0.0406,2020-10-09 00:00:00,0.1,rain,17.75,2020-10-08 13:04:00,8.1,2020-10-09 05:40:00,17.49,2020-10-08 13:07:00,7.44,2020-10-09 05:36:00,10.68,0.96,1014.5,1.49,2.41,1602143340,34,0.36,8,1602135300,16.093,250.0,6.77,2020-10-08 05:20:00,17.75,2020-10-08 13:04:00,5.84,2020-10-08 05:21:00,17.49,2020-10-08 13:07:00,
Baglung,Galkot,28.21869167,83.41881111,2020-10-08 00:00:00,Partly cloudy throughout the day.,partly-cloudy-day,2020-10-08 06:09:00,2020-10-08 17:51:00,0.71,0.0066,0.0382,2020-10-08 16:08:00,0.03,rain,27.26,2020-10-08 13:45:00,14.29,2020-10-09 06:07:00,27.08,2020-10-08 13:45:00,14.56,2020-10-09 06:07:00,11.97,0.63,1013.1,1.41,2.31,1602111480,329,0.36,8,1602135660,16.093,253.5,14.02,2020-10-08 05:38:00,27.26,2020-10-08 13:45:00,14.29,2020-10-08 05:38:00,27.08,2020-10-08 13:45:00,
Baglung,Rangkhani,28.14408889,83.55824444,2020-10-08 00:00:00,Partly cloudy throughout the day.,partly-cloudy-day,2020-10-08 06:09:00,2020-10-08 17:50:00,0.71,0.0075,0.0358,2020-10-08 23:55:00,0.02,rain,25.41,2020-10-08 13:49:00,15.07,2020-10-09 05:43:00,25.13,2020-10-08 13:49:00,15.34,2020-10-09 05:43:00,11.5,0.64,1012.2,1.24,2.2,1602111300,324,0.36,8,1602137880,16.093,254.0,14.27,2020-10-08 05:37:00,25.41,2020-10-08 13:49:00,14.54,2020-10-08 05:37:00,25.13,2020-10-08 13:49:00,
Baitadi,Patan (West),29.467137,80.54575109999999,2020-10-08 00:00:00,Clear throughout the day.,clear-day,2020-10-08 06:21:00,2020-10-08 18:01:00,0.71,0.0023,0.0213,2020-10-08 14:45:00,0.01,rain,29.08,2020-10-08 13:42:00,15.1,2020-10-09 05:35:00,29.29,2020-10-08 13:41:00,15.37,2020-10-09 05:35:00,16.56,0.78,1012.7,1.13,2.28,1602147180,174,0.24,7,1602139500,16.093,256.3,14.78,2020-10-08 05:22:00,29.08,2020-10-08 13:42:00,15.08,2020-10-08 05:19:00,29.29,2020-10-08 13:41:00,
Baitadi,Satbanjh,29.4973,80.49741194,2020-10-08 00:00:00,Clear throughout the day.,clear-day,2020-10-08 06:22:00,2020-10-08 18:02:00,0.71,0.0014,0.0127,2020-10-08 14:45:00,0.01,rain,25.27,2020-10-08 13:44:00,12.88,2020-10-09 05:38:00,24.99,2020-10-08 13:44:00,13.15,2020-10-09 05:38:00,14.47,0.84,1012.1,1.17,2.44,1602146700,179,0.21,8,1602139320,16.093,256.4,12.43,2020-10-08 05:30:00,25.27,2020-10-08 13:44:00,13.01,2020-10-08 05:30:00,24.99,2020-10-08 13:44:00,
Bajhang,Chainpur (West),29.55,81.21666667,2020-10-08 00:00:00,Partly cloudy throughout the day.,partly-cloudy-day,2020-10-08 06:19:00,2020-10-08 17:59:00,0.71,0.0019,0.0112,2020-10-08 17:52:00,0.02,rain,25.49,2020-10-08 13:42:00,12.94,2020-10-09 06:01:00,25.21,2020-10-08 13:42:00,13.21,2020-10-09 06:01:00,11.85,0.71,1015.0,1.33,2.63,1602111060,69,0.38,7,1602137340,16.093,253.4,11.83,2020-10-08 05:07:00,25.49,2020-10-08 13:42:00,12.1,2020-10-08 05:07:00,25.21,2020-10-08 13:42:00,
Bajhang,Chainpur Bajhang Aws Climate,29.545890000000004,81.20114000000001,2020-10-08 00:00:00,Partly cloudy throughout the day.,partly-cloudy-day,2020-10-08 06:19:00,2020-10-08 17:59:00,0.71,0.002,0.0102,2020-10-08 17:52:00,0.02,rain,25.74,2020-10-08 13:44:00,13.22,2020-10-09 05:40:00,25.46,2020-10-08 13:44:00,13.49,2020-10-09 05:40:00,11.84,0.7,1014.9,1.32,2.6,1602111060,70,0.37,7,1602137580,16.093,253.6,12.1,2020-10-08 05:07:00,25.74,2020-10-08 13:44:00,12.37,2020-10-08 05:07:00,25.46,2020-10-08 13:44:00,
Bajhang,Kalukheti,29.447359999999996,81.16838,2020-10-08 00:00:00,Clear throughout the day.,clear-day,2020-10-08 06:19:00,2020-10-08 17:59:00,0.71,0.0034,0.0231,2020-10-08 00:31:00,0.01,rain,28.01,2020-10-08 13:48:00,14.34,2020-10-09 06:07:00,27.98,2020-10-08 13:59:00,14.61,2020-10-09 06:07:00,13.69,0.69,1013.6,1.22,2.48,1602110940,76,0.37,8,1602138900,16.093,255.0,13.45,2020-10-08 05:41:00,28.01,2020-10-08 13:48:00,13.72,2020-10-08 05:41:00,27.98,2020-10-08 13:59:00,
Bajhang,Rayal,29.464595000000003,80.95405,2020-10-08 00:00:00,Clear throughout the day.,clear-day,2020-10-08 06:20:00,2020-10-08 18:00:00,0.71,0.006,0.0402,2020-10-08 00:42:00,0.02,rain,30.08,2020-10-08 13:52:00,17.04,2020-10-09 05:41:00,29.8,2020-10-08 13:51:00,17.31,2020-10-09 05:41:00,15.55,0.69,1013.3,1.03,2.25,1602147660,152,0.33,8,1602139980,16.093,255.3,15.78,2020-10-08 05:07:00,30.08,2020-10-08 13:52:00,16.05,2020-10-08 05:07:00,29.8,2020-10-08 13:51:00,
Bajura,Bajura (Martadi),29.45697889,81.48038389,2020-10-08 00:00:00,Partly cloudy throughout the day.,partly-cloudy-day,2020-10-08 06:18:00,2020-10-08 17:58:00,0.71,0.0,0.0,2020-10-08 03:15:00,0.0,,25.31,2020-10-08 13:44:00,13.11,2020-10-09 06:25:00,25.03,2020-10-08 13:47:00,13.38,2020-10-09 06:25:00,12.75,0.78,1015.2,1.45,3.19,1602112620,55,0.36,7,1602134940,16.093,253.1,11.15,2020-10-08 05:05:00,25.31,2020-10-08 13:44:00,11.42,2020-10-08 05:05:00,25.03,2020-10-08 13:47:00,
Bajura,Kailasmandu,29.35291694,81.33385889,2020-10-08 00:00:00,Partly cloudy throughout the day.,partly-cloudy-day,2020-10-08 06:18:00,2020-10-08 17:58:00,0.71,0.0012,0.0286,2020-10-08 00:00:00,0.01,rain,27.86,2020-10-08 13:48:00,16.15,2020-10-09 06:06:00,27.89,2020-10-08 14:07:00,16.42,2020-10-09 06:06:00,14.19,0.7,1014.3,1.37,2.84,1602111240,59,0.37,7,1602138360,16.093,254.9,14.5,2020-10-08 05:06:00,27.86,2020-10-08 13:48:00,14.77,2020-10-08 05:06:00,27.89,2020-10-08 14:07:00,
Bajura,Kolti,29.50348694,81.66617611,2020-10-08 00:00:00,Partly cloudy throughout the day.,partly-cloudy-day,2020-10-08 06:17:00,2020-10-08 17:57:00,0.71,0.0,0.0,2020-10-08 03:21:00,0.0,,25.67,2020-10-08 13:48:00,9.83,2020-10-09 05:54:00,25.39,2020-10-08 13:48:00,10.1,2020-10-09 05:54:00,11.08,0.76,1015.3,0.96,2.59,1602151680,251,0.42,8,1602138780,16.093,253.0,8.72,2020-10-08 05:57:00,25.67,2020-10-08 13:48:00,8.99,2020-10-08 05:57:00,25.39,2020-10-08 13:48:00,
Banke,Amlekhganj,27.94748333,81.78569444,2020-10-08 00:15:00,Humid and partly cloudy throughout the day.,partly-cloudy-day,2020-10-08 06:16:00,2020-10-08 17:57:00,0.71,0.0,0.0,2020-10-08 02:05:00,0.0,,33.27,2020-10-08 14:16:00,21.12,2020-10-09 05:27:00,37.2,2020-10-08 13:33:00,21.76,2020-10-09 05:25:00,20.94,0.7,1009.0,1.63,2.74,1602148380,6,0.24,6,1602140580,16.093,258.5,21.58,2020-10-08 05:32:00,33.27,2020-10-08 14:16:00,22.19,2020-10-08 05:30:00,37.2,2020-10-08 13:33:00,
Banke,Dhakeri,28.10055556,81.66824722,2020-10-08 00:15:00,Humid and partly cloudy throughout the day.,partly-cloudy-day,2020-10-08 06:16:00,2020-10-08 17:58:00,0.71,0.0,0.0,2020-10-08 11:45:00,0.0,,33.19,2020-10-08 14:02:00,21.19,2020-10-09 05:31:00,37.64,2020-10-08 13:27:00,21.82,2020-10-09 05:29:00,21.28,0.71,1009.2,1.54,2.62,1602148620,10,0.21,7,1602139860,16.093,258.7,21.71,2020-10-08 05:24:00,33.19,2020-10-08 14:02:00,22.31,2020-10-08 05:21:00,37.64,2020-10-08 13:27:00,
Banke,Khajura (Nepalganj),28.11368333,81.59030556,2020-10-08 00:15:00,Humid throughout the day.,clear-day,2020-10-08 06:16:00,2020-10-08 17:58:00,0.71,0.0,0.0,2020-10-08 11:45:00,0.0,,33.11,2020-10-08 14:08:00,21.07,2020-10-09 05:35:00,37.46,2020-10-08 13:36:00,21.71,2020-10-09 05:33:00,21.25,0.71,1009.2,1.52,2.52,1602149520,11,0.21,7,1602138300,16.093,258.9,21.77,2020-10-08 05:13:00,33.11,2020-10-08 14:08:00,22.38,2020-10-08 05:09:00,37.46,2020-10-08 13:36:00,
Banke,Naubasta,28.230225,81.65270278,2020-10-08 00:00:00,Humid throughout the day.,clear-day,2020-10-08 06:16:00,2020-10-08 17:58:00,0.71,0.0,0.0,2020-10-08 11:45:00,0.0,,33.54,2020-10-08 13:54:00,21.99,2020-10-09 05:31:00,38.82,2020-10-08 13:45:00,22.64,2020-10-09 05:28:00,21.68,0.72,1009.4,1.49,2.64,1602148500,18,0.21,7,1602139140,16.093,258.8,22.23,2020-10-08 05:30:00,33.54,2020-10-08 13:54:00,22.83,2020-10-08 05:27:00,38.82,2020-10-08 13:45:00,
Banke,Nepalgunj Airport,28.051994399999995,81.6228389,2020-10-08 00:15:00,Humid and partly cloudy throughout the day.,partly-cloudy-day,2020-10-08 06:16:00,2020-10-08 17:58:00,0.71,0.0,0.0,2020-10-08 11:45:00,0.0,,33.03,2020-10-08 14:20:00,20.98,2020-10-09 05:34:00,36.99,2020-10-08 13:48:00,21.62,2020-10-09 05:32:00,21.04,0.71,1009.1,1.55,2.54,1602149160,7,0.21,7,1602139620,16.093,258.8,21.66,2020-10-08 05:08:00,33.03,2020-10-08 14:20:00,22.26,2020-10-08 05:05:00,36.99,2020-10-08 13:48:00,
Bara,Gulariya,27.164166700000003,84.98,2020-10-08 00:00:00,Humid and mostly cloudy throughout the day.,partly-cloudy-day,2020-10-08 06:02:00,2020-10-08 17:45:00,0.71,0.1195,0.4652,2020-10-09 00:00:00,0.36,rain,32.6,2020-10-08 14:05:00,22.91,2020-10-09 05:31:00,41.49,2020-10-08 13:47:00,23.79,2020-10-09 05:29:00,24.33,0.83,1009.5,1.68,3.33,1602147420,72,0.71,6,1602140100,16.093,255.6,23.95,2020-10-08 05:41:00,32.6,2020-10-08 14:05:00,25.02,2020-10-08 05:37:00,41.49,2020-10-08 13:47:00,
Bara,Kalaiya,27.079,84.9329,2020-10-08 00:00:00,Humid and mostly cloudy throughout the day.,partly-cloudy-day,2020-10-08 06:03:00,2020-10-08 17:45:00,0.71,0.0901,0.4588,2020-10-08 03:51:00,0.3,rain,32.51,2020-10-08 14:40:00,22.98,2020-10-09 05:26:00,40.68,2020-10-08 13:41:00,23.9,2020-10-09 05:24:00,24.1,0.82,1009.2,1.74,2.98,1602147600,67,0.69,7,1602139860,16.093,255.9,24.1,2020-10-08 05:36:00,32.51,2020-10-08 14:40:00,25.15,2020-10-08 04:04:00,40.68,2020-10-08 13:41:00,
Bara,Nijgadh,27.16416667,84.98,2020-10-08 00:00:00,Humid and mostly cloudy throughout the day.,partly-cloudy-day,2020-10-08 06:02:00,2020-10-08 17:45:00,0.71,0.1195,0.4652,2020-10-09 00:00:00,0.36,rain,32.6,2020-10-08 14:05:00,22.91,2020-10-09 05:31:00,41.49,2020-10-08 13:47:00,23.79,2020-10-09 05:29:00,24.33,0.83,1009.5,1.68,3.33,1602147420,72,0.71,6,1602140100,16.093,255.6,23.95,2020-10-08 05:41:00,32.6,2020-10-08 14:05:00,25.02,2020-10-08 05:37:00,41.49,2020-10-08 13:47:00,
Bara,Parwanipur,27.20300556,85.170475,2020-10-08 00:00:00,Humid and mostly cloudy throughout the day.,rain,2020-10-08 06:02:00,2020-10-08 17:44:00,0.71,0.322,1.5049,2020-10-08 02:33:00,0.42,rain,32.36,2020-10-08 14:00:00,22.86,2020-10-09 05:31:00,41.74,2020-10-08 13:58:00,23.71,2020-10-09 05:29:00,24.2,0.84,1009.7,1.61,3.49,1602147300,48,0.71,6,1602140100,16.093,255.3,23.45,2020-10-08 05:41:00,32.36,2020-10-08 14:00:00,24.44,2020-10-08 05:38:00,41.74,2020-10-08 13:58:00,
Bara,Simara Airport,27.2813,84.9919,2020-10-08 00:00:00,Humid and mostly cloudy throughout the day.,rain,2020-10-08 06:02:00,2020-10-08 17:45:00,0.71,0.1326,0.5816,2020-10-09 00:00:00,0.39,rain,31.54,2020-10-08 13:46:00,22.37,2020-10-09 05:34:00,38.85,2020-10-08 15:24:00,23.2,2020-10-09 05:32:00,23.87,0.86,1009.9,1.54,3.44,1602147060,84,0.72,6,1602140040,16.093,255.1,22.87,2020-10-08 05:40:00,31.54,2020-10-08 13:46:00,23.9,2020-10-08 05:37:00,38.85,2020-10-08 15:24:00,
Bardiya,Chisapani(Karnali),28.21278611,81.34521111,2020-10-08 00:00:00,Humid throughout the day.,clear-day,2020-10-08 06:17:00,2020-10-08 17:59:00,0.71,0.0,0.0,2020-10-08 02:05:00,0.0,,32.88,2020-10-08 14:09:00,20.64,2020-10-09 05:31:00,36.58,2020-10-08 13:38:00,21.24,2020-10-09 05:28:00,20.93,0.71,1009.2,1.37,2.37,1602154980,17,0.21,7,1602135300,16.093,259.5,21.74,2020-10-08 05:30:00,32.88,2020-10-08 14:09:00,22.35,2020-10-08 05:27:00,36.58,2020-10-08 13:38:00,
Bardiya,Kumalgaun,28.33735833,81.33784167,2020-10-08 00:00:00,Humid throughout the day.,clear-day,2020-10-08 06:18:00,2020-10-08 17:59:00,0.71,0.0,0.0,2020-10-08 02:05:00,0.0,,32.94,2020-10-08 14:02:00,20.61,2020-10-09 05:31:00,37.24,2020-10-08 13:45:00,21.18,2020-10-09 05:29:00,21.13,0.71,1009.4,1.36,2.22,1602150120,26,0.24,7,1602134700,16.093,259.6,21.71,2020-10-08 05:36:00,32.94,2020-10-08 14:02:00,22.31,2020-10-08 05:34:00,37.24,2020-10-08 13:45:00,
Bardiya,Manpur,28.36353889,81.41428333,2020-10-08 00:00:00,Humid throughout the day.,clear-day,2020-10-08 06:17:00,2020-10-08 17:59:00,0.71,0.0,0.0,2020-10-08 02:05:00,0.0,,33.26,2020-10-08 13:59:00,20.8,2020-10-09 05:32:00,38.37,2020-10-08 13:49:00,21.37,2020-10-09 05:30:00,21.46,0.72,1009.5,1.36,2.21,1602149220,27,0.24,8,1602136200,16.093,259.3,21.78,2020-10-08 05:34:00,33.26,2020-10-08 13:59:00,22.37,2020-10-08 05:32:00,38.37,2020-10-08 13:49:00,
Bardiya,Rajapur,28.64721944,81.28542778,2020-10-08 00:00:00,Humid throughout the day.,clear-day,2020-10-08 06:18:00,2020-10-08 17:59:00,0.71,0.0,0.0,2020-10-08 02:05:00,0.0,,32.58,2020-10-08 13:52:00,20.93,2020-10-09 05:36:00,36.9,2020-10-08 13:59:00,21.35,2020-10-09 05:35:00,20.5,0.71,1010.3,1.34,2.08,1602107460,34,0.24,8,1602136800,16.093,259.3,21.23,2020-10-08 05:38:00,32.58,2020-10-08 13:52:00,21.71,2020-10-08 05:37:00,36.9,2020-10-08 13:59:00,
Bardiya,Rambhapur,28.307825,81.27586389,2020-10-08 00:00:00,Humid throughout the day.,clear-day,2020-10-08 06:18:00,2020-10-08 17:59:00,0.71,0.0,0.0,2020-10-08 02:05:00,0.0,,32.77,2020-10-08 14:08:00,20.48,2020-10-09 05:29:00,36.44,2020-10-08 13:46:00,21.05,2020-10-09 05:26:00,20.85,0.71,1009.3,1.35,2.2,1602151560,25,0.24,7,1602133920,16.093,259.7,21.67,2020-10-08 05:36:00,32.77,2020-10-08 14:08:00,22.28,2020-10-08 05:34:00,36.44,2020-10-08 13:46:00,
Bardiya,Rani Jaruwa Nursery,28.42588611,81.33803611,2020-10-08 00:00:00,Humid and partly cloudy throughout the day.,partly-cloudy-day,2020-10-08 06:18:00,2020-10-08 17:59:00,0.71,0.0,0.0,2020-10-08 02:05:00,0.0,,33.13,2020-10-08 14:00:00,20.66,2020-10-09 05:33:00,38.1,2020-10-08 13:52:00,21.2,2020-10-09 05:31:00,21.31,0.72,1009.6,1.37,2.16,1602148500,32,0.27,7,1602135060,16.093,259.5,21.72,2020-10-08 05:37:00,33.13,2020-10-08 14:00:00,22.3,2020-10-08 05:35:00,38.1,2020-10-08 13:52:00,
Bhaktapur,Bhaktapur,27.63333333,85.43333333,2020-10-08 00:00:00,Mostly cloudy throughout the day.,partly-cloudy-day,2020-10-08 06:01:00,2020-10-08 17:43:00,0.71,0.1058,0.5874,2020-10-08 02:11:00,0.19,rain,26.79,2020-10-08 13:35:00,15.61,2020-10-09 05:40:00,27.47,2020-10-08 13:44:00,15.88,2020-10-09 05:40:00,17.08,0.85,1011.7,0.76,1.65,1602146820,90,0.74,6,1602138540,16.093,251.6,15.16,2020-10-08 05:46:00,26.79,2020-10-08 13:35:00,15.43,2020-10-08 05:46:00,27.47,2020-10-08 13:44:00,
Bhaktapur,Changu Narayan,27.67668056,85.42396944,2020-10-08 00:00:00,Mostly cloudy throughout the day.,partly-cloudy-day,2020-10-08 06:01:00,2020-10-08 17:43:00,0.71,0.0743,0.3773,2020-10-08 02:11:00,0.14,rain,28.65,2020-10-08 13:43:00,16.0,2020-10-09 05:41:00,29.43,2020-10-08 13:58:00,16.27,2020-10-09 05:41:00,16.77,0.75,1011.8,0.69,1.58,1602146760,69,0.72,6,1602138360,16.093,251.6,15.86,2020-10-08 05:44:00,28.65,2020-10-08 13:43:00,16.13,2020-10-08 05:44:00,29.43,2020-10-08 13:58:00,
Bhaktapur,Nagarkot,27.645725,85.4615833,2020-10-08 00:00:00,Mostly cloudy throughout the day.,partly-cloudy-day,2020-10-08 06:01:00,2020-10-08 17:43:00,0.71,0.088,0.4904,2020-10-08 02:08:00,0.17,rain,27.96,2020-10-08 13:42:00,15.83,2020-10-09 05:41:00,28.7,2020-10-08 13:56:00,16.1,2020-10-09 05:41:00,17.12,0.8,1011.8,0.71,1.6,1602147000,80,0.74,6,1602138300,16.093,251.5,15.46,2020-10-08 05:47:00,27.96,2020-10-08 13:42:00,15.73,2020-10-08 05:47:00,28.7,2020-10-08 13:56:00,
Bhaktapur,Sanga,27.71605833,85.42675556,2020-10-08 00:00:00,Mostly cloudy throughout the day.,partly-cloudy-day,2020-10-08 06:01:00,2020-10-08 17:43:00,0.71,0.0426,0.1735,2020-10-08 02:11:00,0.08,rain,28.13,2020-10-08 13:42:00,15.59,2020-10-09 05:40:00,28.37,2020-10-08 13:51:00,15.86,2020-10-09 05:40:00,15.26,0.71,1011.8,0.62,1.5,1602146820,56,0.72,7,1602138180,16.093,251.6,15.51,2020-10-08 05:40:00,28.13,2020-10-08 13:42:00,15.78,2020-10-08 05:40:00,28.37,2020-10-08 13:51:00,
Bhojpur,Dingla,27.1944798,87.04862659999999,2020-10-08 00:00:00,Humid and mostly cloudy throughout the day.,partly-cloudy-day,2020-10-08 05:54:00,2020-10-08 17:37:00,0.71,0.0733,0.3392,2020-10-08 17:28:00,0.23,rain,23.92,2020-10-08 12:58:00,15.7,2020-10-09 05:18:00,24.57,2020-10-08 13:11:00,16.31,2020-10-09 05:16:00,18.31,1.0,1011.6,0.81,2.26,1602145380,191,0.77,7,1602137100,16.093,251.8,14.99,2020-10-08 05:13:00,23.92,2020-10-08 12:58:00,15.96,2020-10-08 05:14:00,24.57,2020-10-08 13:11:00,
Bhojpur,Rampur,27.5282716,87.2177064,2020-10-08 00:00:00,Mostly cloudy throughout the day.,partly-cloudy-day,2020-10-08 05:54:00,2020-10-08 17:36:00,0.71,0.0165,0.0714,2020-10-08 17:14:00,0.08,rain,25.73,2020-10-08 12:49:00,16.59,2020-10-09 06:09:00,25.66,2020-10-08 12:52:00,16.86,2020-10-09 06:09:00,15.12,0.76,1013.3,1.2,2.57,1602112620,1,0.75,6,1602138420,16.093,250.0,15.16,2020-10-08 05:34:00,25.73,2020-10-08 12:49:00,15.43,2020-10-08 05:34:00,25.66,2020-10-08 12:52:00,
Chitawan,Bharatpur,27.5909,84.5223,2020-10-08 00:00:00,Humid and mostly cloudy throughout the day.,partly-cloudy-day,2020-10-08 06:04:00,2020-10-08 17:47:00,0.71,0.0295,0.173,2020-10-08 22:40:00,0.1,rain,34.34,2020-10-08 14:18:00,21.49,2020-10-09 05:38:00,38.8,2020-10-08 15:28:00,22.12,2020-10-09 05:38:00,21.58,0.71,1009.9,1.17,1.82,1602146640,7,0.59,7,1602138720,16.093,255.0,21.92,2020-10-08 05:40:00,34.34,2020-10-08 14:18:00,22.48,2020-10-08 05:41:00,38.8,2020-10-08 15:28:00,
Chitawan,Bharatpur,27.72113611,84.58525556,2020-10-08 00:00:00,Humid and partly cloudy throughout the day.,partly-cloudy-day,2020-10-08 06:04:00,2020-10-08 17:46:00,0.71,0.0234,0.0883,2020-10-08 23:00:00,0.07,rain,33.78,2020-10-08 13:55:00,20.93,2020-10-09 05:38:00,36.17,2020-10-08 15:25:00,21.41,2020-10-09 05:38:00,20.01,0.68,1010.4,1.13,1.92,1602114600,38,0.57,7,1602138660,16.093,254.4,20.62,2020-10-08 05:37:00,33.78,2020-10-08 13:55:00,21.01,2020-10-08 05:37:00,36.17,2020-10-08 15:25:00,
Chitawan,Jhuwani,27.654025,84.3507944,2020-10-08 00:00:00,Humid and partly cloudy throughout the day.,partly-cloudy-day,2020-10-08 06:05:00,2020-10-08 17:47:00,0.71,0.019,0.0674,2020-10-08 22:43:00,0.06,rain,34.62,2020-10-08 14:12:00,21.22,2020-10-09 05:40:00,38.28,2020-10-08 15:35:00,21.7,2020-10-09 05:41:00,20.44,0.66,1009.9,1.25,1.98,1602147840,5,0.48,7,1602137760,16.093,255.0,21.43,2020-10-08 05:36:00,34.62,2020-10-08 14:12:00,21.79,2020-10-08 05:36:00,38.28,2020-10-08 15:35:00,
Chitwan,Gobindabasti,27.423171500000002,84.30374090000001,2020-10-08 00:00:00,Humid and partly cloudy throughout the day.,partly-cloudy-day,2020-10-08 06:05:00,2020-10-08 17:47:00,0.71,0.0311,0.1472,2020-10-08 05:21:00,0.09,rain,32.42,2020-10-08 14:20:00,21.5,2020-10-09 05:34:00,36.42,2020-10-08 15:36:00,22.2,2020-10-09 05:34:00,21.33,0.73,1009.5,1.47,2.57,1602157800,60,0.48,7,1602139380,16.093,255.6,22.32,2020-10-08 05:01:00,32.42,2020-10-08 14:20:00,22.97,2020-10-08 05:02:00,36.42,2020-10-08 15:36:00,
Chitwan,Madi Kalyanpur,27.580483299999997,84.2242222,2020-10-08 00:00:00,Humid and partly cloudy throughout the day.,partly-cloudy-day,2020-10-08 06:06:00,2020-10-08 17:48:00,0.71,0.0157,0.1002,2020-10-08 01:36:00,0.04,rain,34.3,2020-10-08 14:13:00,20.92,2020-10-09 05:37:00,38.42,2020-10-08 15:38:00,21.42,2020-10-09 05:38:00,20.7,0.67,1009.7,1.39,2.32,1602148740,13,0.41,7,1602139260,16.093,255.2,21.57,2020-10-08 05:26:00,34.3,2020-10-08 14:13:00,21.98,2020-10-08 05:26:00,38.42,2020-10-08 15:38:00,
Chitwan,Meghauli,27.67303333,84.42227222,2020-10-08 00:00:00,Humid and partly cloudy throughout the day.,partly-cloudy-day,2020-10-08 06:05:00,2020-10-08 17:47:00,0.71,0.0237,0.1024,2020-10-08 22:43:00,0.07,rain,34.57,2020-10-08 14:10:00,21.42,2020-10-09 05:40:00,37.93,2020-10-08 15:33:00,21.93,2020-10-09 05:40:00,20.41,0.66,1009.9,1.22,1.9,1602147300,13,0.52,7,1602137820,16.093,254.9,21.49,2020-10-08 05:37:00,34.57,2020-10-08 14:10:00,21.86,2020-10-08 05:37:00,37.93,2020-10-08 15:33:00,
Dadeldhura,Dadeldhura,29.301352,80.58775194,2020-10-08 00:00:00,Partly cloudy throughout the day.,partly-cloudy-day,2020-10-08 06:21:00,2020-10-08 18:01:00,0.71,0.0068,0.0644,2020-10-08 14:45:00,0.01,rain,25.32,2020-10-08 13:22:00,14.17,2020-10-09 05:39:00,25.05,2020-10-08 13:23:00,14.44,2020-10-09 05:39:00,15.77,0.87,1012.0,1.06,2.04,1602147960,161,0.33,8,1602139920,16.093,256.6,13.66,2020-10-08 05:43:00,25.32,2020-10-08 13:22:00,14.37,2020-10-08 05:42:00,25.05,2020-10-08 13:23:00,
Dadeldhura,Dailekh,29.12785778,80.34740778,2020-10-08 00:00:00,Humid throughout the day.,clear-day,2020-10-08 06:22:00,2020-10-08 18:02:00,0.71,0.0049,0.0473,2020-10-08 14:45:00,0.01,rain,32.23,2020-10-08 13:19:00,19.87,2020-10-09 05:34:00,35.98,2020-10-08 13:08:00,20.14,2020-10-09 05:33:00,19.4,0.69,1011.3,1.52,2.74,1602109980,31,0.28,8,1602139320,16.093,258.6,20.1,2020-10-08 05:35:00,32.23,2020-10-08 13:19:00,20.41,2020-10-08 05:34:00,35.98,2020-10-08 13:08:00,
Dadeldhura,Sahukharka,29.288393100000004,80.37301500000001,2020-10-08 00:00:00,Clear throughout the day.,clear-day,2020-10-08 06:22:00,2020-10-08 18:02:00,0.71,0.0086,0.0833,2020-10-08 14:45:00,0.01,rain,26.49,2020-10-08 13:13:00,15.86,2020-10-09 05:45:00,26.35,2020-10-08 13:15:00,16.13,2020-10-09 05:45:00,16.63,0.82,1011.6,1.32,2.52,1602180900,48,0.32,8,1602139860,16.093,257.3,15.57,2020-10-08 05:47:00,26.49,2020-10-08 13:13:00,16.07,2020-10-08 05:44:00,26.35,2020-10-08 13:15:00,
Dailekh,Bale Budha (Tallo Dhungeshwor),28.83811111,81.70848333,2020-10-08 00:00:00,Humid throughout the day.,clear-day,2020-10-08 06:16:00,2020-10-08 17:57:00,0.71,0.0053,0.0168,2020-10-08 23:21:00,0.05,rain,28.84,2020-10-08 13:43:00,18.13,2020-10-09 06:06:00,31.37,2020-10-08 13:50:00,18.4,2020-10-09 06:06:00,19.11,0.85,1012.4,1.3,2.32,1602111360,84,0.33,8,1602137040,16.093,255.7,16.96,2020-10-08 05:39:00,28.84,2020-10-08 13:43:00,17.23,2020-10-08 05:39:00,31.37,2020-10-08 13:50:00,
Dailekh,Katti,28.92202778,81.62608333,2020-10-08 00:00:00,Humid throughout the day.,clear-day,2020-10-08 06:17:00,2020-10-08 17:57:00,0.71,0.0036,0.0215,2020-10-08 00:00:00,0.03,rain,28.77,2020-10-08 13:45:00,17.74,2020-10-09 05:55:00,30.32,2020-10-08 13:53:00,18.01,2020-10-09 05:55:00,17.56,0.79,1012.6,1.4,2.8,1602110520,40,0.27,9,1602137340,16.093,255.8,16.46,2020-10-08 05:37:00,28.77,2020-10-08 13:45:00,16.73,2020-10-08 05:37:00,30.32,2020-10-08 13:53:00,
Dailekh,Nayabasti (Dang),28.78022222,81.82144444,2020-10-08 00:00:00,Humid and partly cloudy throughout the day.,partly-cloudy-day,2020-10-08 06:16:00,2020-10-08 17:57:00,0.71,0.012,0.0436,2020-10-08 22:05:00,0.08,rain,29.07,2020-10-08 13:44:00,18.65,2020-10-09 05:41:00,32.16,2020-10-08 13:53:00,19.08,2020-10-09 05:38:00,19.93,0.87,1012.5,1.19,2.09,1602111300,138,0.36,8,1602137160,16.093,255.6,17.4,2020-10-08 05:29:00,29.07,2020-10-08 13:44:00,17.7,2020-10-08 05:28:00,32.16,2020-10-08 13:53:00,
Dailekh,Ranimatta,28.90711111,81.75019167,2020-10-08 00:00:00,Humid throughout the day.,clear-day,2020-10-08 06:16:00,2020-10-08 17:57:00,0.71,0.0047,0.02,2020-10-08 23:32:00,0.05,rain,26.7,2020-10-08 13:43:00,16.4,2020-10-09 05:53:00,27.84,2020-10-08 13:45:00,16.67,2020-10-09 05:53:00,17.13,0.86,1012.8,1.39,2.63,1602110760,300,0.32,9,1602136980,16.093,254.7,14.98,2020-10-08 05:35:00,26.7,2020-10-08 13:43:00,15.25,2020-10-08 05:35:00,27.84,2020-10-08 13:45:00,
Dang,Ghorahi (Masina),28.13174722,82.30278333,2020-10-08 00:00:00,Humid and partly cloudy throughout the day.,partly-cloudy-day,2020-10-08 06:14:00,2020-10-08 17:55:00,0.71,0.0139,0.0544,2020-10-08 20:49:00,0.04,rain,30.81,2020-10-08 13:28:00,20.39,2020-10-09 05:36:00,34.12,2020-10-08 13:39:00,20.93,2020-10-09 05:34:00,20.19,0.76,1010.9,1.52,2.64,1602147480,345,0.34,6,1602135360,16.093,256.0,19.63,2020-10-08 05:24:00,30.81,2020-10-08 13:28:00,20.04,2020-10-08 05:22:00,34.12,2020-10-08 13:39:00,
Dang,Ghorai (Dang),27.69233306,82.52512694,2020-10-08 00:00:00,Partly cloudy throughout the day.,partly-cloudy-day,2020-10-08 06:13:00,2020-10-08 17:54:00,0.71,0.0,0.0,2020-10-08 13:45:00,0.0,,32.76,2020-10-08 13:56:00,22.43,2020-10-09 05:23:00,36.06,2020-10-08 13:10:00,22.96,2020-10-09 05:25:00,20.13,0.66,1009.1,1.81,3.67,1602149640,10,0.23,7,1602137040,16.093,257.2,22.27,2020-10-08 05:27:00,32.76,2020-10-08 13:56:00,22.81,2020-10-08 05:27:00,36.06,2020-10-08 13:10:00,
Dang,Koilabas,28.05,82.5,2020-10-08 00:00:00,Humid and partly cloudy throughout the day.,partly-cloudy-day,2020-10-08 06:13:00,2020-10-08 17:54:00,0.71,0.0145,0.0444,2020-10-08 17:48:00,0.03,rain,31.23,2020-10-08 13:41:00,21.09,2020-10-09 05:33:00,33.99,2020-10-08 13:40:00,21.62,2020-10-09 05:31:00,20.13,0.73,1010.7,1.53,2.53,1602147660,346,0.35,6,1602137880,16.093,255.8,20.62,2020-10-08 05:24:00,31.23,2020-10-08 13:41:00,21.05,2020-10-08 05:23:00,33.99,2020-10-08 13:40:00,
Dang,Lalmatiya,27.87055556,82.53666667,2020-10-08 00:00:00,Humid and partly cloudy throughout the day.,partly-cloudy-day,2020-10-08 06:13:00,2020-10-08 17:54:00,0.71,0.0045,0.0252,2020-10-08 17:51:00,0.01,rain,33.75,2020-10-08 13:59:00,22.16,2020-10-09 05:32:00,38.42,2020-10-08 13:55:00,22.67,2020-10-09 05:33:00,20.79,0.67,1009.9,1.63,3.13,1602148740,2,0.29,7,1602137220,16.093,256.6,21.7,2020-10-08 05:29:00,33.75,2020-10-08 13:59:00,22.17,2020-10-08 05:29:00,38.42,2020-10-08 13:55:00,
Dang,Lamahi,27.88486889,82.33509611,2020-10-08 00:00:00,Humid and partly cloudy throughout the day.,partly-cloudy-day,2020-10-08 06:13:00,2020-10-08 17:55:00,0.71,0.0,0.0,2020-10-08 17:45:00,0.0,,33.81,2020-10-08 14:06:00,22.14,2020-10-09 05:30:00,38.2,2020-10-08 13:59:00,22.71,2020-10-09 05:29:00,20.9,0.68,1009.7,1.72,3.3,1602148260,359,0.26,6,1602137820,16.093,257.2,21.63,2020-10-08 05:31:00,33.81,2020-10-08 14:06:00,22.15,2020-10-08 05:30:00,38.2,2020-10-08 13:59:00,
Dang,Padhampur,28.03719889,82.484156,2020-10-08 00:00:00,Humid and partly cloudy throughout the day.,partly-cloudy-day,2020-10-08 06:13:00,2020-10-08 17:54:00,0.71,0.0115,0.0413,2020-10-08 17:47:00,0.03,rain,31.25,2020-10-08 13:41:00,21.17,2020-10-09 05:32:00,33.86,2020-10-08 13:38:00,21.7,2020-10-09 05:30:00,20.03,0.72,1010.6,1.55,2.59,1602147780,347,0.34,6,1602137940,16.093,255.9,20.72,2020-10-08 05:23:00,31.25,2020-10-08 13:41:00,21.16,2020-10-08 05:21:00,33.86,2020-10-08 13:38:00,
Dang,Tulsipur,28.201323,82.1393939,2020-10-08 00:00:00,Humid and partly cloudy throughout the day.,partly-cloudy-day,2020-10-08 06:14:00,2020-10-08 17:56:00,0.71,0.0143,0.0607,2020-10-08 12:15:00,0.04,rain,30.81,2020-10-08 13:06:00,20.64,2020-10-09 05:35:00,34.17,2020-10-08 13:23:00,21.23,2020-10-09 05:31:00,20.52,0.78,1010.8,1.47,2.6,1602147360,8,0.31,7,1602135660,16.093,256.3,19.73,2020-10-08 05:20:00,30.81,2020-10-08 13:06:00,20.21,2020-10-08 05:16:00,34.17,2020-10-08 13:23:00,
Darchula,Darchula New,29.666666999999997,80.55,2020-10-08 00:15:00,Clear throughout the day.,clear-day,2020-10-08 06:21:00,2020-10-08 18:01:00,0.71,0.0,0.0,2020-10-08 14:45:00,0.0,,31.05,2020-10-08 13:55:00,17.09,2020-10-09 05:33:00,30.76,2020-10-08 13:52:00,17.36,2020-10-09 05:33:00,14.59,0.61,1013.3,1.15,2.1,1602145620,198,0.11,8,1602138660,16.093,255.7,16.45,2020-10-08 05:13:00,31.05,2020-10-08 13:55:00,16.72,2020-10-08 05:13:00,30.76,2020-10-08 13:52:00,
Darchula,Dhaulatiya (Dallekhdhar),29.78255194,80.82215806,2020-10-08 00:00:00,Clear throughout the day.,clear-day,2020-10-08 06:20:00,2020-10-08 18:00:00,0.71,0.0022,0.0134,2020-10-08 18:04:00,0.02,rain,23.14,2020-10-08 13:52:00,12.99,2020-10-08 23:55:00,22.86,2020-10-08 13:51:00,13.26,2020-10-08 23:55:00,10.31,0.7,1015.3,1.49,2.79,1602113400,193,0.15,9,1602137340,16.093,251.9,11.53,2020-10-08 05:03:00,23.14,2020-10-08 13:52:00,11.8,2020-10-08 05:03:00,22.86,2020-10-08 13:51:00,
Darchula,Gokuleshwar,29.84287806,80.53884806,2020-10-08 00:15:00,Clear throughout the day.,clear-day,2020-10-08 06:22:00,2020-10-08 18:01:00,0.71,0.0,0.0,2020-10-08 02:05:00,0.0,,28.29,2020-10-08 13:58:00,16.07,2020-10-09 05:38:00,28.01,2020-10-08 13:58:00,16.34,2020-10-09 05:38:00,11.09,0.56,1014.0,1.28,2.3,1602113100,207,0.14,8,1602137400,16.093,254.1,15.04,2020-10-08 05:05:00,28.29,2020-10-08 13:58:00,15.31,2020-10-08 05:05:00,28.01,2020-10-08 13:58:00,
Darchula,Lumpthi,29.84496194,80.54539389,2020-10-08 00:15:00,Clear throughout the day.,clear-day,2020-10-08 06:22:00,2020-10-08 18:01:00,0.71,0.0,0.0,2020-10-08 02:05:00,0.0,,28.13,2020-10-08 13:57:00,16.01,2020-10-09 05:40:00,27.85,2020-10-08 13:57:00,16.28,2020-10-09 05:40:00,11.03,0.56,1014.1,1.29,2.33,1602113160,205,0.14,8,1602137400,16.093,254.0,14.97,2020-10-08 05:05:00,28.13,2020-10-08 13:57:00,15.24,2020-10-08 05:05:00,27.85,2020-10-08 13:57:00,
Dhading,Dhading,28.05,84.82,2020-10-08 00:00:00,Partly cloudy throughout the day.,partly-cloudy-day,2020-10-08 06:04:00,2020-10-08 17:45:00,0.71,0.0084,0.0693,2020-10-08 22:46:00,0.02,rain,30.52,2020-10-08 13:51:00,19.08,2020-10-09 05:36:00,30.89,2020-10-08 13:58:00,19.35,2020-10-09 05:36:00,14.7,0.57,1012.2,1.08,2.11,1602113580,344,0.52,7,1602138000,16.093,252.8,18.4,2020-10-08 05:10:00,30.52,2020-10-08 13:51:00,18.67,2020-10-08 05:10:00,30.89,2020-10-08 13:58:00,
Dhading,Dhunibesi,27.912505600000003,84.8961333,2020-10-08 00:00:00,Mostly cloudy throughout the day.,partly-cloudy-day,2020-10-08 06:03:00,2020-10-08 17:45:00,0.71,0.0102,0.0503,2020-10-08 22:10:00,0.01,rain,31.91,2020-10-08 13:51:00,19.63,2020-10-09 05:39:00,32.8,2020-10-08 13:50:00,19.9,2020-10-09 05:39:00,16.62,0.61,1011.6,0.97,1.88,1602114120,303,0.59,7,1602137520,16.093,253.2,19.11,2020-10-08 05:25:00,31.91,2020-10-08 13:51:00,19.38,2020-10-08 05:25:00,32.8,2020-10-08 13:50:00,
Dhading,Gajuri,27.8053359,84.7055012,2020-10-08 00:00:00,Mostly cloudy throughout the day.,partly-cloudy-day,2020-10-08 06:04:00,2020-10-08 17:46:00,0.71,0.0121,0.0442,2020-10-08 16:41:00,0.03,rain,32.96,2020-10-08 13:47:00,19.53,2020-10-09 05:31:00,35.12,2020-10-08 13:46:00,19.81,2020-10-09 05:30:00,19.03,0.67,1011.2,0.98,1.87,1602114180,48,0.59,7,1602139200,16.093,253.9,19.09,2020-10-08 05:29:00,32.96,2020-10-08 13:47:00,19.35,2020-10-08 05:28:00,35.12,2020-10-08 13:46:00,
Dhading,Majhimtar,27.72311667,85.1642,2020-10-08 00:00:00,Mostly cloudy throughout the day.,partly-cloudy-day,2020-10-08 06:02:00,2020-10-08 17:44:00,0.71,0.0386,0.141,2020-10-08 02:25:00,0.06,rain,30.8,2020-10-08 13:18:00,17.65,2020-10-09 05:38:00,32.72,2020-10-08 13:45:00,17.92,2020-10-09 05:38:00,18.24,0.72,1011.5,0.83,1.62,1602180900,46,0.66,7,1602139020,16.093,252.0,17.7,2020-10-08 05:40:00,30.8,2020-10-08 13:18:00,17.97,2020-10-08 05:40:00,32.72,2020-10-08 13:45:00,
Dhading,Pakhribas,27.802707399999996,84.8797782,2020-10-08 00:00:00,Mostly cloudy throughout the day.,partly-cloudy-day,2020-10-08 06:03:00,2020-10-08 17:45:00,0.71,0.0098,0.045,2020-10-08 16:35:00,0.02,rain,32.99,2020-10-08 13:59:00,20.02,2020-10-09 05:34:00,35.08,2020-10-08 14:26:00,20.34,2020-10-09 05:33:00,19.02,0.68,1011.4,0.93,1.77,1602114180,356,0.59,7,1602138180,16.093,253.1,19.49,2020-10-08 05:25:00,32.99,2020-10-08 13:59:00,19.79,2020-10-08 05:25:00,35.08,2020-10-08 14:26:00,
Dhankuta,Barahkshetra,26.91424278,87.15986,2020-10-08 00:00:00,Humid and mostly cloudy throughout the day.,partly-cloudy-day,2020-10-08 05:54:00,2020-10-08 17:36:00,0.71,0.0345,0.108,2020-10-08 01:38:00,0.2,rain,31.73,2020-10-08 13:02:00,22.47,2020-10-09 05:39:00,43.33,2020-10-08 14:48:00,23.16,2020-10-09 05:38:00,24.07,0.86,1010.6,1.17,2.26,1602147180,16,0.68,7,1602136860,16.093,254.1,22.29,2020-10-08 05:42:00,31.73,2020-10-08 13:02:00,23.13,2020-10-08 05:40:00,43.33,2020-10-08 14:48:00,
Dhankuta,Dhankuta,26.93805556,87.15472222,2020-10-08 00:00:00,Humid and mostly cloudy throughout the day.,partly-cloudy-day,2020-10-08 05:54:00,2020-10-08 17:36:00,0.71,0.0329,0.0914,2020-10-08 17:24:00,0.19,rain,31.4,2020-10-08 12:56:00,22.23,2020-10-09 05:41:00,42.19,2020-10-08 14:47:00,22.92,2020-10-09 05:39:00,23.85,0.86,1010.7,1.15,2.31,1602147000,15,0.69,7,1602136920,16.093,253.9,22.04,2020-10-08 05:43:00,31.4,2020-10-08 12:56:00,22.87,2020-10-08 05:41:00,42.19,2020-10-08 14:47:00,
Dhankuta,Dhankuta,27.0500025,87.24444444,2020-10-08 00:00:00,Humid and mostly cloudy throughout the day.,partly-cloudy-day,2020-10-08 05:53:00,2020-10-08 17:36:00,0.71,0.0163,0.0875,2020-10-08 18:12:00,0.12,rain,24.81,2020-10-08 13:06:00,16.92,2020-10-09 05:12:00,25.26,2020-10-08 13:27:00,17.38,2020-10-09 05:15:00,19.09,0.97,1011.0,1.13,2.51,1602114900,10,0.67,7,1602137100,16.093,253.6,16.38,2020-10-08 05:42:00,24.81,2020-10-08 13:06:00,17.08,2020-10-08 05:41:00,25.26,2020-10-08 13:27:00,
Dhankuta,Leguwa Ghat,27.04633889,87.2925,2020-10-08 00:00:00,Humid and mostly cloudy throughout the day.,partly-cloudy-day,2020-10-08 05:53:00,2020-10-08 17:36:00,0.71,0.0128,0.0719,2020-10-08 18:16:00,0.1,rain,24.45,2020-10-08 12:51:00,15.62,2020-10-09 05:36:00,24.84,2020-10-08 13:05:00,16.1,2020-10-09 05:37:00,18.66,0.97,1011.0,1.11,2.49,1602114780,5,0.67,7,1602137040,16.093,253.5,15.22,2020-10-08 05:46:00,24.45,2020-10-08 12:51:00,15.96,2020-10-08 05:46:00,24.84,2020-10-08 13:05:00,
Dhankuta,Muga,27.15338889,87.28919444,2020-10-08 00:00:00,Humid and mostly cloudy throughout the day.,partly-cloudy-day,2020-10-08 05:53:00,2020-10-08 17:36:00,0.71,0.0213,0.0966,2020-10-08 20:36:00,0.11,rain,30.13,2020-10-08 13:30:00,19.26,2020-10-09 05:36:00,34.91,2020-10-08 15:00:00,19.66,2020-10-09 05:35:00,20.72,0.81,1011.6,0.96,2.31,1602147600,213,0.69,6,1602137400,16.093,253.2,19.15,2020-10-08 05:37:00,30.13,2020-10-08 13:30:00,19.56,2020-10-08 05:35:00,34.91,2020-10-08 15:00:00,
Dhankuta,Mul Ghat,26.98321944,87.34595556,2020-10-08 00:00:00,Humid and mostly cloudy throughout the day.,partly-cloudy-day,2020-10-08 05:53:00,2020-10-08 17:36:00,0.71,0.0108,0.0495,2020-10-08 18:25:00,0.1,rain,26.49,2020-10-08 12:45:00,17.85,2020-10-09 05:39:00,28.0,2020-10-08 12:46:00,18.44,2020-10-09 05:39:00,20.2,0.96,1011.0,1.16,2.58,1602114780,2,0.67,7,1602136920,16.093,253.5,17.34,2020-10-08 05:47:00,26.49,2020-10-08 12:45:00,18.14,2020-10-08 05:47:00,28.0,2020-10-08 12:46:00,
Dhankuta,Mul Ghat,26.98321944,87.34595556,2020-10-08 00:00:00,Humid and mostly cloudy throughout the day.,partly-cloudy-day,2020-10-08 05:53:00,2020-10-08 17:36:00,0.71,0.0108,0.0495,2020-10-08 18:25:00,0.1,rain,26.49,2020-10-08 12:45:00,17.85,2020-10-09 05:39:00,28.0,2020-10-08 12:46:00,18.44,2020-10-09 05:39:00,20.2,0.96,1011.0,1.16,2.58,1602114780,2,0.67,7,1602136920,16.093,253.5,17.34,2020-10-08 05:47:00,26.49,2020-10-08 12:45:00,18.14,2020-10-08 05:47:00,28.0,2020-10-08 12:46:00,
Dhanusa,Chisapani Bazar,27.01295556,85.92089722,2020-10-08 00:00:00,Humid and mostly cloudy throughout the day.,rain,2020-10-08 05:59:00,2020-10-08 17:41:00,0.71,0.1296,0.6783,2020-10-08 05:17:00,0.43,rain,31.64,2020-10-08 14:10:00,22.94,2020-10-09 05:34:00,39.97,2020-10-08 15:25:00,23.74,2020-10-09 05:32:00,24.23,0.85,1009.8,1.54,2.6,1602148500,344,0.69,6,1602138000,16.093,255.1,23.61,2020-10-08 05:41:00,31.64,2020-10-08 14:10:00,24.68,2020-10-08 05:38:00,39.97,2020-10-08 15:25:00,
Dhanusa,Janakpur Airport,26.8,85.9833333,2020-10-08 00:00:00,Humid and mostly cloudy throughout the day.,partly-cloudy-day,2020-10-08 05:58:00,2020-10-08 17:41:00,0.71,0.0621,0.3069,2020-10-08 05:15:00,0.35,rain,32.31,2020-10-08 14:04:00,23.58,2020-10-09 05:25:00,42.23,2020-10-08 13:16:00,24.55,2020-10-09 05:22:00,24.84,0.84,1009.3,1.47,2.57,1602114720,24,0.71,6,1602137280,16.093,255.7,24.26,2020-10-08 04:49:00,32.31,2020-10-08 14:04:00,25.4,2020-10-08 04:48:00,42.23,2020-10-08 13:16:00,
Dhanusa,Tulsi,26.71666667,85.96666667,2020-10-08 00:00:00,Humid and mostly cloudy throughout the day.,partly-cloudy-day,2020-10-08 05:58:00,2020-10-08 17:41:00,0.71,0.0491,0.2336,2020-10-08 05:19:00,0.32,rain,32.3,2020-10-08 14:10:00,23.59,2020-10-09 05:22:00,42.6,2020-10-08 13:24:00,24.6,2020-10-09 05:17:00,24.9,0.85,1009.2,1.49,2.84,1602120840,42,0.72,6,1602136980,16.093,255.9,24.23,2020-10-08 04:47:00,32.3,2020-10-08 14:10:00,25.38,2020-10-08 04:46:00,42.6,2020-10-08 13:24:00,
Dolakha,Charikot,27.67633111,86.10399389,2020-10-08 00:00:00,Mostly cloudy throughout the day.,partly-cloudy-day,2020-10-08 05:58:00,2020-10-08 17:40:00,0.71,0.0118,0.0693,2020-10-08 22:39:00,0.07,rain,28.02,2020-10-08 13:54:00,17.38,2020-10-09 05:37:00,28.49,2020-10-08 14:25:00,17.65,2020-10-09 05:37:00,14.74,0.7,1012.9,1.31,3.11,1602113100,100,0.64,7,1602136440,16.093,249.5,15.89,2020-10-08 05:10:00,28.02,2020-10-08 13:54:00,16.16,2020-10-08 05:10:00,28.49,2020-10-08 14:25:00,
Dolakha,Dunai,27.63333333,86.13333333,2020-10-08 00:00:00,Humid and mostly cloudy throughout the day.,partly-cloudy-day,2020-10-08 05:58:00,2020-10-08 17:40:00,0.71,0.015,0.0644,2020-10-08 22:35:00,0.08,rain,26.94,2020-10-08 13:47:00,15.52,2020-10-09 05:46:00,27.75,2020-10-08 13:47:00,15.79,2020-10-09 05:46:00,15.55,0.77,1012.5,1.29,3.13,1602113220,114,0.64,7,1602136620,16.093,249.7,14.39,2020-10-08 05:42:00,26.94,2020-10-08 13:47:00,14.66,2020-10-08 05:42:00,27.75,2020-10-08 13:47:00,
Dolakha,Jiri,27.6666667,86.05,2020-10-08 00:00:00,Mostly cloudy throughout the day.,partly-cloudy-day,2020-10-08 05:58:00,2020-10-08 17:40:00,0.71,0.0127,0.0916,2020-10-08 22:41:00,0.07,rain,24.61,2020-10-08 13:51:00,14.59,2020-10-09 05:35:00,24.44,2020-10-08 13:54:00,14.86,2020-10-09 05:35:00,14.09,0.8,1012.6,1.22,2.96,1602113160,93,0.66,7,1602136380,16.093,249.9,13.06,2020-10-08 05:19:00,24.61,2020-10-08 13:51:00,13.33,2020-10-08 05:19:00,24.44,2020-10-08 13:54:00,
Dolakha,Nagdaha,27.616666700000003,86.35,2020-10-08 00:00:00,Mostly cloudy throughout the day.,partly-cloudy-day,2020-10-08 05:57:00,2020-10-08 17:39:00,0.71,0.019,0.0513,2020-10-08 20:44:00,0.1,rain,19.52,2020-10-08 13:23:00,10.79,2020-10-09 01:09:00,19.49,2020-10-08 13:35:00,11.06,2020-10-09 01:09:00,11.46,0.88,1013.2,1.36,2.88,1602113340,93,0.65,8,1602134820,16.093,247.7,9.74,2020-10-08 05:11:00,19.52,2020-10-08 13:23:00,10.01,2020-10-08 05:11:00,19.49,2020-10-08 13:35:00,
Dolpa,Kaigaun,29.03154722,82.76287778,2020-10-08 00:00:00,Clear throughout the day.,clear-day,2020-10-08 06:12:00,2020-10-08 17:53:00,0.71,0.0003,0.0017,2020-10-08 17:45:00,0.02,rain,18.4,2020-10-08 12:55:00,6.83,2020-10-09 05:42:00,18.12,2020-10-08 12:55:00,7.1,2020-10-09 05:42:00,8.36,0.9,1016.3,1.12,2.32,1602143340,13,0.37,9,1602135240,16.093,249.0,3.91,2020-10-08 05:56:00,18.4,2020-10-08 12:55:00,4.18,2020-10-08 05:56:00,18.12,2020-10-08 12:55:00,
Dolpa,Silgadhi Doti,28.98363333,82.82074444,2020-10-08 00:00:00,Clear throughout the day.,clear-day,2020-10-08 06:12:00,2020-10-08 17:53:00,0.71,0.0003,0.002,2020-10-08 17:46:00,0.02,rain,18.45,2020-10-08 13:00:00,6.86,2020-10-09 05:43:00,18.17,2020-10-08 13:00:00,7.13,2020-10-09 05:43:00,8.42,0.9,1016.1,1.17,2.34,1602142380,21,0.35,9,1602135420,16.093,248.8,3.98,2020-10-08 05:51:00,18.45,2020-10-08 13:00:00,4.25,2020-10-08 05:51:00,18.17,2020-10-08 13:00:00,
Doti,Dipayal (Doti),29.12015194,80.70944778,2020-10-08 00:00:00,Partly cloudy throughout the day.,partly-cloudy-day,2020-10-08 06:20:00,2020-10-08 18:01:00,0.71,0.0065,0.0304,2020-10-08 17:27:00,0.01,rain,27.5,2020-10-08 13:10:00,16.54,2020-10-09 05:41:00,28.31,2020-10-08 13:15:00,16.85,2020-10-09 05:38:00,17.38,0.83,1012.0,1.06,1.82,1602148440,120,0.34,7,1602139140,16.093,256.9,16.14,2020-10-08 05:38:00,27.5,2020-10-08 13:10:00,16.63,2020-10-08 05:36:00,28.31,2020-10-08 13:15:00,
Doti,Dumrakot,29.16385278,80.600738,2020-10-08 00:00:00,Partly cloudy throughout the day.,partly-cloudy-day,2020-10-08 06:21:00,2020-10-08 18:01:00,0.71,0.0067,0.0526,2020-10-08 14:45:00,0.01,rain,25.05,2020-10-08 13:11:00,14.61,2020-10-09 05:36:00,24.87,2020-10-08 13:13:00,14.87,2020-10-09 05:36:00,16.04,0.87,1011.5,1.17,1.96,1602180900,97,0.33,8,1602139800,16.093,257.2,14.11,2020-10-08 05:42:00,25.05,2020-10-08 13:11:00,14.68,2020-10-08 05:41:00,24.87,2020-10-08 13:13:00,
Doti,Gaira,29.34106083,81.045105,2020-10-08 00:00:00,Partly cloudy throughout the day.,partly-cloudy-day,2020-10-08 06:19:00,2020-10-08 18:00:00,0.71,0.0171,0.132,2020-10-08 12:58:00,0.04,rain,23.69,2020-10-08 13:46:00,13.04,2020-10-09 05:38:00,23.41,2020-10-08 13:46:00,13.31,2020-10-09 05:38:00,13.74,0.85,1012.5,1.04,2.19,1602111360,77,0.4,8,1602139860,16.093,256.0,11.71,2020-10-08 05:14:00,23.69,2020-10-08 13:46:00,11.98,2020-10-08 05:14:00,23.41,2020-10-08 13:46:00,
Doti,Jhingrana,29.26209694,80.93690083,2020-10-08 00:00:00,Partly cloudy throughout the day.,partly-cloudy-day,2020-10-08 06:20:00,2020-10-08 18:00:00,0.71,0.0217,0.1802,2020-10-08 12:58:00,0.05,rain,30.41,2020-10-08 13:54:00,17.83,2020-10-09 05:30:00,31.17,2020-10-08 13:59:00,18.1,2020-10-09 05:30:00,18.02,0.76,1013.1,0.87,1.97,1602151560,83,0.43,7,1602139080,16.093,256.6,16.81,2020-10-08 05:15:00,30.41,2020-10-08 13:54:00,17.07,2020-10-08 05:14:00,31.17,2020-10-08 13:59:00,
Doti,Khaptad,29.0,81.13333333,2020-10-08 00:00:00,Humid and partly cloudy throughout the day.,partly-cloudy-day,2020-10-08 06:19:00,2020-10-08 17:59:00,0.71,0.0064,0.1136,2020-10-08 00:00:00,0.05,rain,28.76,2020-10-08 13:47:00,18.29,2020-10-09 05:47:00,29.62,2020-10-08 13:56:00,18.56,2020-10-09 05:47:00,18.56,0.84,1011.5,1.15,2.24,1602111000,3,0.36,8,1602138000,16.093,257.6,17.22,2020-10-08 05:40:00,28.76,2020-10-08 13:47:00,17.65,2020-10-08 05:43:00,29.62,2020-10-08 13:56:00,
Doti,Kola Gaun,29.38804889,81.14630111,2020-10-08 00:00:00,Clear throughout the day.,clear-day,2020-10-08 06:19:00,2020-10-08 17:59:00,0.71,0.0072,0.0471,2020-10-08 12:58:00,0.02,rain,22.45,2020-10-08 13:47:00,10.85,2020-10-09 05:43:00,22.17,2020-10-08 13:47:00,11.12,2020-10-09 05:43:00,12.46,0.88,1012.9,1.18,2.39,1602111120,75,0.37,8,1602139200,16.093,255.5,9.53,2020-10-08 05:16:00,22.45,2020-10-08 13:47:00,9.47,2020-10-08 05:13:00,22.17,2020-10-08 13:47:00,
Gorkha,Barpak,28.2,84.73333333,2020-10-07 21:45:00,Humid and partly cloudy throughout the day.,partly-cloudy-day,2020-10-08 06:04:00,2020-10-08 17:45:00,0.7,0.004,0.017,2020-10-08 15:12:00,0.04,rain,25.81,2020-10-08 12:59:00,16.33,2020-10-09 00:51:00,26.0,2020-10-08 13:04:00,16.6,2020-10-09 00:51:00,14.17,0.72,1013.0,1.53,3.02,1602112920,349,0.42,7,1602137220,13.894,250.6,15.21,2020-10-08 05:16:00,25.81,2020-10-08 12:59:00,15.48,2020-10-08 05:16:00,26.0,2020-10-08 13:04:00,
Gorkha,Chhekampar,27.97138889,84.58944444,2020-10-08 00:00:00,Partly cloudy throughout the day.,partly-cloudy-day,2020-10-08 06:04:00,2020-10-08 17:46:00,0.71,0.0063,0.0499,2020-10-08 22:50:00,0.02,rain,31.91,2020-10-08 13:57:00,18.45,2020-10-09 05:42:00,32.61,2020-10-08 13:53:00,18.72,2020-10-09 05:42:00,15.91,0.59,1011.3,0.85,1.55,1602114180,116,0.48,7,1602139080,16.093,254.6,18.47,2020-10-08 05:36:00,31.91,2020-10-08 13:57:00,18.74,2020-10-08 05:36:00,32.61,2020-10-08 13:53:00,
Gorkha,Chumchet,28.48333333,85.0,2020-10-07 21:45:00,Partly cloudy throughout the day.,partly-cloudy-day,2020-10-08 06:03:00,2020-10-08 17:44:00,0.7,0.0003,0.0024,2020-10-08 17:45:00,0.03,rain,11.2,2020-10-08 12:50:00,4.16,2020-10-08 23:50:00,11.37,2020-10-08 13:32:00,4.41,2020-10-08 23:53:00,5.14,0.93,1016.6,1.22,2.61,1602138600,56,0.33,8,1602136920,16.093,245.0,2.28,2020-10-08 05:12:00,11.2,2020-10-08 12:50:00,1.16,2020-10-08 05:15:00,11.37,2020-10-08 13:32:00,
Gorkha,Gorkha,28.66666667,84.61666667,2020-10-07 21:45:00,Partly cloudy throughout the day.,partly-cloudy-day,2020-10-08 06:05:00,2020-10-08 17:46:00,0.7,0.0009,0.0039,2020-10-08 16:00:00,0.02,rain,5.86,2020-10-08 13:40:00,-2.48,2020-10-09 05:45:00,4.47,2020-10-08 13:44:00,-2.21,2020-10-09 05:45:00,0.38,1.0,1017.9,1.13,2.24,1602137100,348,0.3,8,1602137160,16.093,243.6,-4.06,2020-10-08 05:51:00,5.86,2020-10-08 13:40:00,-3.79,2020-10-08 05:51:00,4.47,2020-10-08 13:44:00,
Gorkha,Laprak,28.2,84.75,2020-10-07 21:45:00,Humid and partly cloudy throughout the day.,partly-cloudy-day,2020-10-08 06:04:00,2020-10-08 17:45:00,0.7,0.0041,0.0176,2020-10-08 15:10:00,0.04,rain,24.26,2020-10-08 12:56:00,14.68,2020-10-09 05:45:00,24.51,2020-10-08 13:03:00,14.95,2020-10-09 05:45:00,13.78,0.76,1012.9,1.54,3.07,1602112860,347,0.42,7,1602137220,13.861,250.5,13.12,2020-10-08 05:29:00,24.26,2020-10-08 12:56:00,13.39,2020-10-08 05:29:00,24.51,2020-10-08 13:03:00,
Gorkha,Sama Gaun,28.42693611,84.90264444,2020-10-07 21:45:00,Partly cloudy throughout the day.,partly-cloudy-day,2020-10-08 06:03:00,2020-10-08 17:45:00,0.7,0.0013,0.0058,2020-10-08 16:41:00,0.04,rain,15.74,2020-10-08 12:41:00,7.2,2020-10-08 23:48:00,15.46,2020-10-08 12:43:00,7.47,2020-10-08 23:48:00,6.65,0.81,1016.6,1.29,2.67,1602113880,37,0.34,7,1602136920,15.546,245.8,6.24,2020-10-08 05:08:00,15.74,2020-10-08 12:41:00,5.54,2020-10-08 05:09:00,15.46,2020-10-08 12:43:00,
Gulmi,Darma,27.9365,83.33811667,2020-10-08 00:00:00,Partly cloudy throughout the day.,partly-cloudy-day,2020-10-08 06:09:00,2020-10-08 17:51:00,0.71,0.0122,0.0712,2020-10-08 02:07:00,0.06,rain,29.68,2020-10-08 13:46:00,18.48,2020-10-09 05:46:00,30.01,2020-10-08 13:52:00,18.75,2020-10-09 05:46:00,16.15,0.67,1011.4,1.25,1.91,1602147660,11,0.39,8,1602137880,16.093,254.6,17.71,2020-10-08 05:34:00,29.68,2020-10-08 13:46:00,17.98,2020-10-08 05:34:00,30.01,2020-10-08 13:52:00,
Gulmi,Musikot,27.93856667,83.44315278,2020-10-08 00:00:00,Partly cloudy throughout the day.,partly-cloudy-day,2020-10-08 06:09:00,2020-10-08 17:51:00,0.71,0.0176,0.1015,2020-10-08 02:08:00,0.06,rain,32.22,2020-10-08 13:53:00,19.64,2020-10-09 05:42:00,34.02,2020-10-08 15:35:00,19.91,2020-10-09 05:42:00,17.42,0.64,1011.5,1.2,1.86,1602097500,3,0.39,8,1602138060,16.093,254.5,18.77,2020-10-08 05:34:00,32.22,2020-10-08 13:53:00,19.04,2020-10-08 05:34:00,34.02,2020-10-08 15:35:00,
Gulmi,Tamghas,28.16998056,83.26802778,2020-10-08 00:00:00,Partly cloudy throughout the day.,partly-cloudy-day,2020-10-08 06:10:00,2020-10-08 17:51:00,0.71,0.0094,0.0469,2020-10-08 16:45:00,0.05,rain,27.36,2020-10-08 13:44:00,14.84,2020-10-09 05:59:00,27.5,2020-10-08 13:45:00,15.11,2020-10-09 05:59:00,13.54,0.68,1012.7,1.39,1.97,1602113100,357,0.34,7,1602137460,16.093,253.6,14.25,2020-10-08 05:34:00,27.36,2020-10-08 13:44:00,14.52,2020-10-08 05:34:00,27.5,2020-10-08 13:45:00,
Humla,Simikot,29.73056889,82.07185,2020-10-08 00:00:00,Clear throughout the day.,clear-day,2020-10-08 06:15:00,2020-10-08 17:55:00,0.71,0.0,0.0,2020-10-08 02:43:00,0.0,,22.18,2020-10-08 13:51:00,8.57,2020-10-09 05:42:00,21.9,2020-10-08 13:51:00,8.84,2020-10-09 05:42:00,8.28,0.72,1016.3,0.93,2.32,1602144180,119,0.22,9,1602138900,16.093,249.9,7.75,2020-10-08 05:50:00,22.18,2020-10-08 13:51:00,8.02,2020-10-08 05:50:00,21.9,2020-10-08 13:51:00,
Humla,Simikot Airport,29.77827806,81.95264499999999,2020-10-08 00:00:00,Clear throughout the day.,clear-day,2020-10-08 06:16:00,2020-10-08 17:56:00,0.71,0.0,0.0,2020-10-08 02:05:00,0.0,,23.13,2020-10-08 13:53:00,9.13,2020-10-09 05:42:00,22.85,2020-10-08 13:53:00,9.4,2020-10-09 05:42:00,7.86,0.67,1016.4,0.88,2.1,1602145080,184,0.24,9,1602138840,16.093,250.3,8.4,2020-10-08 05:53:00,23.13,2020-10-08 13:53:00,8.67,2020-10-08 05:53:00,22.85,2020-10-08 13:53:00,
Humla,Thali,29.91966194,81.87920194,2020-10-08 00:00:00,Clear throughout the day.,clear-day,2020-10-08 06:16:00,2020-10-08 17:56:00,0.71,0.0,0.0,2020-10-08 02:05:00,0.0,,17.07,2020-10-08 13:48:00,5.68,2020-10-09 05:44:00,16.79,2020-10-08 13:48:00,5.95,2020-10-09 05:44:00,4.12,0.7,1017.6,1.11,2.72,1602142560,74,0.21,9,1602138780,16.093,247.9,5.0,2020-10-08 05:48:00,17.07,2020-10-08 13:48:00,5.27,2020-10-08 05:48:00,16.79,2020-10-08 13:48:00,
Ilam,Himali Gaun,26.90963889,87.92308333,2020-10-08 00:00:00,Humid and mostly cloudy throughout the day.,partly-cloudy-day,2020-10-08 05:51:00,2020-10-08 17:33:00,0.71,0.0496,0.1839,2020-10-08 17:36:00,0.21,rain,27.61,2020-10-08 12:46:00,19.26,2020-10-09 05:46:00,33.62,2020-10-08 13:16:00,20.19,2020-10-09 05:45:00,22.27,0.99,1011.4,1.19,2.25,1602112140,179,0.68,7,1602136320,15.273,252.6,18.04,2020-10-08 05:39:00,27.61,2020-10-08 12:46:00,18.89,2020-10-08 05:37:00,33.62,2020-10-08 13:16:00,
Ilam,Ilam Tea Estate,27.06666667,88.0,2020-10-08 00:00:00,Mostly cloudy throughout the day.,partly-cloudy-day,2020-10-08 05:50:00,2020-10-08 17:33:00,0.71,0.0602,0.2281,2020-10-08 17:41:00,0.21,rain,20.71,2020-10-08 11:55:00,13.5,2020-10-09 05:33:00,21.83,2020-10-08 12:10:00,14.98,2020-10-09 05:26:00,15.39,1.0,1012.4,1.02,2.09,1602104820,168,0.67,7,1602136080,14.203,250.4,11.84,2020-10-08 05:07:00,20.71,2020-10-08 11:55:00,13.09,2020-10-08 05:05:00,21.83,2020-10-08 12:10:00,
Ilam,Kanyam Tea Estate,26.8,87.9,2020-10-08 00:00:00,Humid and partly cloudy throughout the day.,partly-cloudy-day,2020-10-08 05:51:00,2020-10-08 17:33:00,0.71,0.0379,0.123,2020-10-08 17:11:00,0.22,rain,32.08,2020-10-08 13:39:00,22.71,2020-10-09 05:43:00,44.87,2020-10-08 14:37:00,23.54,2020-10-09 05:42:00,24.75,0.89,1010.4,1.35,2.35,1602113760,284,0.64,7,1602136560,16.093,254.0,22.01,2020-10-08 05:35:00,32.08,2020-10-08 13:39:00,22.82,2020-10-08 05:32:00,44.87,2020-10-08 14:37:00,
Ilam,Soktim Tea E,26.88652778,88.02738889,2020-10-08 00:00:00,Humid and mostly cloudy throughout the day.,partly-cloudy-day,2020-10-08 05:50:00,2020-10-08 17:33:00,0.71,0.0618,0.2436,2020-10-08 17:26:00,0.25,rain,24.89,2020-10-08 12:34:00,18.05,2020-10-09 05:32:00,25.99,2020-10-08 12:43:00,19.09,2020-10-09 05:28:00,20.14,1.0,1011.2,1.23,2.21,1602111000,187,0.68,7,1602136260,15.399,252.7,16.8,2020-10-08 05:25:00,24.89,2020-10-08 12:34:00,17.8,2020-10-08 05:24:00,25.99,2020-10-08 12:43:00,
Jajarkot,Bhanu Thana,28.961315000000003,82.268888,2020-10-08 00:00:00,Partly cloudy throughout the day.,partly-cloudy-day,2020-10-08 06:14:00,2020-10-08 17:55:00,0.71,0.0109,0.0365,2020-10-09 00:00:00,0.09,rain,22.12,2020-10-08 12:58:00,10.67,2020-10-09 01:42:00,21.86,2020-10-08 13:02:00,10.94,2020-10-09 01:42:00,12.97,0.9,1015.0,1.45,3.24,1602114480,144,0.5,9,1602136200,14.947,251.6,9.19,2020-10-08 05:54:00,22.12,2020-10-08 12:58:00,8.78,2020-10-08 05:50:00,21.86,2020-10-08 13:02:00,
Jajarkot,Maina Gaun (D.Bas),28.69860389,82.200792,2020-10-08 00:00:00,Humid and partly cloudy throughout the day.,partly-cloudy-day,2020-10-08 06:14:00,2020-10-08 17:55:00,0.71,0.0195,0.0839,2020-10-09 00:00:00,0.08,rain,29.69,2020-10-08 13:57:00,18.73,2020-10-09 06:17:00,31.77,2020-10-08 15:07:00,19.0,2020-10-09 06:17:00,18.45,0.78,1012.6,1.01,1.98,1602144600,161,0.42,8,1602138360,16.093,255.5,17.74,2020-10-08 05:25:00,29.69,2020-10-08 13:57:00,18.01,2020-10-08 05:25:00,31.77,2020-10-08 15:07:00,
Jhapa,Anarmani Birta,26.6706658,87.7004293,2020-10-08 00:00:00,Humid and partly cloudy throughout the day.,partly-cloudy-day,2020-10-08 05:51:00,2020-10-08 17:34:00,0.71,0.0276,0.1473,2020-10-08 01:50:00,0.21,rain,33.77,2020-10-08 14:15:00,24.21,2020-10-09 05:43:00,47.77,2020-10-08 14:40:00,25.09,2020-10-09 05:41:00,25.49,0.84,1009.6,1.45,2.48,1602111900,39,0.65,7,1602136620,16.093,254.7,24.18,2020-10-08 05:37:00,33.77,2020-10-08 14:15:00,25.17,2020-10-08 05:35:00,47.77,2020-10-08 14:40:00,
Jhapa,Chnadra Gadhi,26.39616667,88.00375,2020-10-08 00:00:00,Humid and partly cloudy throughout the day.,partly-cloudy-day,2020-10-08 05:50:00,2020-10-08 17:33:00,0.71,0.0188,0.0906,2020-10-08 00:00:00,0.2,rain,32.33,2020-10-08 14:19:00,23.67,2020-10-09 05:44:00,43.54,2020-10-08 13:53:00,24.69,2020-10-09 05:41:00,25.12,0.86,1009.5,1.5,2.74,1602106140,96,0.63,8,1602135000,16.093,254.0,23.86,2020-10-08 04:52:00,32.33,2020-10-08 14:19:00,25.0,2020-10-08 04:52:00,43.54,2020-10-08 13:53:00,
Jhapa,Gaida (Kankai),26.68972222,87.98861111,2020-10-08 00:00:00,Humid and partly cloudy throughout the day.,partly-cloudy-day,2020-10-08 05:50:00,2020-10-08 17:33:00,0.71,0.0375,0.128,2020-10-08 16:48:00,0.25,rain,33.0,2020-10-08 14:08:00,23.72,2020-10-09 05:43:00,47.14,2020-10-08 14:38:00,24.63,2020-10-09 05:41:00,25.41,0.87,1009.9,1.43,2.46,1602113760,356,0.62,7,1602136020,16.093,254.7,23.35,2020-10-08 05:33:00,33.0,2020-10-08 14:08:00,24.3,2020-10-08 05:31:00,47.14,2020-10-08 14:38:00,
Jhapa,Jumla,26.5647011,88.0614307,2020-10-08 00:00:00,Humid and partly cloudy throughout the day.,partly-cloudy-day,2020-10-08 05:50:00,2020-10-08 17:33:00,0.71,0.0281,0.0644,2020-10-08 16:41:00,0.22,rain,32.67,2020-10-08 13:44:00,23.32,2020-10-09 05:43:00,44.42,2020-10-08 13:41:00,24.19,2020-10-09 05:41:00,25.04,0.85,1009.6,1.46,2.98,1602106560,62,0.63,7,1602134460,16.093,254.6,23.61,2020-10-08 05:30:00,32.67,2020-10-08 13:44:00,24.63,2020-10-08 05:29:00,44.42,2020-10-08 13:41:00,
Jhapa,Kechana,26.65688889,87.86072222,2020-10-08 00:00:00,Humid and partly cloudy throughout the day.,partly-cloudy-day,2020-10-08 05:51:00,2020-10-08 17:34:00,0.71,0.028,0.0982,2020-10-08 01:45:00,0.21,rain,33.33,2020-10-08 14:11:00,23.91,2020-10-09 05:44:00,46.98,2020-10-08 14:39:00,24.8,2020-10-09 05:43:00,25.4,0.85,1009.6,1.45,2.5,1602112980,39,0.63,7,1602136260,16.093,254.7,23.91,2020-10-08 05:37:00,33.33,2020-10-08 14:11:00,24.89,2020-10-08 05:35:00,46.98,2020-10-08 14:39:00,
Jhapa,Sanischare,26.625063899999997,87.98858059999999,2020-10-08 00:00:00,Humid and partly cloudy throughout the day.,partly-cloudy-day,2020-10-08 05:50:00,2020-10-08 17:33:00,0.71,0.0313,0.0906,2020-10-08 16:41:00,0.23,rain,32.96,2020-10-08 14:00:00,23.73,2020-10-09 05:45:00,46.31,2020-10-08 14:29:00,24.63,2020-10-09 05:44:00,25.4,0.86,1009.7,1.44,2.6,1602112620,51,0.62,7,1602135120,16.093,254.6,23.67,2020-10-08 05:30:00,32.96,2020-10-08 14:00:00,24.66,2020-10-08 05:28:00,46.31,2020-10-08 14:29:00,
Jumla,Dipal Gaun,29.23088056,82.33041944,2020-10-08 00:00:00,Clear throughout the day.,clear-day,2020-10-08 06:14:00,2020-10-08 17:54:00,0.71,0.0022,0.0076,2020-10-08 18:33:00,0.04,rain,19.69,2020-10-08 13:40:00,4.8,2020-10-09 05:36:00,19.41,2020-10-08 13:40:00,4.14,2020-10-09 05:30:00,6.55,0.79,1015.9,1.26,2.36,1602140880,75,0.38,10,1602138000,16.093,249.6,3.52,2020-10-08 05:33:00,19.69,2020-10-08 13:40:00,2.68,2020-10-08 05:28:00,19.41,2020-10-08 13:40:00,
Jumla,Jacha,29.43111111,82.10744444,2020-10-08 00:00:00,Clear throughout the day.,clear-day,2020-10-08 06:15:00,2020-10-08 17:55:00,0.71,0.001,0.0049,2020-10-08 02:45:00,0.02,rain,19.32,2020-10-08 13:47:00,5.21,2020-10-09 05:39:00,19.04,2020-10-08 13:47:00,4.24,2020-10-09 05:31:00,6.87,0.81,1015.8,1.37,2.64,1602114420,61,0.36,9,1602138840,16.093,251.0,4.28,2020-10-08 05:21:00,19.32,2020-10-08 13:47:00,3.21,2020-10-08 05:23:00,19.04,2020-10-08 13:47:00,
Jumla,Jumla,29.26385556,82.22301111,2020-10-08 00:00:00,Clear throughout the day.,clear-day,2020-10-08 06:15:00,2020-10-08 17:55:00,0.71,0.0023,0.0082,2020-10-08 18:36:00,0.05,rain,21.37,2020-10-08 13:40:00,5.67,2020-10-09 05:41:00,21.09,2020-10-08 13:40:00,4.92,2020-10-09 05:34:00,6.56,0.74,1015.9,1.31,2.35,1602111420,68,0.42,9,1602138300,16.093,250.4,4.9,2020-10-08 05:25:00,21.37,2020-10-08 13:40:00,3.99,2020-10-08 05:22:00,21.09,2020-10-08 13:40:00,
Jumla,Tatopani,29.316667,82.283333,2020-10-08 00:00:00,Clear throughout the day.,clear-day,2020-10-08 06:14:00,2020-10-08 17:55:00,0.71,0.0016,0.006,2020-10-08 18:35:00,0.03,rain,18.52,2020-10-08 13:43:00,3.61,2020-10-09 05:43:00,18.24,2020-10-08 13:43:00,2.48,2020-10-09 05:33:00,5.62,0.8,1015.9,1.35,2.43,1602139680,66,0.35,10,1602138360,16.093,249.8,2.29,2020-10-08 05:23:00,18.52,2020-10-08 13:43:00,0.97,2020-10-08 05:21:00,18.24,2020-10-08 13:43:00,
Kabhre,Budal (Banepa),27.61611667,85.56550278,2020-10-08 00:00:00,Mostly cloudy throughout the day.,partly-cloudy-day,2020-10-08 06:00:00,2020-10-08 17:42:00,0.71,0.0759,0.424,2020-10-08 02:05:00,0.17,rain,27.71,2020-10-08 13:47:00,15.84,2020-10-09 05:42:00,28.48,2020-10-08 14:00:00,16.11,2020-10-09 05:42:00,17.4,0.83,1011.8,0.75,1.52,1602147660,52,0.73,7,1602138000,16.093,251.5,15.42,2020-10-08 05:48:00,27.71,2020-10-08 13:47:00,15.69,2020-10-08 05:48:00,28.48,2020-10-08 14:00:00,
Kabhre,Dhulikhel,27.63882194,85.70498083,2020-10-08 00:00:00,Mostly cloudy throughout the day.,partly-cloudy-day,2020-10-08 06:00:00,2020-10-08 17:42:00,0.71,0.0376,0.1708,2020-10-08 23:00:00,0.09,rain,31.02,2020-10-08 14:12:00,17.69,2020-10-09 05:35:00,32.49,2020-10-08 15:16:00,17.96,2020-10-09 05:35:00,17.73,0.71,1012.1,0.78,1.42,1602114480,19,0.7,7,1602137580,16.093,251.7,17.78,2020-10-08 05:30:00,31.02,2020-10-08 14:12:00,18.05,2020-10-08 05:30:00,32.49,2020-10-08 15:16:00,
Kabhre,Dolal Ghat,27.69382389,85.635637,2020-10-08 00:00:00,Mostly cloudy throughout the day.,partly-cloudy-day,2020-10-08 06:00:00,2020-10-08 17:42:00,0.71,0.0413,0.1778,2020-10-08 22:55:00,0.08,rain,30.22,2020-10-08 13:55:00,16.05,2020-10-09 05:41:00,30.75,2020-10-08 13:59:00,16.32,2020-10-09 05:41:00,16.08,0.69,1012.0,0.68,1.28,1602147960,26,0.71,7,1602137820,16.093,251.6,16.18,2020-10-08 05:43:00,30.22,2020-10-08 13:55:00,16.45,2020-10-08 05:43:00,30.75,2020-10-08 13:59:00,
Kabhre,Panchkhal,27.63333333,85.51666667,2020-10-08 00:00:00,Mostly cloudy throughout the day.,partly-cloudy-day,2020-10-08 06:01:00,2020-10-08 17:43:00,0.71,0.0801,0.4641,2020-10-08 02:04:00,0.18,rain,27.93,2020-10-08 13:47:00,15.75,2020-10-09 05:41:00,28.66,2020-10-08 14:02:00,16.02,2020-10-09 05:41:00,17.17,0.82,1011.8,0.7,1.57,1602147360,73,0.74,6,1602138120,16.093,251.5,15.31,2020-10-08 05:48:00,27.93,2020-10-08 13:47:00,15.58,2020-10-08 05:48:00,28.66,2020-10-08 14:02:00,
Kailali,Dhangadhi,28.68333333,80.6,2020-10-08 00:00:00,Humid throughout the day.,clear-day,2020-10-08 06:21:00,2020-10-08 18:02:00,0.71,0.0,0.0,2020-10-08 02:05:00,0.0,,32.86,2020-10-08 14:06:00,20.65,2020-10-09 05:39:00,37.16,2020-10-08 13:02:00,21.09,2020-10-09 05:36:00,20.91,0.7,1009.4,1.47,2.91,1602158100,17,0.21,8,1602138960,16.093,260.1,21.92,2020-10-08 05:38:00,32.86,2020-10-08 14:06:00,22.46,2020-10-08 05:36:00,37.16,2020-10-08 13:02:00,
Kailali,Godavari(West),28.554054999999998,80.831765,2020-10-08 00:00:00,Humid throughout the day.,clear-day,2020-10-08 06:20:00,2020-10-08 18:01:00,0.71,0.0,0.0,2020-10-08 02:05:00,0.0,,32.83,2020-10-08 14:16:00,21.04,2020-10-09 05:37:00,37.2,2020-10-08 14:00:00,21.6,2020-10-09 05:34:00,21.32,0.72,1009.4,1.45,2.35,1602151500,20,0.21,8,1602138420,16.093,260.0,21.94,2020-10-08 05:16:00,32.83,2020-10-08 14:16:00,22.58,2020-10-08 05:11:00,37.2,2020-10-08 14:00:00,
Kailali,Malakheti,28.83333333,80.56666667,2020-10-08 00:00:00,Humid throughout the day.,clear-day,2020-10-08 06:21:00,2020-10-08 18:02:00,0.71,0.0,0.0,2020-10-08 17:28:00,0.0,,33.25,2020-10-08 14:12:00,20.21,2020-10-09 05:36:00,38.06,2020-10-08 13:58:00,20.51,2020-10-09 05:34:00,20.53,0.69,1010.1,1.49,2.64,1602158700,25,0.23,8,1602139140,16.093,259.5,21.19,2020-10-08 05:37:00,33.25,2020-10-08 14:12:00,21.59,2020-10-08 05:35:00,38.06,2020-10-08 13:58:00,
Kailali,Sitapur,28.66417611,80.97850889,2020-10-08 00:00:00,Humid throughout the day.,clear-day,2020-10-08 06:19:00,2020-10-08 18:00:00,0.71,0.0,0.0,2020-10-08 02:05:00,0.0,,33.38,2020-10-08 14:05:00,21.94,2020-10-09 05:38:00,38.95,2020-10-08 15:28:00,22.48,2020-10-09 05:37:00,21.41,0.7,1009.8,1.49,2.35,1602105120,27,0.28,8,1602138360,16.093,259.6,22.54,2020-10-08 05:18:00,33.38,2020-10-08 14:05:00,23.16,2020-10-08 05:18:00,38.95,2020-10-08 15:28:00,
Kailali,Teghari,28.87623,80.57918889,2020-10-08 00:00:00,Humid throughout the day.,clear-day,2020-10-08 06:21:00,2020-10-08 18:02:00,0.71,0.0,0.0,2020-10-08 17:28:00,0.0,,32.65,2020-10-08 13:57:00,20.26,2020-10-09 05:36:00,36.92,2020-10-08 13:49:00,20.53,2020-10-09 05:36:00,19.92,0.68,1010.4,1.49,2.29,1602165360,28,0.24,8,1602139080,16.093,259.2,20.88,2020-10-08 05:37:00,32.65,2020-10-08 13:57:00,21.2,2020-10-08 05:36:00,36.92,2020-10-08 13:49:00,
Kalikot,Mahendra Nagar,29.09644444,81.70052778,2020-10-08 00:00:00,Clear throughout the day.,clear-day,2020-10-08 06:17:00,2020-10-08 17:57:00,0.71,0.002,0.0097,2020-10-08 23:43:00,0.02,rain,26.5,2020-10-08 13:31:00,15.39,2020-10-09 05:55:00,26.4,2020-10-08 13:39:00,15.66,2020-10-09 05:55:00,14.78,0.78,1013.6,1.48,3.09,1602110460,4,0.3,9,1602136920,16.093,253.9,13.85,2020-10-08 05:27:00,26.5,2020-10-08 13:31:00,14.12,2020-10-08 05:27:00,26.4,2020-10-08 13:39:00,
Kalikot,Manma,29.2495,81.63913889,2020-10-08 00:00:00,Partly cloudy throughout the day.,partly-cloudy-day,2020-10-08 06:17:00,2020-10-08 17:57:00,0.71,0.0,0.0,2020-10-08 03:20:00,0.0,,25.48,2020-10-08 13:14:00,13.13,2020-10-09 06:02:00,25.24,2020-10-08 13:19:00,13.4,2020-10-09 06:02:00,13.29,0.79,1014.3,1.49,3.21,1602111540,18,0.37,8,1602136860,16.093,253.5,11.39,2020-10-08 05:29:00,25.48,2020-10-08 13:14:00,11.66,2020-10-08 05:29:00,25.24,2020-10-08 13:19:00,
Kalikot,Nagma,29.12995833,81.58836111,2020-10-08 00:00:00,Clear throughout the day.,clear-day,2020-10-08 06:17:00,2020-10-08 17:57:00,0.71,0.0017,0.0182,2020-10-08 00:00:00,0.01,rain,27.78,2020-10-08 13:40:00,17.26,2020-10-09 06:18:00,28.1,2020-10-08 14:07:00,17.53,2020-10-09 06:18:00,15.26,0.74,1013.9,1.5,3.33,1602110700,27,0.31,8,1602137340,16.093,254.7,15.36,2020-10-08 05:03:00,27.78,2020-10-08 13:40:00,15.63,2020-10-08 05:03:00,28.1,2020-10-08 14:07:00,
Kanchanpur,Dodhara,28.86185889,80.44044194,2020-10-08 00:00:00,Humid throughout the day.,clear-day,2020-10-08 06:21:00,2020-10-08 18:02:00,0.71,0.0,0.0,2020-10-08 02:05:00,0.0,,33.08,2020-10-08 14:17:00,20.0,2020-10-09 05:37:00,37.6,2020-10-08 15:28:00,20.27,2020-10-09 05:36:00,20.28,0.69,1010.0,1.5,2.7,1602159300,28,0.23,8,1602138840,16.093,259.8,21.02,2020-10-08 05:34:00,33.08,2020-10-08 14:17:00,21.37,2020-10-08 05:32:00,37.6,2020-10-08 15:28:00,
Kanchanpur,Hanmannagar,28.698575,80.37540389,2020-10-08 00:00:00,Humid throughout the day.,clear-day,2020-10-08 06:22:00,2020-10-08 18:03:00,0.71,0.0,0.0,2020-10-08 02:05:00,0.0,,32.42,2020-10-08 14:31:00,19.65,2020-10-09 05:37:00,35.87,2020-10-08 13:14:00,19.99,2020-10-09 05:35:00,20.42,0.71,1009.7,1.37,3.45,1602158220,19,0.23,8,1602139020,16.093,260.3,21.12,2020-10-08 04:53:00,32.42,2020-10-08 14:31:00,21.58,2020-10-08 04:53:00,35.87,2020-10-08 13:14:00,
Kanchanpur,Taulihawa,28.89702,80.36996389,2020-10-08 00:00:00,Humid throughout the day.,clear-day,2020-10-08 06:22:00,2020-10-08 18:02:00,0.71,0.0,0.0,2020-10-08 02:05:00,0.0,,33.06,2020-10-08 14:13:00,20.16,2020-10-09 05:36:00,37.73,2020-10-08 15:30:00,20.42,2020-10-09 05:35:00,20.22,0.68,1010.0,1.53,2.44,1602165000,28,0.24,8,1602138600,16.093,259.9,21.05,2020-10-08 05:31:00,33.06,2020-10-08 14:13:00,21.37,2020-10-08 05:29:00,37.73,2020-10-08 15:30:00,
Kapilbastu,Banganga,27.669936100000005,82.7911917,2020-10-08 00:00:00,Humid and partly cloudy throughout the day.,partly-cloudy-day,2020-10-08 06:11:00,2020-10-08 17:53:00,0.71,0.0018,0.0272,2020-10-08 00:00:00,0.01,rain,34.21,2020-10-08 14:24:00,23.12,2020-10-09 05:37:00,39.16,2020-10-08 13:56:00,23.65,2020-10-09 05:37:00,21.12,0.65,1008.9,1.8,3.26,1602149520,28,0.32,8,1602137460,16.093,256.8,22.98,2020-10-08 05:25:00,34.21,2020-10-08 14:24:00,23.52,2020-10-08 05:26:00,39.16,2020-10-08 13:56:00,
Kapilvastu,Bahadur Ganj,27.693294399999996,83.1612556,2020-10-08 00:00:00,Humid and partly cloudy throughout the day.,partly-cloudy-day,2020-10-08 06:10:00,2020-10-08 17:52:00,0.71,0.018,0.1459,2020-10-08 02:41:00,0.06,rain,34.09,2020-10-08 14:13:00,23.75,2020-10-09 05:41:00,41.01,2020-10-08 15:17:00,24.19,2020-10-09 05:41:00,21.71,0.68,1009.5,1.69,2.65,1602147900,57,0.4,8,1602137580,16.093,255.9,23.07,2020-10-08 05:33:00,34.09,2020-10-08 14:13:00,23.66,2020-10-08 05:33:00,41.01,2020-10-08 15:17:00,
Kapilvastu,Sallyan (Kaski),27.55,83.85,2020-10-08 00:00:00,Humid and partly cloudy throughout the day.,partly-cloudy-day,2020-10-08 06:07:00,2020-10-08 17:49:00,0.71,0.0197,0.1408,2020-10-08 03:50:00,0.04,rain,31.37,2020-10-08 13:52:00,21.7,2020-10-09 05:31:00,33.05,2020-10-08 15:33:00,22.14,2020-10-09 05:32:00,19.42,0.68,1009.6,1.53,2.45,1602157260,75,0.4,8,1602139980,16.093,255.2,22.29,2020-10-08 05:37:00,31.37,2020-10-08 13:52:00,22.85,2020-10-08 05:36:00,33.05,2020-10-08 15:33:00,
Kaski,Begnas,28.212011100000005,83.8915417,2020-10-08 00:00:00,Partly cloudy throughout the day.,partly-cloudy-day,2020-10-08 06:07:00,2020-10-08 17:49:00,0.71,0.0095,0.0515,2020-10-08 00:00:00,0.02,rain,26.46,2020-10-08 13:52:00,16.57,2020-10-09 05:44:00,26.27,2020-10-08 13:52:00,16.84,2020-10-09 05:44:00,13.24,0.66,1012.1,1.8,2.75,1602097560,16,0.4,7,1602138420,16.093,254.4,15.36,2020-10-08 05:39:00,26.46,2020-10-08 13:52:00,15.63,2020-10-08 05:39:00,26.27,2020-10-08 13:52:00,
Kaski,Begnas Tal,28.35805556,84.105175,2020-10-08 00:00:00,Partly cloudy throughout the day.,partly-cloudy-day,2020-10-08 06:07:00,2020-10-08 17:48:00,0.71,0.0099,0.0588,2020-10-08 00:00:00,0.05,rain,21.44,2020-10-08 13:46:00,12.37,2020-10-09 06:00:00,21.72,2020-10-08 13:51:00,12.64,2020-10-09 06:00:00,12.48,0.84,1013.7,2.21,2.88,1602111600,10,0.44,7,1602136860,15.894,250.6,9.49,2020-10-08 05:32:00,21.44,2020-10-08 13:46:00,8.45,2020-10-08 05:44:00,21.72,2020-10-08 13:51:00,
Kaski,Bhadaure Deurali,28.21849444,83.9742,2020-10-08 00:00:00,Partly cloudy throughout the day.,partly-cloudy-day,2020-10-08 06:07:00,2020-10-08 17:48:00,0.71,0.0122,0.0828,2020-10-08 00:00:00,0.02,rain,29.36,2020-10-08 13:57:00,17.43,2020-10-09 05:48:00,30.25,2020-10-08 13:59:00,17.7,2020-10-09 05:48:00,14.43,0.63,1012.2,2.2,3.09,1602097260,22,0.45,7,1602137040,16.093,254.5,15.93,2020-10-08 05:38:00,29.36,2020-10-08 13:57:00,16.2,2020-10-08 05:38:00,30.25,2020-10-08 13:59:00,
Kaski,Ghandruk,28.26168056,83.96873333,2020-10-08 00:00:00,Partly cloudy throughout the day.,partly-cloudy-day,2020-10-08 06:07:00,2020-10-08 17:48:00,0.71,0.0128,0.0879,2020-10-08 00:00:00,0.02,rain,28.15,2020-10-08 13:57:00,16.88,2020-10-09 05:55:00,28.96,2020-10-08 14:02:00,17.15,2020-10-09 05:55:00,13.93,0.65,1012.4,2.34,3.23,1602097260,23,0.44,7,1602136980,16.093,254.0,15.01,2020-10-08 05:42:00,28.15,2020-10-08 13:57:00,15.28,2020-10-08 05:42:00,28.96,2020-10-08 14:02:00,
Kaski,Lamachaur,28.29653889,83.81791111,2020-10-08 00:00:00,Partly cloudy throughout the day.,partly-cloudy-day,2020-10-08 06:08:00,2020-10-08 17:49:00,0.71,0.0063,0.0415,2020-10-08 16:54:00,0.02,rain,24.29,2020-10-08 13:53:00,14.86,2020-10-09 05:43:00,24.16,2020-10-08 13:55:00,15.13,2020-10-09 05:43:00,12.75,0.73,1012.9,1.59,2.58,1602111300,16,0.33,7,1602138720,16.093,253.0,13.3,2020-10-08 05:20:00,24.29,2020-10-08 13:53:00,13.57,2020-10-08 05:20:00,24.16,2020-10-08 13:55:00,
Kaski,Lumle,28.26555556,83.82211944,2020-10-08 00:00:00,Partly cloudy throughout the day.,partly-cloudy-day,2020-10-08 06:08:00,2020-10-08 17:49:00,0.71,0.0073,0.0462,2020-10-08 16:54:00,0.02,rain,25.21,2020-10-08 13:51:00,15.68,2020-10-09 05:44:00,25.03,2020-10-08 13:51:00,15.95,2020-10-09 05:44:00,12.95,0.7,1012.6,1.6,2.64,1602111360,12,0.34,7,1602139560,16.093,253.8,14.38,2020-10-08 05:32:00,25.21,2020-10-08 13:51:00,14.65,2020-10-08 05:32:00,25.03,2020-10-08 13:51:00,
Kaski,Pokhara Airport,28.23333333,84.0,2020-10-08 00:00:00,Partly cloudy throughout the day.,partly-cloudy-day,2020-10-08 06:07:00,2020-10-08 17:48:00,0.71,0.0137,0.0984,2020-10-08 00:00:00,0.02,rain,28.9,2020-10-08 13:58:00,17.2,2020-10-09 05:49:00,29.75,2020-10-08 14:01:00,17.47,2020-10-09 05:49:00,14.08,0.64,1012.1,2.42,3.29,1602097140,23,0.47,7,1602136860,16.093,254.5,15.55,2020-10-08 05:41:00,28.9,2020-10-08 13:58:00,15.82,2020-10-08 05:41:00,29.75,2020-10-08 14:01:00,
Kaski,Pokhara Airport,28.22,84.0,2020-10-08 00:00:00,Partly cloudy throughout the day.,partly-cloudy-day,2020-10-08 06:07:00,2020-10-08 17:48:00,0.71,0.0131,0.0927,2020-10-08 00:00:00,0.02,rain,29.3,2020-10-08 13:57:00,17.37,2020-10-09 05:47:00,30.21,2020-10-08 14:00:00,17.64,2020-10-09 05:47:00,14.32,0.63,1012.1,2.33,3.2,1602097200,23,0.47,7,1602136920,16.093,254.5,15.8,2020-10-08 05:39:00,29.3,2020-10-08 13:57:00,16.07,2020-10-08 05:39:00,30.21,2020-10-08 14:00:00,
Kathmandu,Budhanilakan,27.78333333,85.31666667,2020-10-08 00:00:00,Mostly cloudy throughout the day.,partly-cloudy-day,2020-10-08 06:01:00,2020-10-08 17:43:00,0.71,0.0132,0.0664,2020-10-08 22:35:00,0.02,rain,27.96,2020-10-08 13:22:00,15.99,2020-10-09 05:41:00,28.21,2020-10-08 13:32:00,16.26,2020-10-09 05:41:00,14.69,0.68,1011.8,0.78,1.63,1602143880,48,0.7,7,1602139020,16.093,251.4,15.8,2020-10-08 05:38:00,27.96,2020-10-08 13:22:00,16.07,2020-10-08 05:38:00,28.21,2020-10-08 13:32:00,
Kathmandu,Kathmandu Airport,27.703825,85.35624722,2020-10-08 00:00:00,Mostly cloudy throughout the day.,partly-cloudy-day,2020-10-08 06:01:00,2020-10-08 17:43:00,0.71,0.0611,0.2749,2020-10-08 02:17:00,0.1,rain,27.25,2020-10-08 14:12:00,15.91,2020-10-09 05:41:00,28.05,2020-10-08 14:18:00,16.18,2020-10-09 05:41:00,17.18,0.75,1011.8,0.74,1.6,1602146220,77,0.61,6,1602138960,13.805,251.6,16.5,2020-10-08 06:21:00,27.25,2020-10-08 14:12:00,16.81,2020-10-08 06:17:00,28.05,2020-10-08 14:18:00,
Kathmandu,Naikap,27.7726953,85.4277003,2020-10-08 00:00:00,Mostly cloudy throughout the day.,partly-cloudy-day,2020-10-08 06:01:00,2020-10-08 17:43:00,0.71,0.0144,0.0922,2020-10-08 22:23:00,0.02,rain,26.23,2020-10-08 13:43:00,14.72,2020-10-09 05:35:00,25.95,2020-10-08 13:43:00,14.99,2020-10-09 05:35:00,13.02,0.69,1011.6,0.63,1.48,1602145860,45,0.71,7,1602137700,16.093,251.3,14.43,2020-10-08 05:29:00,26.23,2020-10-08 13:43:00,14.7,2020-10-08 05:29:00,25.95,2020-10-08 13:43:00,
Kathmandu,Pharping,27.76666667,85.31666667,2020-10-08 00:00:00,Mostly cloudy throughout the day.,partly-cloudy-day,2020-10-08 06:01:00,2020-10-08 17:43:00,0.71,0.0141,0.0705,2020-10-08 22:35:00,0.02,rain,28.24,2020-10-08 13:21:00,16.02,2020-10-09 05:41:00,28.54,2020-10-08 13:38:00,16.29,2020-10-09 05:41:00,15.09,0.68,1011.8,0.73,1.61,1602144900,45,0.7,7,1602139200,16.093,251.5,15.97,2020-10-08 05:38:00,28.24,2020-10-08 13:21:00,16.24,2020-10-08 05:38:00,28.54,2020-10-08 13:38:00,
Kathmandu,Sankhu,27.73333333,85.33333333,2020-10-08 00:00:00,Mostly cloudy throughout the day.,partly-cloudy-day,2020-10-08 06:01:00,2020-10-08 17:43:00,0.71,0.0327,0.1038,2020-10-08 02:19:00,0.05,rain,28.05,2020-10-08 13:25:00,15.96,2020-10-09 05:40:00,28.46,2020-10-08 13:36:00,16.23,2020-10-09 05:40:00,15.72,0.71,1011.8,0.7,1.58,1602145920,50,0.7,7,1602139140,16.093,251.6,16.06,2020-10-08 05:39:00,28.05,2020-10-08 13:25:00,16.33,2020-10-08 05:39:00,28.46,2020-10-08 13:36:00,
Kathmandu,Sankhu,27.73333333,85.33333333,2020-10-08 00:00:00,Mostly cloudy throughout the day.,partly-cloudy-day,2020-10-08 06:01:00,2020-10-08 17:43:00,0.71,0.0327,0.1038,2020-10-08 02:19:00,0.05,rain,28.05,2020-10-08 13:25:00,15.96,2020-10-09 05:40:00,28.46,2020-10-08 13:36:00,16.23,2020-10-09 05:40:00,15.72,0.71,1011.8,0.7,1.58,1602145920,50,0.7,7,1602139140,16.093,251.6,16.06,2020-10-08 05:39:00,28.05,2020-10-08 13:25:00,16.33,2020-10-08 05:39:00,28.46,2020-10-08 13:36:00,
Kathmandu,Sivapuri,27.75,85.43333333,2020-10-08 00:00:00,Mostly cloudy throughout the day.,partly-cloudy-day,2020-10-08 06:01:00,2020-10-08 17:43:00,0.71,0.0158,0.1022,2020-10-08 22:23:00,0.03,rain,28.36,2020-10-08 13:44:00,15.38,2020-10-09 05:40:00,28.3,2020-10-08 13:49:00,15.65,2020-10-09 05:40:00,14.18,0.66,1011.8,0.55,1.43,1602146940,48,0.72,7,1602137940,16.093,251.5,15.36,2020-10-08 05:36:00,28.36,2020-10-08 13:44:00,15.63,2020-10-08 05:36:00,28.3,2020-10-08 13:49:00,
Kathmandu,Sundarijal,27.8,85.43333333,2020-10-08 00:00:00,Mostly cloudy throughout the day.,partly-cloudy-day,2020-10-08 06:01:00,2020-10-08 17:43:00,0.71,0.0128,0.0828,2020-10-08 22:22:00,0.02,rain,24.08,2020-10-08 13:43:00,13.15,2020-10-09 05:13:00,23.8,2020-10-08 13:43:00,13.42,2020-10-09 05:13:00,12.04,0.73,1011.6,0.71,1.53,1602144840,42,0.71,7,1602137400,16.093,251.0,12.49,2020-10-08 05:04:00,24.08,2020-10-08 13:43:00,12.76,2020-10-08 05:04:00,23.8,2020-10-08 13:43:00,
Kathmandu,Tarebhir,27.78419167,85.29049444,2020-10-08 00:00:00,Mostly cloudy throughout the day.,partly-cloudy-day,2020-10-08 06:01:00,2020-10-08 17:43:00,0.71,0.0131,0.0613,2020-10-08 22:37:00,0.02,rain,26.91,2020-10-08 13:22:00,15.89,2020-10-09 05:40:00,26.7,2020-10-08 13:27:00,16.16,2020-10-09 05:40:00,14.37,0.69,1011.7,0.81,1.67,1602143460,50,0.7,7,1602139200,16.093,251.4,15.63,2020-10-08 05:37:00,26.91,2020-10-08 13:22:00,15.9,2020-10-08 05:37:00,26.7,2020-10-08 13:27:00,
Kathmandu,Tokha,27.7972222,85.3577778,2020-10-08 00:00:00,Mostly cloudy throughout the day.,partly-cloudy-day,2020-10-08 06:01:00,2020-10-08 17:43:00,0.71,0.0127,0.0701,2020-10-08 22:31:00,0.02,rain,24.28,2020-10-08 13:30:00,14.03,2020-10-09 05:11:00,24.0,2020-10-08 13:30:00,14.3,2020-10-09 05:11:00,12.67,0.73,1011.5,0.78,1.61,1602143820,47,0.7,7,1602138300,16.093,251.2,13.41,2020-10-08 05:02:00,24.28,2020-10-08 13:30:00,13.68,2020-10-08 05:02:00,24.0,2020-10-08 13:30:00,
Khotang,Diktel,27.02930083,86.84337278,2020-10-08 00:00:00,Humid and mostly cloudy throughout the day.,partly-cloudy-day,2020-10-08 05:55:00,2020-10-08 17:38:00,0.71,0.0526,0.1417,2020-10-08 17:00:00,0.26,rain,28.46,2020-10-08 12:49:00,19.62,2020-10-09 05:45:00,34.07,2020-10-08 13:25:00,20.31,2020-10-09 05:44:00,22.61,0.98,1010.9,0.98,2.19,1602145620,207,0.75,6,1602137160,16.093,253.2,19.21,2020-10-08 05:32:00,28.46,2020-10-08 12:49:00,20.23,2020-10-08 05:29:00,34.07,2020-10-08 13:25:00,
Khotang,Dwarpa,27.359795000000002,86.7486619,2020-10-08 00:00:00,Mostly cloudy throughout the day.,partly-cloudy-day,2020-10-08 05:55:00,2020-10-08 17:38:00,0.71,0.0715,0.2758,2020-10-08 16:22:00,0.16,rain,22.26,2020-10-08 12:25:00,14.25,2020-10-09 01:14:00,22.57,2020-10-08 12:59:00,14.74,2020-10-09 05:31:00,16.24,0.96,1012.0,1.16,2.75,1602113040,50,0.81,6,1602137700,15.964,250.5,13.48,2020-10-08 05:10:00,22.26,2020-10-08 12:25:00,13.75,2020-10-08 05:10:00,22.57,2020-10-08 12:59:00,
Khotang,Khotang Bazar,27.1408985,86.4317585,2020-10-08 00:00:00,Humid and mostly cloudy throughout the day.,partly-cloudy-day,2020-10-08 05:57:00,2020-10-08 17:39:00,0.71,0.0293,0.106,2020-10-08 21:50:00,0.16,rain,31.41,2020-10-08 14:11:00,22.08,2020-10-09 05:40:00,41.37,2020-10-08 14:55:00,22.78,2020-10-09 05:36:00,23.73,0.89,1010.9,1.12,2.31,1602145560,210,0.75,6,1602138900,16.093,253.2,21.48,2020-10-08 05:24:00,31.41,2020-10-08 14:11:00,22.21,2020-10-08 05:21:00,41.37,2020-10-08 14:55:00,
Khotang,Kurle Ghat,27.21666667,86.85,2020-10-08 00:00:00,Humid and mostly cloudy throughout the day.,partly-cloudy-day,2020-10-08 05:55:00,2020-10-08 17:37:00,0.71,0.0812,0.3114,2020-10-08 17:08:00,0.22,rain,23.65,2020-10-08 12:52:00,15.65,2020-10-09 05:20:00,24.25,2020-10-08 13:03:00,16.14,2020-10-09 05:23:00,18.14,1.0,1011.7,0.91,1.99,1602113220,161,0.78,6,1602137520,16.093,251.9,14.98,2020-10-08 05:09:00,23.65,2020-10-08 12:52:00,15.7,2020-10-08 05:09:00,24.25,2020-10-08 13:03:00,
Lalitpur,Chapa Gaun,27.566666700000003,85.3166667,2020-10-08 00:00:00,Humid and mostly cloudy throughout the day.,partly-cloudy-day,2020-10-08 06:01:00,2020-10-08 17:43:00,0.71,0.2183,1.1788,2020-10-08 02:20:00,0.3,rain,26.46,2020-10-08 13:00:00,16.29,2020-10-09 05:39:00,26.65,2020-10-08 13:08:00,16.77,2020-10-09 05:40:00,18.77,0.93,1011.6,0.95,1.85,1602146280,136,0.74,6,1602138540,16.093,251.7,15.74,2020-10-08 05:49:00,26.46,2020-10-08 13:00:00,16.31,2020-10-08 05:49:00,26.65,2020-10-08 13:08:00,
Lalitpur,Godavari,27.68333333,85.3,2020-10-08 00:00:00,Mostly cloudy throughout the day.,partly-cloudy-day,2020-10-08 06:01:00,2020-10-08 17:43:00,0.71,0.092,0.4421,2020-10-08 02:21:00,0.14,rain,28.23,2020-10-08 13:09:00,16.41,2020-10-09 05:40:00,29.14,2020-10-08 13:33:00,16.68,2020-10-09 05:40:00,17.33,0.77,1011.7,0.81,1.69,1602145920,70,0.71,6,1602139200,16.093,251.7,16.39,2020-10-08 05:44:00,28.23,2020-10-08 13:09:00,16.66,2020-10-08 05:44:00,29.14,2020-10-08 13:33:00,
Lalitpur,Khokana,27.65,85.38333333,2020-10-08 00:00:00,Mostly cloudy throughout the day.,partly-cloudy-day,2020-10-08 06:01:00,2020-10-08 17:43:00,0.71,0.1071,0.5628,2020-10-08 02:15:00,0.18,rain,28.23,2020-10-08 13:32:00,16.25,2020-10-09 05:41:00,29.32,2020-10-08 13:49:00,16.52,2020-10-09 05:41:00,17.76,0.8,1011.8,0.77,1.66,1602146520,85,0.72,6,1602138720,16.093,251.6,16.08,2020-10-08 05:49:00,28.23,2020-10-08 13:32:00,16.35,2020-10-08 05:49:00,29.32,2020-10-08 13:49:00,
Lalitpur,Khumaltar,27.5929167,85.3788333,2020-10-08 00:00:00,Humid and mostly cloudy throughout the day.,partly-cloudy-day,2020-10-08 06:01:00,2020-10-08 17:43:00,0.71,0.1614,0.8926,2020-10-08 02:15:00,0.25,rain,26.55,2020-10-08 13:18:00,15.98,2020-10-09 05:40:00,26.67,2020-10-08 13:26:00,16.31,2020-10-09 05:41:00,18.16,0.9,1011.6,0.87,1.76,1602146520,122,0.74,6,1602138780,16.093,251.6,15.45,2020-10-08 05:49:00,26.55,2020-10-08 13:18:00,15.84,2020-10-08 05:49:00,26.67,2020-10-08 13:26:00,
Lalitpur,Kritipur (Bagban),27.68333333,85.33333333,2020-10-08 00:00:00,Mostly cloudy throughout the day.,partly-cloudy-day,2020-10-08 06:01:00,2020-10-08 17:43:00,0.71,0.0858,0.4152,2020-10-08 02:19:00,0.13,rain,28.0,2020-10-08 13:32:00,16.26,2020-10-09 05:41:00,28.94,2020-10-08 13:51:00,16.53,2020-10-09 05:41:00,17.37,0.77,1011.8,0.78,1.66,1602146100,75,0.68,6,1602139080,16.093,251.6,16.43,2020-10-08 05:44:00,28.0,2020-10-08 13:32:00,16.7,2020-10-08 05:45:00,28.94,2020-10-08 13:51:00,
Lalitpur,Lalitpur (Kopundol),27.659325,85.3697083,2020-10-08 00:00:00,Mostly cloudy throughout the day.,partly-cloudy-day,2020-10-08 06:01:00,2020-10-08 17:43:00,0.71,0.102,0.5251,2020-10-08 02:16:00,0.17,rain,28.23,2020-10-08 13:33:00,16.26,2020-10-09 05:41:00,29.31,2020-10-08 13:52:00,16.53,2020-10-09 05:41:00,17.69,0.79,1011.8,0.77,1.66,1602146400,82,0.71,6,1602138780,16.093,251.6,16.21,2020-10-08 05:49:00,28.23,2020-10-08 13:33:00,16.48,2020-10-08 05:49:00,29.31,2020-10-08 13:52:00,
Lalitpur,Lubhu,27.60325833,85.32656389,2020-10-08 00:00:00,Humid and mostly cloudy throughout the day.,partly-cloudy-day,2020-10-08 06:01:00,2020-10-08 17:43:00,0.71,0.1736,0.926,2020-10-08 02:19:00,0.25,rain,27.01,2020-10-08 13:06:00,16.33,2020-10-09 05:41:00,28.13,2020-10-08 13:21:00,16.64,2020-10-09 05:41:00,18.52,0.89,1011.7,0.89,1.79,1602146280,118,0.73,6,1602138780,16.093,251.7,15.92,2020-10-08 05:49:00,27.01,2020-10-08 13:06:00,16.3,2020-10-08 05:49:00,28.13,2020-10-08 13:21:00,
Lalitpur,Tikathali,27.576825,85.3540444,2020-10-08 00:00:00,Humid and mostly cloudy throughout the day.,partly-cloudy-day,2020-10-08 06:01:00,2020-10-08 17:43:00,0.71,0.1886,1.0355,2020-10-08 02:17:00,0.28,rain,25.89,2020-10-08 13:08:00,15.88,2020-10-09 05:37:00,26.01,2020-10-08 13:17:00,16.3,2020-10-09 05:39:00,18.15,0.92,1011.6,0.91,1.81,1602146400,131,0.74,6,1602138720,16.093,251.7,15.3,2020-10-08 05:48:00,25.89,2020-10-08 13:08:00,15.81,2020-10-08 05:49:00,26.01,2020-10-08 13:17:00,
Lamiung,Khudi Bazar,28.12677778,84.34494167,2020-10-08 00:00:00,Partly cloudy throughout the day.,partly-cloudy-day,2020-10-08 06:05:00,2020-10-08 17:47:00,0.71,0.0057,0.0415,2020-10-08 00:00:00,0.03,rain,30.91,2020-10-08 13:50:00,17.86,2020-10-09 05:48:00,31.7,2020-10-08 13:47:00,18.13,2020-10-09 05:48:00,15.05,0.6,1011.7,1.27,1.92,1602113400,356,0.45,7,1602136860,16.093,254.1,16.96,2020-10-08 05:29:00,30.91,2020-10-08 13:50:00,17.23,2020-10-08 05:29:00,31.7,2020-10-08 13:47:00,
Lamjung,Besishahar,28.25596667,84.47929722,2020-10-07 21:45:00,Foggy in the evening.,fog,2020-10-08 06:05:00,2020-10-08 17:46:00,0.7,0.0044,0.0134,2020-10-08 16:00:00,0.04,rain,26.47,2020-10-08 13:56:00,17.36,2020-10-09 00:39:00,26.64,2020-10-08 14:00:00,17.63,2020-10-09 00:39:00,15.17,0.73,1012.9,1.71,2.55,1602113520,4,0.42,7,1602136800,13.797,252.1,15.87,2020-10-08 05:16:00,26.47,2020-10-08 13:56:00,16.14,2020-10-08 05:16:00,26.64,2020-10-08 14:00:00,
Lamjung,Bhorletar,28.21813889,84.24153889,2020-10-08 00:00:00,Partly cloudy throughout the day.,partly-cloudy-day,2020-10-08 06:06:00,2020-10-08 17:47:00,0.71,0.0129,0.0901,2020-10-08 00:00:00,0.03,rain,27.57,2020-10-08 13:59:00,17.45,2020-10-09 05:47:00,28.0,2020-10-08 14:07:00,17.72,2020-10-09 05:47:00,13.02,0.61,1011.7,1.91,2.55,1602111420,354,0.48,7,1602136800,16.093,254.1,15.75,2020-10-08 05:37:00,27.57,2020-10-08 13:59:00,16.02,2020-10-08 05:37:00,28.0,2020-10-08 14:07:00,
Lamjung,Faleni,28.30964722,84.26600278,2020-10-08 00:00:00,Partly cloudy throughout the day.,partly-cloudy-day,2020-10-08 06:06:00,2020-10-08 17:47:00,0.71,0.0117,0.072,2020-10-08 00:00:00,0.05,rain,24.83,2020-10-08 13:39:00,15.7,2020-10-09 06:04:00,24.92,2020-10-08 13:43:00,15.97,2020-10-09 06:04:00,13.56,0.72,1013.1,2.04,2.81,1602111360,348,0.45,7,1602136860,16.093,252.0,13.69,2020-10-08 05:48:00,24.83,2020-10-08 13:39:00,13.96,2020-10-08 05:48:00,24.92,2020-10-08 13:43:00,
Lamjung,Gausala,28.07621667,84.47669444,2020-10-08 00:00:00,Partly cloudy throughout the day.,partly-cloudy-day,2020-10-08 06:05:00,2020-10-08 17:46:00,0.71,0.0022,0.0217,2020-10-08 00:00:00,0.02,rain,31.83,2020-10-08 14:06:00,18.86,2020-10-09 05:42:00,32.75,2020-10-08 14:13:00,19.13,2020-10-09 05:42:00,16.11,0.6,1011.7,1.04,1.75,1602114000,25,0.42,7,1602137400,16.093,254.1,18.17,2020-10-08 05:23:00,31.83,2020-10-08 14:06:00,18.44,2020-10-08 05:23:00,32.75,2020-10-08 14:13:00,
Lamjung,Gharedhunga,28.282208299999997,84.3454164,2020-10-08 00:00:00,Partly cloudy throughout the day.,partly-cloudy-day,2020-10-08 06:06:00,2020-10-08 17:47:00,0.71,0.0093,0.0544,2020-10-08 00:00:00,0.04,rain,26.96,2020-10-08 13:49:00,17.78,2020-10-09 00:45:00,27.87,2020-10-08 14:07:00,18.05,2020-10-09 00:45:00,14.18,0.67,1013.0,1.9,2.64,1602112380,354,0.43,7,1602136860,15.917,252.3,16.21,2020-10-08 05:06:00,26.96,2020-10-08 13:49:00,16.48,2020-10-08 05:06:00,27.87,2020-10-08 14:07:00,
Mahottari,Chisapani Gadhi,26.65224722,85.807275,2020-10-08 00:00:00,Humid and mostly cloudy throughout the day.,partly-cloudy-day,2020-10-08 05:59:00,2020-10-08 17:42:00,0.71,0.0457,0.2258,2020-10-08 05:24:00,0.28,rain,32.08,2020-10-08 15:09:00,23.56,2020-10-09 05:21:00,42.0,2020-10-08 13:43:00,24.58,2020-10-09 05:16:00,24.92,0.85,1009.1,1.56,3.06,1602124440,55,0.7,6,1602136980,16.093,256.0,24.36,2020-10-08 04:44:00,32.08,2020-10-08 15:09:00,25.5,2020-10-08 04:40:00,42.0,2020-10-08 13:43:00,
Mahottari,Jalesore,26.88333333,85.78333333,2020-10-08 00:00:00,Humid and mostly cloudy throughout the day.,rain,2020-10-08 05:59:00,2020-10-08 17:42:00,0.71,0.1361,0.7182,2020-10-08 05:19:00,0.42,rain,32.24,2020-10-08 15:09:00,23.41,2020-10-09 05:30:00,41.6,2020-10-08 13:22:00,24.35,2020-10-09 05:28:00,24.76,0.84,1009.3,1.6,2.47,1602149280,25,0.68,6,1602137460,16.093,255.7,24.37,2020-10-08 04:56:00,32.24,2020-10-08 15:09:00,25.48,2020-10-08 04:50:00,41.6,2020-10-08 13:22:00,
Makwanpur,Daman,27.5599456,85.1386067,2020-10-08 00:00:00,Humid and mostly cloudy throughout the day.,partly-cloudy-day,2020-10-08 06:02:00,2020-10-08 17:44:00,0.71,0.1759,0.8835,2020-10-08 02:26:00,0.28,rain,25.2,2020-10-08 12:51:00,15.92,2020-10-09 05:19:00,25.4,2020-10-08 12:58:00,16.6,2020-10-09 05:15:00,18.43,0.96,1011.1,1.04,1.86,1602145500,137,0.69,6,1602137940,16.093,252.3,15.38,2020-10-08 05:43:00,25.2,2020-10-08 12:51:00,16.31,2020-10-08 05:43:00,25.4,2020-10-08 12:58:00,
Makwanpur,Hetanuda(Ind. Dist),27.619,85.1496,2020-10-08 00:00:00,Humid and mostly cloudy throughout the day.,partly-cloudy-day,2020-10-08 06:02:00,2020-10-08 17:44:00,0.71,0.1309,0.6424,2020-10-08 02:25:00,0.21,rain,25.61,2020-10-08 13:08:00,16.33,2020-10-09 05:30:00,25.67,2020-10-08 13:19:00,16.82,2020-10-09 05:30:00,18.16,0.92,1011.2,0.96,1.76,1602145320,124,0.68,7,1602138420,16.093,252.2,15.82,2020-10-08 05:39:00,25.61,2020-10-08 13:08:00,16.47,2020-10-08 05:40:00,25.67,2020-10-08 13:19:00,
Makwanpur,Makwanpur Gadhi,27.43333333,85.03333333,2020-10-08 00:00:00,Humid and mostly cloudy throughout the day.,partly-cloudy-day,2020-10-08 06:02:00,2020-10-08 17:45:00,0.71,0.1391,0.6032,2020-10-08 02:33:00,0.33,rain,31.46,2020-10-08 13:10:00,21.2,2020-10-09 05:32:00,39.08,2020-10-08 15:14:00,21.95,2020-10-09 05:28:00,23.84,0.9,1010.7,1.26,2.38,1602146280,112,0.69,6,1602139020,16.093,253.6,21.27,2020-10-08 05:40:00,31.46,2020-10-08 13:10:00,22.21,2020-10-08 05:34:00,39.08,2020-10-08 15:14:00,
Makwanpur,Manang Bhot,27.635081899999996,84.7416103,2020-10-08 00:00:00,Mostly cloudy throughout the day.,partly-cloudy-day,2020-10-08 06:04:00,2020-10-08 17:46:00,0.71,0.019,0.0871,2020-10-08 22:37:00,0.09,rain,30.57,2020-10-08 13:37:00,19.99,2020-10-09 05:35:00,32.3,2020-10-08 13:28:00,20.58,2020-10-09 05:34:00,20.26,0.79,1010.6,1.08,1.8,1602113820,65,0.65,7,1602139620,16.093,254.1,19.83,2020-10-08 05:32:00,30.57,2020-10-08 13:37:00,20.51,2020-10-08 05:30:00,32.3,2020-10-08 13:28:00,
Makwanpur,Markhu Gaun,27.4227,85.0279,2020-10-08 00:00:00,Humid and mostly cloudy throughout the day.,partly-cloudy-day,2020-10-08 06:02:00,2020-10-08 17:45:00,0.71,0.1359,0.577,2020-10-08 02:33:00,0.33,rain,31.49,2020-10-08 13:18:00,21.28,2020-10-09 05:34:00,39.23,2020-10-08 14:18:00,22.04,2020-10-09 05:31:00,23.89,0.9,1010.6,1.28,2.46,1602146400,109,0.69,6,1602139200,16.093,253.7,21.42,2020-10-08 05:40:00,31.49,2020-10-08 13:18:00,22.38,2020-10-08 05:34:00,39.23,2020-10-08 14:18:00,
Manang,Goga,28.63989694,84.08811583,2020-10-08 00:00:00,Partly cloudy throughout the day.,partly-cloudy-day,2020-10-08 06:07:00,2020-10-08 17:48:00,0.71,0.0017,0.0095,2020-10-08 15:03:00,0.03,rain,11.5,2020-10-08 13:38:00,3.04,2020-10-09 06:33:00,11.84,2020-10-08 14:12:00,2.2,2020-10-09 04:13:00,5.05,0.99,1017.2,1.54,2.18,1602136800,43,0.28,9,1602136800,15.603,244.5,0.55,2020-10-08 05:26:00,11.5,2020-10-08 13:38:00,-1.19,2020-10-08 05:23:00,11.84,2020-10-08 14:12:00,
Manang,Humde,28.66627083,84.02257194,2020-10-08 00:00:00,Partly cloudy throughout the day.,partly-cloudy-day,2020-10-08 06:07:00,2020-10-08 17:48:00,0.71,0.0011,0.0071,2020-10-08 14:56:00,0.02,rain,11.59,2020-10-08 13:45:00,2.04,2020-10-09 06:34:00,11.81,2020-10-08 14:18:00,1.93,2020-10-09 00:18:00,4.6,0.99,1017.3,1.44,2.15,1602136860,79,0.24,10,1602136680,15.692,244.2,-0.31,2020-10-08 06:01:00,11.59,2020-10-08 13:45:00,-1.86,2020-10-08 06:05:00,11.81,2020-10-08 14:18:00,
Manang,Naar,28.76666667,84.28333333,2020-10-08 00:00:00,Partly cloudy throughout the day.,partly-cloudy-day,2020-10-08 06:06:00,2020-10-08 17:47:00,0.71,0.0,0.0,2020-10-08 02:05:00,0.0,,6.98,2020-10-08 13:43:00,-4.02,2020-10-09 05:48:00,6.7,2020-10-08 13:45:00,-4.86,2020-10-09 00:32:00,-0.69,0.96,1018.5,1.2,2.07,1602135600,37,0.28,9,1602137040,16.093,242.9,-4.96,2020-10-08 05:48:00,6.98,2020-10-08 13:43:00,-6.54,2020-10-08 04:43:00,6.7,2020-10-08 13:45:00,
Manang,Phu Gaun,28.55,84.2333333,2020-10-08 00:00:00,Partly cloudy throughout the day.,partly-cloudy-day,2020-10-08 06:06:00,2020-10-08 17:47:00,0.71,0.0039,0.0195,2020-10-08 16:05:00,0.08,rain,12.81,2020-10-08 12:02:00,5.4,2020-10-08 23:48:00,13.01,2020-10-08 14:17:00,4.24,2020-10-08 23:49:00,7.14,0.97,1016.9,1.84,2.79,1602111420,340,0.35,8,1602136980,14.867,245.7,3.58,2020-10-08 05:04:00,12.81,2020-10-08 12:02:00,1.7,2020-10-08 05:04:00,13.01,2020-10-08 14:17:00,
Morang,Biratnagar,29.2160678,83.983333,2020-10-07 21:45:00,Partly cloudy throughout the day.,partly-cloudy-day,2020-10-08 06:07:00,2020-10-08 17:48:00,0.7,0.0,0.0,2020-10-08 02:05:00,0.0,,14.87,2020-10-08 13:52:00,-5.27,2020-10-09 05:45:00,14.59,2020-10-08 13:52:00,-5.0,2020-10-09 05:45:00,-2.92,0.69,1018.3,1.98,5.63,1602141600,194,0.29,9,1602133860,16.093,245.2,-5.61,2020-10-08 06:07:00,14.87,2020-10-08 13:52:00,-5.29,2020-10-08 05:56:00,14.59,2020-10-08 13:52:00,
Morang,Biratnagar Airport,26.61000889,87.37074778,2020-10-08 00:00:00,Humid and mostly cloudy throughout the day.,partly-cloudy-day,2020-10-08 05:53:00,2020-10-08 17:36:00,0.71,0.054,0.2068,2020-10-08 02:48:00,0.32,rain,33.25,2020-10-08 14:20:00,24.5,2020-10-09 05:43:00,45.92,2020-10-08 14:25:00,25.49,2020-10-09 05:42:00,25.63,0.85,1009.3,1.42,3.22,1602104880,71,0.68,7,1602137460,16.093,254.8,24.59,2020-10-08 05:43:00,33.25,2020-10-08 14:20:00,25.73,2020-10-08 05:41:00,45.92,2020-10-08 14:25:00,
Morang,Gam Shree Nagar,26.73416667,87.50166667,2020-10-08 00:00:00,Humid and mostly cloudy throughout the day.,partly-cloudy-day,2020-10-08 05:52:00,2020-10-08 17:35:00,0.71,0.0468,0.2186,2020-10-08 04:36:00,0.28,rain,33.55,2020-10-08 14:03:00,24.39,2020-10-09 05:38:00,49.52,2020-10-08 14:41:00,25.42,2020-10-09 05:37:00,26.34,0.92,1009.7,1.38,2.48,1602113160,357,0.68,7,1602135720,16.093,254.5,23.67,2020-10-08 05:24:00,33.55,2020-10-08 14:03:00,24.81,2020-10-08 05:21:00,49.52,2020-10-08 14:41:00,
Morang,Haraincha,28.46717,84.37307390000001,2020-10-08 00:00:00,Partly cloudy throughout the day.,partly-cloudy-day,2020-10-08 06:06:00,2020-10-08 17:47:00,0.71,0.0044,0.0178,2020-10-08 16:06:00,0.08,rain,15.48,2020-10-08 12:25:00,8.24,2020-10-08 23:50:00,15.66,2020-10-08 13:17:00,7.88,2020-10-08 23:51:00,9.09,0.91,1016.3,1.67,2.24,1602113100,350,0.35,7,1602136980,14.821,246.7,6.95,2020-10-08 05:08:00,15.48,2020-10-08 12:25:00,6.0,2020-10-08 05:08:00,15.66,2020-10-08 13:17:00,
Morang,Letang,26.46666667,87.28333333,2020-10-08 00:00:00,Humid and mostly cloudy throughout the day.,partly-cloudy-day,2020-10-08 05:53:00,2020-10-08 17:36:00,0.71,0.0425,0.1613,2020-10-08 03:03:00,0.35,rain,32.32,2020-10-08 15:16:00,23.75,2020-10-09 05:29:00,42.79,2020-10-08 13:59:00,24.82,2020-10-09 05:26:00,25.12,0.86,1009.3,1.49,4.38,1602104520,91,0.71,7,1602137400,16.093,254.8,24.18,2020-10-08 03:43:00,32.32,2020-10-08 15:16:00,25.35,2020-10-08 03:43:00,42.79,2020-10-08 13:59:00,
Morang,Mugu,26.483967,87.26700600000001,2020-10-08 00:00:00,Humid and mostly cloudy throughout the day.,partly-cloudy-day,2020-10-08 05:53:00,2020-10-08 17:36:00,0.71,0.0439,0.1678,2020-10-08 03:24:00,0.35,rain,32.35,2020-10-08 15:17:00,23.71,2020-10-09 05:28:00,42.78,2020-10-08 13:58:00,24.78,2020-10-09 05:26:00,25.12,0.86,1009.3,1.48,4.49,1602104520,90,0.71,7,1602137400,16.093,254.9,24.2,2020-10-08 03:43:00,32.35,2020-10-08 15:17:00,25.38,2020-10-08 03:43:00,42.78,2020-10-08 13:58:00,
Mugu,Jomsom,29.50867889,81.89267389,2020-10-08 00:00:00,Clear throughout the day.,clear-day,2020-10-08 06:16:00,2020-10-08 17:56:00,0.71,0.0006,0.0062,2020-10-08 02:45:00,0.01,rain,25.13,2020-10-08 13:48:00,8.23,2020-10-09 05:42:00,24.85,2020-10-08 13:48:00,8.5,2020-10-09 05:42:00,9.54,0.72,1015.6,0.98,2.47,1602152760,139,0.42,9,1602139140,16.093,252.5,7.91,2020-10-08 05:52:00,25.13,2020-10-08 13:48:00,8.18,2020-10-08 05:52:00,24.85,2020-10-08 13:48:00,
Mugu,Mangri,29.540125,82.081825,2020-10-08 00:00:00,Clear throughout the day.,clear-day,2020-10-08 06:15:00,2020-10-08 17:55:00,0.71,0.0006,0.0064,2020-10-08 02:45:00,0.01,rain,18.74,2020-10-08 13:50:00,5.88,2020-10-09 05:42:00,18.46,2020-10-08 13:50:00,5.21,2020-10-09 05:34:00,7.44,0.84,1015.8,1.27,2.53,1602141360,67,0.33,9,1602139080,16.093,251.0,4.95,2020-10-08 05:30:00,18.74,2020-10-08 13:50:00,4.16,2020-10-08 05:28:00,18.46,2020-10-08 13:50:00,
Mugu,Rara,29.75,82.55,2020-10-08 00:00:00,Clear throughout the day.,clear-day,2020-10-08 06:13:00,2020-10-08 17:53:00,0.71,0.0,0.0,2020-10-08 02:05:00,0.0,,6.36,2020-10-08 13:06:00,-4.51,2020-10-09 05:49:00,4.24,2020-10-08 13:07:00,-4.24,2020-10-09 05:49:00,-1.67,0.93,1019.3,1.55,5.0,1602141900,96,0.21,10,1602138540,16.093,245.4,-5.29,2020-10-08 05:37:00,6.36,2020-10-08 13:06:00,-5.02,2020-10-08 05:37:00,4.24,2020-10-08 13:07:00,
Mugu,Seroge,29.58904306,82.30580306,2020-10-08 00:00:00,Clear throughout the day.,clear-day,2020-10-08 06:14:00,2020-10-08 17:54:00,0.71,0.0,0.0,2020-10-08 02:05:00,0.0,,16.57,2020-10-08 13:37:00,5.57,2020-10-09 01:25:00,16.29,2020-10-08 13:37:00,4.86,2020-10-09 01:28:00,4.29,0.73,1017.6,1.49,3.36,1602139920,61,0.2,9,1602138660,16.093,248.3,4.52,2020-10-08 05:05:00,16.57,2020-10-08 13:37:00,3.57,2020-10-08 05:08:00,16.29,2020-10-08 13:37:00,
Mustang,Lete,28.78401111,83.72981667,2020-10-08 00:00:00,Partly cloudy throughout the day.,partly-cloudy-day,2020-10-08 06:08:00,2020-10-08 17:49:00,0.71,0.0,0.0,2020-10-08 02:05:00,0.0,,12.44,2020-10-08 12:52:00,3.66,2020-10-09 01:35:00,12.16,2020-10-08 12:52:00,2.92,2020-10-09 00:17:00,5.29,0.94,1017.8,1.63,4.81,1602143940,258,0.23,9,1602135960,16.093,245.6,1.83,2020-10-08 05:59:00,12.44,2020-10-08 12:52:00,2.1,2020-10-08 05:59:00,12.16,2020-10-08 12:52:00,
Mustang,Mustang(Lomangthang),28.81555556,83.86222222,2020-10-08 00:00:00,Partly cloudy throughout the day.,partly-cloudy-day,2020-10-08 06:08:00,2020-10-08 17:49:00,0.71,0.0,0.0,2020-10-08 02:05:00,0.0,,12.03,2020-10-08 13:21:00,1.08,2020-10-09 06:33:00,11.74,2020-10-08 13:21:00,1.28,2020-10-09 00:42:00,4.21,0.95,1017.8,1.5,3.88,1602141720,202,0.22,10,1602136020,16.093,244.9,-0.34,2020-10-08 05:56:00,12.03,2020-10-08 13:21:00,-0.07,2020-10-08 05:56:00,11.74,2020-10-08 13:21:00,
Mustang,Ranipauwa (M.Nath),28.73887222,83.68183333,2020-10-08 00:00:00,Partly cloudy throughout the day.,partly-cloudy-day,2020-10-08 06:08:00,2020-10-08 17:49:00,0.71,0.0,0.0,2020-10-08 02:05:00,0.0,,11.98,2020-10-08 12:55:00,3.57,2020-10-09 01:23:00,11.69,2020-10-08 12:54:00,3.84,2020-10-09 01:23:00,5.17,0.95,1017.6,1.56,4.4,1602144060,275,0.2,9,1602136080,16.093,245.7,1.8,2020-10-08 05:56:00,11.98,2020-10-08 12:55:00,2.07,2020-10-08 05:56:00,11.69,2020-10-08 12:54:00,
Mustang,Tatopani,28.9,83.68333333,2020-10-08 00:00:00,Partly cloudy throughout the day.,partly-cloudy-day,2020-10-08 06:08:00,2020-10-08 17:49:00,0.71,0.0,0.0,2020-10-08 02:05:00,0.0,,11.41,2020-10-08 13:21:00,-0.87,2020-10-09 06:25:00,11.19,2020-10-08 13:14:00,-2.04,2020-10-09 04:24:00,1.91,0.9,1018.0,1.77,4.81,1602144480,267,0.32,9,1602135540,16.093,244.8,-2.27,2020-10-08 05:58:00,11.41,2020-10-08 13:21:00,-2.45,2020-10-08 02:29:00,11.19,2020-10-08 13:14:00,
Myagdi,Bega,28.4,83.73333333,2020-10-08 00:00:00,Partly cloudy throughout the day.,partly-cloudy-day,2020-10-08 06:08:00,2020-10-08 17:49:00,0.71,0.0022,0.0269,2020-10-08 16:55:00,0.02,rain,19.43,2020-10-08 13:14:00,10.71,2020-10-09 00:23:00,19.3,2020-10-08 13:25:00,10.98,2020-10-09 00:23:00,10.7,0.85,1013.3,1.47,2.37,1602110280,29,0.26,9,1602136380,16.093,250.6,9.32,2020-10-08 05:04:00,19.43,2020-10-08 13:14:00,8.93,2020-10-08 05:03:00,19.3,2020-10-08 13:25:00,
Myagdi,Beni Bazar,29.22713194,83.979815,2020-10-07 21:45:00,Partly cloudy throughout the day.,partly-cloudy-day,2020-10-08 06:07:00,2020-10-08 17:48:00,0.7,0.0,0.0,2020-10-08 02:05:00,0.0,,14.71,2020-10-08 13:53:00,-5.72,2020-10-09 05:45:00,14.43,2020-10-08 13:53:00,-5.45,2020-10-09 05:45:00,-3.43,0.68,1018.3,2.0,5.7,1602141660,196,0.29,9,1602133860,16.093,245.1,-6.02,2020-10-08 06:06:00,14.71,2020-10-08 13:53:00,-5.7,2020-10-08 05:55:00,14.43,2020-10-08 13:53:00,
Myagdi,Dumkauli,28.56666667,83.38333333,2020-10-08 00:00:00,Clear throughout the day.,clear-day,2020-10-08 06:10:00,2020-10-08 17:51:00,0.71,0.0016,0.014,2020-10-08 17:50:00,0.02,rain,17.48,2020-10-08 13:06:00,8.49,2020-10-09 05:23:00,17.2,2020-10-08 13:06:00,7.56,2020-10-09 05:23:00,7.36,0.78,1015.7,2.03,2.89,1602143580,1,0.28,9,1602136140,16.093,249.0,6.69,2020-10-08 05:11:00,17.48,2020-10-08 13:06:00,5.54,2020-10-08 05:09:00,17.2,2020-10-08 13:06:00,
Myagdi,Ghorepani,28.35083333,83.56666667,2020-10-08 00:00:00,Partly cloudy throughout the day.,partly-cloudy-day,2020-10-08 06:09:00,2020-10-08 17:50:00,0.71,0.0021,0.0218,2020-10-08 16:25:00,0.01,rain,25.42,2020-10-08 13:35:00,15.18,2020-10-09 06:17:00,25.14,2020-10-08 13:35:00,15.45,2020-10-09 06:17:00,10.92,0.62,1013.9,1.65,2.66,1602110580,334,0.31,8,1602135960,16.093,252.3,13.87,2020-10-08 05:01:00,25.42,2020-10-08 13:35:00,14.14,2020-10-08 05:01:00,25.14,2020-10-08 13:35:00,
Myagdi,Muna,28.44271389,83.576185,2020-10-08 00:00:00,Partly cloudy throughout the day.,partly-cloudy-day,2020-10-08 06:09:00,2020-10-08 17:50:00,0.71,0.001,0.0089,2020-10-08 16:36:00,0.01,rain,22.84,2020-10-08 12:58:00,13.37,2020-10-09 00:31:00,22.56,2020-10-08 12:58:00,13.64,2020-10-09 00:31:00,10.59,0.69,1014.0,1.89,2.77,1602109740,348,0.28,8,1602136200,16.093,251.0,11.94,2020-10-08 05:14:00,22.84,2020-10-08 12:58:00,12.21,2020-10-08 05:14:00,22.56,2020-10-08 12:58:00,
Nawalparasi,Bara Ghat,27.680675,84.22854170000001,2020-10-08 00:00:00,Humid and partly cloudy throughout the day.,partly-cloudy-day,2020-10-08 06:06:00,2020-10-08 17:48:00,0.71,0.0097,0.0467,2020-10-08 02:26:00,0.03,rain,34.67,2020-10-08 14:05:00,20.93,2020-10-09 05:39:00,38.07,2020-10-08 15:38:00,21.3,2020-10-09 05:40:00,19.94,0.65,1009.9,1.28,2.02,1602148440,350,0.44,7,1602137640,16.093,254.9,21.1,2020-10-08 05:33:00,34.67,2020-10-08 14:05:00,21.39,2020-10-08 05:32:00,38.07,2020-10-08 15:38:00,
Nawalparasi,Dumkibas,27.51925,83.66218333,2020-10-08 00:00:00,Humid and partly cloudy throughout the day.,partly-cloudy-day,2020-10-08 06:08:00,2020-10-08 17:50:00,0.71,0.0495,0.3272,2020-10-08 02:58:00,0.08,rain,33.61,2020-10-08 15:10:00,22.94,2020-10-09 05:28:00,38.91,2020-10-08 15:38:00,23.5,2020-10-09 05:28:00,21.58,0.68,1009.2,1.55,2.72,1602157080,90,0.38,7,1602139800,16.093,255.5,23.54,2020-10-08 05:30:00,33.61,2020-10-08 15:10:00,24.27,2020-10-08 05:27:00,38.91,2020-10-08 15:38:00,
