district,formal_name,lat,long,time,summary,icon,sunriseTime,sunsetTime,moonPhase,precipIntensity,precipIntensityMax,precipIntensityMaxTime,precipProbability,precipType,temperatureHigh,temperatureHighTime,temperatureLow,temperatureLowTime,apparentTemperatureHigh,apparentTemperatureHighTime,apparentTemperatureLow,apparentTemperatureLowTime,dewPoint,humidity,pressure,windSpeed,windGust,windGustTime,windBearing,cloudCover,uvIndex,uvIndexTime,visibility,ozone,temperatureMin,temperatureMinTime,temperatureMax,temperatureMaxTime,apparentTemperatureMin,apparentTemperatureMinTime,apparentTemperatureMax,apparentTemperatureMaxTime
Achham,Asara Ghat,28.95029444,81.44431944,2020-09-24 00:00:00,Rain until afternoon.,rain,2020-09-24 06:10:00,2020-09-24 18:15:00,0.27,0.9897,2.4108,2020-09-24 06:13:00,0.83,rain,24.55,2020-09-24 15:15:00,18.05,2020-09-25 05:35:00,25.48,2020-09-24 15:23:00,18.8,2020-09-25 05:34:00,21.07,1.0,1007.5,0.97,1.65,1600943700,18,0.81,6,1600933380,14.913,254.8,18.73,2020-09-24 07:03:00,24.55,2020-09-24 15:15:00,20.26,2020-09-24 06:54:00,25.48,2020-09-24 15:23:00
Achham,Basti,29.03098333,81.17113333,2020-09-24 00:00:00,Rain until afternoon.,rain,2020-09-24 06:11:00,2020-09-24 18:16:00,0.27,0.9617,2.3777,2020-09-24 10:53:00,0.77,rain,26.31,2020-09-24 15:04:00,18.57,2020-09-25 05:32:00,28.49,2020-09-24 15:02:00,19.52,2020-09-25 05:29:00,22.27,1.0,1007.6,0.92,2.09,1600929120,1,0.67,7,1600932960,15.172,255.7,19.93,2020-09-24 07:35:00,26.31,2020-09-24 15:04:00,21.57,2020-09-24 07:04:00,28.49,2020-09-24 15:02:00
Achham,Mangalsen,29.13611389,81.25009167,2020-09-24 00:00:00,Rain in the morning and afternoon.,rain,2020-09-24 06:11:00,2020-09-24 18:16:00,0.27,0.9111,2.394,2020-09-24 10:45:00,0.7,rain,21.59,2020-09-24 14:57:00,16.34,2020-09-25 05:39:00,22.9,2020-09-24 15:03:00,17.39,2020-09-25 05:38:00,18.85,1.0,1008.0,0.95,2.22,1600930140,18,0.61,7,1600932780,15.865,255.4,17.02,2020-09-24 08:25:00,21.59,2020-09-24 14:57:00,18.61,2020-09-24 06:54:00,22.9,2020-09-24 15:03:00
Achham,Sugali,29.17980694,81.37293889,2020-09-24 00:00:00,Rain in the morning and afternoon.,rain,2020-09-24 06:10:00,2020-09-24 18:15:00,0.27,0.9657,2.3989,2020-09-24 10:10:00,0.68,rain,19.97,2020-09-24 14:53:00,14.93,2020-09-25 05:31:00,21.81,2020-09-24 14:55:00,16.2,2020-09-25 05:28:00,17.01,1.0,1008.3,1.08,2.28,1600931820,31,0.73,7,1600932480,15.457,254.1,15.09,2020-09-24 06:59:00,19.97,2020-09-24 14:53:00,17.01,2020-09-24 06:18:00,21.81,2020-09-24 14:55:00
Arghakhanchi,Rangsing,27.80330278,82.78400833,2020-09-24 00:00:00,Heavy rain and humid throughout the day.,rain,2020-09-24 06:05:00,2020-09-24 18:09:00,0.27,3.7972,6.7744,2020-09-24 05:14:00,0.98,rain,23.09,2020-09-24 13:28:00,20.44,2020-09-25 05:30:00,24.33,2020-09-24 13:23:00,21.5,2020-09-25 04:35:00,21.79,1.0,1005.8,2.1,5.62,1600894080,40,1.0,5,1600928580,6.449,252.9,20.49,2020-09-24 07:55:00,23.09,2020-09-24 13:28:00,21.85,2020-09-25 00:00:00,24.33,2020-09-24 13:23:00
Arghakhanchi,Sandhikharka,27.96402222,83.12056944,2020-09-24 00:00:00,Rain throughout the day.,rain,2020-09-24 06:03:00,2020-09-24 18:08:00,0.27,3.3716,5.4661,2020-09-24 04:17:00,0.94,rain,19.98,2020-09-24 12:51:00,16.55,2020-09-25 05:44:00,21.21,2020-09-24 12:53:00,17.6,2020-09-25 05:41:00,18.07,1.0,1007.2,1.68,3.36,1600903680,37,1.0,5,1600928520,8.05,251.1,16.81,2020-09-24 06:57:00,19.98,2020-09-24 12:51:00,17.79,2020-09-25 00:00:00,21.21,2020-09-24 12:53:00
Arghakhanchi,Sidhara,27.7945,82.82838333,2020-09-24 00:00:00,Heavy rain and humid throughout the day.,rain,2020-09-24 06:05:00,2020-09-24 18:09:00,0.27,3.898,6.7368,2020-09-24 04:59:00,0.99,rain,22.88,2020-09-24 13:14:00,20.22,2020-09-25 01:35:00,24.07,2020-09-24 13:15:00,21.14,2020-09-25 01:28:00,21.39,1.0,1005.8,2.15,5.57,1600894320,39,1.0,5,1600928580,6.11,252.9,20.26,2020-09-24 08:23:00,22.88,2020-09-24 13:14:00,21.29,2020-09-25 00:00:00,24.07,2020-09-24 13:15:00
Baglung,Baglung,28.26363611,83.60032222,2020-09-24 00:00:00,Rain throughout the day.,rain,2020-09-24 06:01:00,2020-09-24 18:06:00,0.27,3.1729,5.5438,2020-09-24 02:57:00,0.91,rain,18.35,2020-09-24 13:19:00,15.27,2020-09-25 05:42:00,19.43,2020-09-24 13:11:00,15.98,2020-09-25 05:38:00,16.9,1.0,1009.3,1.03,2.18,1600924800,1,1.0,5,1600928460,7.35,249.2,15.22,2020-09-24 06:48:00,18.35,2020-09-24 13:19:00,16.45,2020-09-24 06:45:00,19.43,2020-09-24 13:11:00
Baglung,Dhorpatan,28.48333333,83.08333333,2020-09-24 00:00:00,Rain in the morning and afternoon.,rain,2020-09-24 06:04:00,2020-09-24 18:08:00,0.27,2.6556,4.8558,2020-09-24 02:46:00,0.77,rain,10.24,2020-09-24 12:07:00,9.03,2020-09-25 05:41:00,10.29,2020-09-24 19:00:00,10.29,2020-09-24 19:00:00,9.78,1.0,1009.1,1.48,4.05,1600915620,38,1.0,6,1600928580,8.133,246.5,9.14,2020-09-24 03:35:00,10.37,2020-09-24 00:00:00,8.66,2020-09-24 09:04:00,13.13,2020-09-24 20:00:00
Baglung,Galkot,28.21869167,83.41881111,2020-09-24 00:00:00,Rain throughout the day.,rain,2020-09-24 06:02:00,2020-09-24 18:07:00,0.27,3.0437,5.242,2020-09-24 03:02:00,0.91,rain,17.0,2020-09-24 11:57:00,13.24,2020-09-25 05:24:00,17.96,2020-09-24 12:01:00,14.0,2020-09-25 05:19:00,15.03,1.0,1009.1,1.33,2.85,1600916580,11,1.0,6,1600928520,7.427,249.4,13.55,2020-09-24 06:47:00,17.0,2020-09-24 11:57:00,14.81,2020-09-24 06:35:00,17.96,2020-09-24 12:01:00
Baglung,Rangkhani,28.14408889,83.55824444,2020-09-24 00:00:00,Rain throughout the day.,rain,2020-09-24 06:02:00,2020-09-24 18:06:00,0.27,3.7687,6.0239,2020-09-24 03:10:00,0.93,rain,17.07,2020-09-24 12:43:00,13.63,2020-09-25 00:38:00,18.64,2020-09-24 12:46:00,14.85,2020-09-25 01:00:00,14.94,1.0,1008.8,1.21,2.6,1600926780,8,1.0,6,1600928460,6.84,249.9,13.65,2020-09-25 00:00:00,17.07,2020-09-24 12:43:00,14.92,2020-09-25 00:00:00,18.64,2020-09-24 12:46:00
Baitadi,Patan (West),29.467137,80.54575109999999,2020-09-24 00:00:00,Humid and partly cloudy throughout the day.,rain,2020-09-24 06:14:00,2020-09-24 18:18:00,0.27,0.2595,0.9244,2020-09-24 00:00:00,0.53,rain,23.09,2020-09-24 12:05:00,16.65,2020-09-25 05:41:00,23.8,2020-09-24 12:23:00,17.91,2020-09-25 05:32:00,19.92,1.0,1007.6,0.82,2.25,1600946820,128,0.41,9,1600929540,14.237,258.4,17.46,2020-09-24 06:13:00,23.09,2020-09-24 12:05:00,18.75,2020-09-24 06:23:00,23.8,2020-09-24 12:23:00
Baitadi,Satbanjh,29.4973,80.49741194,2020-09-24 00:00:00,Partly cloudy throughout the day.,rain,2020-09-24 06:14:00,2020-09-24 18:19:00,0.27,0.2342,1.2751,2020-09-24 00:00:00,0.55,rain,21.09,2020-09-24 11:49:00,14.17,2020-09-25 05:43:00,21.73,2020-09-24 11:56:00,15.79,2020-09-25 05:40:00,17.11,1.0,1007.5,0.84,2.44,1600947180,138,0.37,9,1600929780,13.503,258.9,14.85,2020-09-24 05:53:00,21.09,2020-09-24 11:49:00,16.66,2020-09-24 05:59:00,21.73,2020-09-24 11:56:00
Bajhang,Chainpur (West),29.55,81.21666667,2020-09-24 00:00:00,Rain in the afternoon.,rain,2020-09-24 06:11:00,2020-09-24 18:16:00,0.27,0.5877,1.8977,2020-09-24 09:55:00,0.5,rain,20.26,2020-09-24 13:58:00,12.94,2020-09-25 05:32:00,21.49,2020-09-24 14:10:00,13.21,2020-09-25 05:32:00,15.59,0.96,1008.8,1.09,2.63,1600930140,53,0.47,8,1600930140,15.451,253.8,13.99,2020-09-25 00:00:00,20.26,2020-09-24 13:58:00,14.3,2020-09-24 04:44:00,21.49,2020-09-24 14:10:00
Bajhang,Chainpur Bajhang Aws Climate,29.545890000000004,81.20114000000001,2020-09-24 00:00:00,Rain in the afternoon.,rain,2020-09-24 06:11:00,2020-09-24 18:16:00,0.27,0.5821,1.8462,2020-09-24 09:59:00,0.5,rain,20.59,2020-09-24 14:00:00,13.28,2020-09-25 05:32:00,21.83,2020-09-24 14:09:00,13.55,2020-09-25 05:32:00,15.73,0.95,1008.7,1.07,2.61,1600930500,55,0.47,8,1600930200,15.441,253.9,14.18,2020-09-25 00:00:00,20.59,2020-09-24 14:00:00,14.57,2020-09-24 04:37:00,21.83,2020-09-24 14:09:00
Bajhang,Kalukheti,29.447359999999996,81.16838,2020-09-24 00:00:00,Rain in the morning and afternoon.,rain,2020-09-24 06:11:00,2020-09-24 18:16:00,0.27,0.617,1.8553,2020-09-24 10:16:00,0.53,rain,21.0,2020-09-24 14:31:00,13.41,2020-09-25 05:31:00,22.48,2020-09-24 14:53:00,13.81,2020-09-25 05:29:00,17.44,0.99,1008.5,0.94,2.45,1600931820,62,0.47,8,1600931340,15.662,254.9,15.22,2020-09-24 06:18:00,21.0,2020-09-24 14:31:00,15.59,2020-09-24 05:24:00,22.48,2020-09-24 14:53:00
Bajhang,Rayal,29.464595000000003,80.95405,2020-09-24 00:00:00,Rain in the afternoon.,rain,2020-09-24 06:12:00,2020-09-24 18:17:00,0.27,0.4985,1.6184,2020-09-24 12:02:00,0.48,rain,23.85,2020-09-24 14:58:00,15.77,2020-09-25 05:43:00,25.2,2020-09-24 15:14:00,16.19,2020-09-25 05:42:00,18.88,0.96,1008.1,0.81,2.15,1600933200,65,0.41,8,1600931040,15.72,256.0,16.93,2020-09-24 05:57:00,23.85,2020-09-24 14:58:00,17.22,2020-09-24 05:50:00,25.2,2020-09-24 15:14:00
Bajura,Bajura (Martadi),29.45697889,81.48038389,2020-09-24 00:00:00,Mostly cloudy throughout the day.,rain,2020-09-24 06:10:00,2020-09-24 18:15:00,0.27,0.8026,2.6219,2020-09-24 09:20:00,0.49,rain,18.09,2020-09-24 12:09:00,13.11,2020-09-25 01:20:00,19.24,2020-09-24 12:30:00,13.61,2020-09-25 01:32:00,14.89,1.0,1009.3,1.1,2.95,1600938180,42,0.71,7,1600930800,14.766,252.3,12.17,2020-09-24 05:54:00,18.09,2020-09-24 12:09:00,12.93,2020-09-24 05:47:00,19.24,2020-09-24 12:30:00
Bajura,Kailasmandu,29.35291694,81.33385889,2020-09-24 00:00:00,Rain in the morning and afternoon.,rain,2020-09-24 06:11:00,2020-09-24 18:15:00,0.27,0.7976,2.3255,2020-09-24 09:58:00,0.57,rain,20.66,2020-09-24 14:45:00,15.56,2020-09-25 05:33:00,22.0,2020-09-24 14:56:00,15.9,2020-09-25 05:30:00,17.63,0.98,1008.7,1.05,2.55,1600932900,45,0.62,7,1600931340,15.261,254.0,16.11,2020-09-24 06:40:00,20.66,2020-09-24 14:45:00,16.55,2020-09-24 04:46:00,22.0,2020-09-24 14:56:00
Bajura,Kolti,29.50348694,81.66617611,2020-09-24 00:00:00,Mostly cloudy throughout the day.,rain,2020-09-24 06:09:00,2020-09-24 18:14:00,0.27,0.7169,1.7992,2020-09-24 09:14:00,0.53,rain,18.14,2020-09-24 11:49:00,11.23,2020-09-25 05:33:00,18.54,2020-09-24 11:53:00,11.49,2020-09-25 05:32:00,13.42,1.0,1009.7,0.77,3.2,1600942080,10,0.66,7,1600931880,14.274,252.0,10.13,2020-09-24 05:54:00,18.14,2020-09-24 11:49:00,10.98,2020-09-24 05:50:00,18.54,2020-09-24 11:53:00
Banke,Amlekhganj,27.94748333,81.78569444,2020-09-24 00:15:00,Rain and humid throughout the day.,rain,2020-09-24 06:09:00,2020-09-24 18:13:00,0.27,1.3718,2.771,2020-09-24 08:15:00,0.96,rain,24.64,2020-09-24 17:27:00,21.8,2020-09-25 06:03:00,25.69,2020-09-24 17:09:00,23.13,2020-09-25 05:40:00,23.6,0.99,1004.8,1.97,6.03,1600894920,74,1.0,5,1600928820,14.29,255.7,22.48,2020-09-24 07:09:00,24.71,2020-09-24 00:15:00,24.06,2020-09-24 07:00:00,25.69,2020-09-24 17:09:00
Banke,Dhakeri,28.10055556,81.66824722,2020-09-24 00:15:00,Rain until afternoon.,rain,2020-09-24 06:09:00,2020-09-24 18:14:00,0.27,0.8144,1.697,2020-09-24 08:26:00,0.94,rain,25.08,2020-09-24 16:57:00,22.01,2020-09-25 05:43:00,26.28,2020-09-24 16:48:00,23.32,2020-09-25 05:29:00,23.88,1.0,1005.1,1.4,3.58,1600885800,62,0.99,5,1600928820,16.093,255.9,22.47,2020-09-24 08:12:00,25.08,2020-09-24 16:57:00,24.14,2020-09-24 07:53:00,26.28,2020-09-24 16:48:00
Banke,Khajura (Nepalganj),28.11368333,81.59030556,2020-09-24 00:15:00,Rain until afternoon.,rain,2020-09-24 06:09:00,2020-09-24 18:14:00,0.27,0.7435,1.6955,2020-09-24 08:31:00,0.94,rain,25.12,2020-09-24 16:46:00,22.08,2020-09-25 06:10:00,26.28,2020-09-24 16:42:00,23.39,2020-09-25 05:31:00,23.89,0.99,1005.0,1.51,4.05,1600885800,63,0.99,5,1600928820,16.093,256.3,22.48,2020-09-24 08:14:00,25.12,2020-09-24 16:46:00,24.12,2020-09-25 00:15:00,26.28,2020-09-24 16:42:00
Banke,Naubasta,28.230225,81.65270278,2020-09-24 00:00:00,Rain until afternoon.,rain,2020-09-24 06:09:00,2020-09-24 18:14:00,0.27,0.6526,1.852,2020-09-24 02:55:00,0.92,rain,25.66,2020-09-24 16:55:00,22.42,2020-09-25 05:55:00,26.55,2020-09-24 14:36:00,23.79,2020-09-25 05:33:00,24.1,1.0,1005.4,0.9,1.78,1600918320,41,0.98,5,1600928760,16.093,255.9,22.24,2020-09-24 08:23:00,25.66,2020-09-24 16:55:00,23.97,2020-09-24 08:08:00,26.55,2020-09-24 14:36:00
Banke,Nepalgunj Airport,28.051994399999995,81.6228389,2020-09-24 00:15:00,Rain until afternoon.,rain,2020-09-24 06:09:00,2020-09-24 18:14:00,0.27,0.8353,1.8292,2020-09-24 08:29:00,0.94,rain,24.76,2020-09-24 16:57:00,21.81,2020-09-25 05:41:00,25.87,2020-09-24 16:48:00,23.1,2020-09-25 05:26:00,23.66,0.99,1004.9,1.7,4.99,1600885800,66,0.99,5,1600928820,16.086,256.1,22.44,2020-09-24 07:48:00,24.76,2020-09-24 16:57:00,23.92,2020-09-25 00:15:00,25.87,2020-09-24 16:48:00
Bara,Gulariya,27.164166700000003,84.98,2020-09-24 00:00:00,Rain and humid throughout the day.,rain,2020-09-24 05:56:00,2020-09-24 18:01:00,0.27,1.3337,3.8103,2020-09-24 11:38:00,0.97,rain,26.08,2020-09-24 15:46:00,22.49,2020-09-25 06:28:00,27.99,2020-09-24 15:46:00,23.91,2020-09-25 06:20:00,24.31,0.99,1006.3,3.13,11.08,1600923300,73,1.0,5,1600928160,12.819,254.5,23.21,2020-09-24 07:09:00,26.08,2020-09-24 15:46:00,24.73,2020-09-24 04:43:00,27.99,2020-09-24 15:46:00
Bara,Kalaiya,27.079,84.9329,2020-09-24 00:00:00,Rain and humid throughout the day.,rain,2020-09-24 05:56:00,2020-09-24 18:01:00,0.27,1.34,4.0104,2020-09-24 11:35:00,0.98,rain,25.73,2020-09-24 16:23:00,22.36,2020-09-25 06:26:00,26.59,2020-09-24 16:21:00,23.76,2020-09-25 06:22:00,24.14,0.99,1006.0,3.94,11.98,1600917840,76,1.0,5,1600928160,13.464,254.9,23.15,2020-09-24 04:44:00,25.73,2020-09-24 16:23:00,24.57,2020-09-24 04:41:00,26.59,2020-09-24 16:21:00
Bara,Nijgadh,27.16416667,84.98,2020-09-24 00:00:00,Rain and humid throughout the day.,rain,2020-09-24 05:56:00,2020-09-24 18:01:00,0.27,1.3337,3.8103,2020-09-24 11:38:00,0.97,rain,26.08,2020-09-24 15:46:00,22.49,2020-09-25 06:28:00,27.99,2020-09-24 15:46:00,23.91,2020-09-25 06:20:00,24.31,0.99,1006.3,3.13,11.08,1600923300,73,1.0,5,1600928160,12.819,254.5,23.21,2020-09-24 07:09:00,26.08,2020-09-24 15:46:00,24.73,2020-09-24 04:43:00,27.99,2020-09-24 15:46:00
Bara,Parwanipur,27.20300556,85.170475,2020-09-24 00:00:00,Rain and humid throughout the day.,rain,2020-09-24 05:55:00,2020-09-24 18:00:00,0.27,1.218,3.4301,2020-09-24 11:41:00,0.96,rain,25.79,2020-09-24 16:00:00,22.16,2020-09-25 06:24:00,26.85,2020-09-24 15:57:00,23.58,2020-09-25 06:13:00,24.07,0.99,1006.7,2.25,6.52,1600923600,70,1.0,5,1600928160,12.029,254.3,22.94,2020-09-24 07:40:00,25.79,2020-09-24 16:00:00,24.54,2020-09-24 07:01:00,26.85,2020-09-24 15:57:00
Bara,Simara Airport,27.2813,84.9919,2020-09-24 00:00:00,Rain and humid throughout the day.,rain,2020-09-24 05:56:00,2020-09-24 18:01:00,0.27,1.4775,3.9033,2020-09-24 11:38:00,0.95,rain,25.61,2020-09-24 15:41:00,21.96,2020-09-25 06:29:00,26.63,2020-09-24 14:42:00,23.33,2020-09-25 02:56:00,23.46,1.0,1006.8,2.2,9.61,1600924860,68,1.0,5,1600928160,11.483,253.8,22.27,2020-09-24 08:33:00,25.61,2020-09-24 15:41:00,23.75,2020-09-25 00:00:00,26.63,2020-09-24 14:42:00
Bardiya,Chisapani(Karnali),28.21278611,81.34521111,2020-09-24 00:00:00,Rain until afternoon.,rain,2020-09-24 06:10:00,2020-09-24 18:15:00,0.27,0.5379,1.2493,2020-09-24 08:20:00,0.92,rain,25.17,2020-09-24 16:36:00,21.74,2020-09-25 02:38:00,26.21,2020-09-24 14:47:00,22.88,2020-09-25 02:26:00,23.73,0.99,1005.1,1.6,4.52,1600884900,54,0.98,5,1600928820,15.966,257.2,22.25,2020-09-25 00:00:00,25.17,2020-09-24 16:36:00,23.32,2020-09-25 00:00:00,26.21,2020-09-24 14:47:00
Bardiya,Kumalgaun,28.33735833,81.33784167,2020-09-24 00:00:00,Rain until afternoon.,rain,2020-09-24 06:10:00,2020-09-24 18:15:00,0.27,0.654,1.9307,2020-09-24 00:32:00,0.93,rain,25.63,2020-09-24 16:34:00,22.01,2020-09-25 02:40:00,26.64,2020-09-24 16:33:00,23.16,2020-09-25 02:19:00,23.85,1.0,1005.4,1.3,2.57,1600884900,40,0.97,5,1600928820,15.433,257.3,22.29,2020-09-24 08:59:00,25.63,2020-09-24 16:34:00,23.54,2020-09-25 00:00:00,26.64,2020-09-24 16:33:00
Bardiya,Manpur,28.36353889,81.41428333,2020-09-24 00:00:00,Rain until afternoon.,rain,2020-09-24 06:10:00,2020-09-24 18:15:00,0.27,0.7009,2.1487,2020-09-24 01:02:00,0.92,rain,26.23,2020-09-24 16:31:00,22.18,2020-09-25 06:27:00,28.42,2020-09-24 16:30:00,23.52,2020-09-25 05:42:00,24.14,1.0,1005.6,1.08,1.71,1600884900,36,0.97,5,1600928700,15.58,256.9,22.37,2020-09-24 08:47:00,26.23,2020-09-24 16:31:00,24.09,2020-09-25 00:00:00,28.42,2020-09-24 16:30:00
Bardiya,Rajapur,28.64721944,81.28542778,2020-09-24 00:00:00,Rain until afternoon.,rain,2020-09-24 06:11:00,2020-09-24 18:15:00,0.27,1.0135,2.7525,2020-09-24 00:18:00,0.93,rain,25.27,2020-09-24 16:27:00,21.1,2020-09-25 05:48:00,26.2,2020-09-24 16:27:00,22.29,2020-09-25 05:36:00,22.84,1.0,1006.3,1.01,1.8,1600896960,28,0.88,5,1600929060,14.125,257.1,21.16,2020-09-24 09:24:00,25.27,2020-09-24 16:27:00,22.84,2020-09-24 08:21:00,26.2,2020-09-24 16:27:00
Bardiya,Rambhapur,28.307825,81.27586389,2020-09-24 00:00:00,Rain until afternoon.,rain,2020-09-24 06:11:00,2020-09-24 18:15:00,0.27,0.5951,1.6273,2020-09-24 00:28:00,0.93,rain,25.17,2020-09-24 16:39:00,21.53,2020-09-25 02:29:00,26.11,2020-09-24 16:37:00,22.65,2020-09-25 02:15:00,23.57,0.99,1005.3,1.49,3.58,1600884900,43,0.97,5,1600928880,15.265,257.5,22.01,2020-09-25 00:00:00,25.17,2020-09-24 16:39:00,23.05,2020-09-25 00:00:00,26.11,2020-09-24 16:37:00
Bardiya,Rani Jaruwa Nursery,28.42588611,81.33803611,2020-09-24 00:00:00,Rain until afternoon.,rain,2020-09-24 06:10:00,2020-09-24 18:15:00,0.27,0.7921,3.1065,2020-09-24 00:12:00,0.94,rain,26.05,2020-09-24 16:33:00,21.99,2020-09-25 06:21:00,27.71,2020-09-24 16:33:00,23.27,2020-09-25 05:50:00,23.92,1.0,1005.7,1.15,1.62,1600895280,36,0.96,5,1600928820,14.981,257.2,22.18,2020-09-24 08:55:00,26.05,2020-09-24 16:33:00,23.79,2020-09-25 00:00:00,27.71,2020-09-24 16:33:00
Bhaktapur,Bhaktapur,27.63333333,85.43333333,2020-09-24 00:00:00,Rain throughout the day.,rain,2020-09-24 05:54:00,2020-09-24 17:59:00,0.27,1.423,3.6133,2020-09-24 10:10:00,0.84,rain,19.39,2020-09-24 12:39:00,15.99,2020-09-25 06:03:00,21.05,2020-09-24 12:46:00,17.38,2020-09-25 01:05:00,17.18,1.0,1008.7,1.05,2.84,1600925700,49,1.0,6,1600928100,8.54,250.0,15.85,2020-09-24 06:36:00,19.39,2020-09-24 12:39:00,17.5,2020-09-25 00:00:00,21.05,2020-09-24 12:46:00
Bhaktapur,Changu Narayan,27.67668056,85.42396944,2020-09-24 00:00:00,Rain throughout the day.,rain,2020-09-24 05:54:00,2020-09-24 17:59:00,0.27,1.4101,3.5238,2020-09-24 09:54:00,0.84,rain,19.9,2020-09-24 12:21:00,16.55,2020-09-25 06:42:00,21.35,2020-09-24 12:35:00,18.01,2020-09-25 06:39:00,18.25,1.0,1008.9,0.99,2.92,1600925580,59,1.0,6,1600928100,8.818,249.9,16.56,2020-09-24 06:52:00,19.9,2020-09-24 12:21:00,18.1,2020-09-24 06:47:00,21.35,2020-09-24 12:35:00
Bhaktapur,Nagarkot,27.645725,85.4615833,2020-09-24 00:00:00,Rain throughout the day.,rain,2020-09-24 05:54:00,2020-09-24 17:59:00,0.27,1.3692,3.5593,2020-09-24 10:07:00,0.84,rain,19.61,2020-09-24 12:34:00,16.32,2020-09-25 06:33:00,21.17,2020-09-24 12:42:00,17.93,2020-09-25 06:25:00,17.71,1.0,1008.8,1.0,2.81,1600925760,47,1.0,6,1600928100,8.618,249.9,16.17,2020-09-24 06:47:00,19.61,2020-09-24 12:34:00,17.91,2020-09-24 06:41:00,21.17,2020-09-24 12:42:00
Bhaktapur,Sanga,27.71605833,85.42675556,2020-09-24 00:00:00,Rain throughout the day.,rain,2020-09-24 05:54:00,2020-09-24 17:59:00,0.27,1.38,3.4492,2020-09-24 09:47:00,0.84,rain,19.29,2020-09-24 12:12:00,16.06,2020-09-25 06:26:00,20.66,2020-09-24 12:27:00,17.47,2020-09-25 06:20:00,17.58,1.0,1009.0,0.91,2.98,1600925520,67,1.0,6,1600928100,9.047,249.8,16.02,2020-09-24 06:45:00,19.29,2020-09-24 12:12:00,17.52,2020-09-24 06:39:00,20.66,2020-09-24 12:27:00
Bhojpur,Dingla,27.1944798,87.04862659999999,2020-09-24 00:00:00,Possible light rain until afternoon.,rain,2020-09-24 05:48:00,2020-09-24 17:52:00,0.27,0.2372,0.5286,2020-09-24 08:52:00,0.64,rain,19.66,2020-09-24 14:39:00,15.2,2020-09-25 07:21:00,21.79,2020-09-24 14:35:00,17.44,2020-09-25 05:50:00,16.72,1.0,1008.7,0.79,2.32,1600930380,30,1.0,6,1600927500,16.045,250.8,14.84,2020-09-24 06:05:00,19.66,2020-09-24 14:39:00,17.23,2020-09-24 05:52:00,21.79,2020-09-24 14:35:00
Bhojpur,Rampur,27.5282716,87.2177064,2020-09-24 00:00:00,Rain until afternoon.,rain,2020-09-24 05:47:00,2020-09-24 17:52:00,0.27,0.5959,1.0794,2020-09-24 09:08:00,0.68,rain,18.84,2020-09-24 16:59:00,16.13,2020-09-25 06:37:00,20.39,2020-09-24 16:46:00,17.27,2020-09-25 06:17:00,17.23,1.0,1009.7,0.85,1.9,1600957920,1,1.0,6,1600927440,15.972,248.9,15.59,2020-09-24 06:10:00,18.84,2020-09-24 16:59:00,16.72,2020-09-24 05:59:00,20.39,2020-09-24 16:46:00
Chitawan,Bharatpur,27.5909,84.5223,2020-09-24 00:00:00,Heavy rain and humid throughout the day.,rain,2020-09-24 05:58:00,2020-09-24 18:02:00,0.27,3.5272,7.291,2020-09-24 11:26:00,0.99,rain,23.62,2020-09-24 15:44:00,19.74,2020-09-25 06:15:00,24.78,2020-09-24 15:43:00,20.98,2020-09-25 06:14:00,22.35,1.0,1007.5,1.66,5.86,1600948500,15,1.0,5,1600928220,8.85,253.5,20.75,2020-09-24 07:54:00,23.91,2020-09-24 00:00:00,22.33,2020-09-24 07:45:00,24.78,2020-09-24 15:43:00
Chitawan,Bharatpur,27.72113611,84.58525556,2020-09-24 00:00:00,Rain and humid throughout the day.,rain,2020-09-24 05:57:00,2020-09-24 18:02:00,0.27,3.1622,5.5527,2020-09-24 11:33:00,0.98,rain,22.85,2020-09-24 13:37:00,19.19,2020-09-25 06:44:00,24.08,2020-09-24 13:29:00,20.46,2020-09-25 06:41:00,21.46,1.0,1008.2,1.44,4.16,1600948320,19,1.0,5,1600928160,6.923,252.8,19.88,2020-09-24 08:09:00,22.85,2020-09-24 13:37:00,21.42,2020-09-24 07:07:00,24.08,2020-09-24 13:29:00
Chitawan,Jhuwani,27.654025,84.3507944,2020-09-24 00:00:00,Heavy rain and humid throughout the day.,rain,2020-09-24 05:58:00,2020-09-24 18:03:00,0.27,4.0698,7.5488,2020-09-24 00:06:00,0.99,rain,23.58,2020-09-24 15:42:00,19.19,2020-09-25 06:24:00,24.69,2020-09-24 15:42:00,20.37,2020-09-25 06:21:00,21.79,1.0,1007.7,2.12,5.69,1600948500,16,1.0,5,1600928220,7.379,253.3,20.16,2020-09-24 07:59:00,23.58,2020-09-24 15:42:00,21.68,2020-09-24 07:43:00,24.69,2020-09-24 15:42:00
Chitwan,Gobindabasti,27.423171500000002,84.30374090000001,2020-09-24 00:00:00,Heavy rain and humid throughout the day.,rain,2020-09-24 05:59:00,2020-09-24 18:03:00,0.27,4.1583,8.0201,2020-09-24 10:25:00,0.99,rain,22.99,2020-09-24 16:31:00,19.71,2020-09-25 06:19:00,23.97,2020-09-24 16:25:00,20.79,2020-09-25 06:21:00,21.75,0.99,1006.6,3.11,8.83,1600900980,32,1.0,5,1600928280,8.647,254.2,20.45,2020-09-24 08:37:00,22.99,2020-09-24 16:31:00,21.84,2020-09-25 00:00:00,23.97,2020-09-24 16:25:00
Chitwan,Madi Kalyanpur,27.580483299999997,84.2242222,2020-09-24 00:00:00,Heavy rain and humid throughout the day.,rain,2020-09-24 05:59:00,2020-09-24 18:04:00,0.27,4.4613,8.6846,2020-09-24 00:03:00,0.99,rain,23.22,2020-09-24 15:55:00,19.21,2020-09-25 06:00:00,24.19,2020-09-24 15:49:00,20.34,2020-09-25 05:55:00,21.6,1.0,1007.2,2.84,7.0,1600948260,23,1.0,5,1600928280,7.37,253.6,20.17,2020-09-24 08:04:00,23.22,2020-09-24 15:55:00,21.6,2020-09-24 07:51:00,24.19,2020-09-24 15:49:00
Chitwan,Meghauli,27.67303333,84.42227222,2020-09-24 00:00:00,Heavy rain and humid throughout the day.,rain,2020-09-24 05:58:00,2020-09-24 18:03:00,0.27,3.787,6.8855,2020-09-24 11:16:00,0.99,rain,23.61,2020-09-24 15:38:00,19.38,2020-09-25 06:38:00,24.77,2020-09-24 15:39:00,20.61,2020-09-25 06:36:00,21.84,1.0,1007.8,1.85,5.38,1600948500,14,1.0,5,1600928220,7.472,253.3,20.24,2020-09-24 08:18:00,23.61,2020-09-24 15:38:00,21.83,2020-09-24 07:43:00,24.77,2020-09-24 15:39:00
Dadeldhura,Dadeldhura,29.301352,80.58775194,2020-09-24 00:00:00,Rain in the afternoon.,rain,2020-09-24 06:14:00,2020-09-24 18:18:00,0.27,0.3517,1.2269,2020-09-24 13:43:00,0.53,rain,19.31,2020-09-24 11:22:00,15.04,2020-09-25 05:33:00,20.82,2020-09-24 12:08:00,16.71,2020-09-25 05:25:00,17.16,1.0,1007.5,0.82,2.31,1600947660,65,0.57,9,1600928700,14.01,257.4,15.52,2020-09-25 00:00:00,19.31,2020-09-24 11:22:00,17.26,2020-09-25 00:00:00,20.82,2020-09-24 12:08:00
Dadeldhura,Dailekh,29.12785778,80.34740778,2020-09-24 00:00:00,Rain in the morning.,rain,2020-09-24 06:14:00,2020-09-24 18:19:00,0.27,0.351,1.0165,2020-09-24 13:51:00,0.63,rain,27.1,2020-09-24 11:42:00,21.51,2020-09-25 05:05:00,33.15,2020-09-24 11:45:00,22.81,2020-09-25 04:56:00,24.61,1.0,1006.6,0.96,2.29,1600935540,64,0.67,7,1600927920,14.771,259.5,22.9,2020-09-24 05:38:00,27.1,2020-09-24 11:42:00,24.3,2020-09-25 00:00:00,33.15,2020-09-24 11:45:00
Dadeldhura,Sahukharka,29.288393100000004,80.37301500000001,2020-09-24 00:00:00,Foggy in the evening.,rain,2020-09-24 06:14:00,2020-09-24 18:19:00,0.27,0.2903,0.9554,2020-09-24 13:49:00,0.54,rain,22.44,2020-09-24 11:36:00,16.99,2020-09-25 05:40:00,23.77,2020-09-24 11:44:00,18.5,2020-09-25 01:37:00,19.23,1.0,1007.1,0.83,2.33,1600945980,89,0.65,9,1600927980,12.462,259.0,17.12,2020-09-25 00:00:00,22.44,2020-09-24 11:36:00,18.71,2020-09-25 00:00:00,23.77,2020-09-24 11:44:00
Dailekh,Bale Budha (Tallo Dhungeshwor),28.83811111,81.70848333,2020-09-24 00:00:00,Rain overnight and in the morning.,rain,2020-09-24 06:09:00,2020-09-24 18:14:00,0.27,1.1134,3.9532,2020-09-24 01:52:00,0.79,rain,21.95,2020-09-24 16:15:00,16.9,2020-09-25 05:45:00,23.91,2020-09-24 16:37:00,17.96,2020-09-25 05:42:00,19.72,1.0,1007.4,0.76,1.49,1600928700,31,0.93,6,1600930560,14.17,252.9,17.07,2020-09-24 07:09:00,21.95,2020-09-24 16:15:00,18.93,2020-09-24 06:47:00,23.91,2020-09-24 16:37:00
Dailekh,Katti,28.92202778,81.62608333,2020-09-24 00:00:00,Rain overnight and in the morning.,rain,2020-09-24 06:09:00,2020-09-24 18:14:00,0.27,1.0782,2.8443,2020-09-24 01:48:00,0.8,rain,22.18,2020-09-24 15:15:00,16.51,2020-09-25 05:37:00,23.74,2020-09-24 15:26:00,17.47,2020-09-25 05:35:00,19.11,1.0,1007.6,0.91,1.53,1600899840,25,0.89,6,1600932840,14.472,253.2,16.67,2020-09-24 07:01:00,22.18,2020-09-24 15:15:00,18.51,2020-09-24 06:38:00,23.74,2020-09-24 15:26:00
Dailekh,Nayabasti (Dang),28.78022222,81.82144444,2020-09-24 00:00:00,Rain until afternoon.,rain,2020-09-24 06:09:00,2020-09-24 18:13:00,0.27,1.0133,3.8319,2020-09-24 02:07:00,0.78,rain,22.79,2020-09-24 16:55:00,17.87,2020-09-25 05:49:00,24.8,2020-09-24 16:51:00,18.91,2020-09-25 05:34:00,20.38,1.0,1007.3,0.63,1.62,1600927680,46,0.95,5,1600928940,14.289,252.4,17.77,2020-09-24 07:01:00,22.79,2020-09-24 16:55:00,19.47,2020-09-24 06:45:00,24.8,2020-09-24 16:51:00
Dailekh,Ranimatta,28.90711111,81.75019167,2020-09-24 00:00:00,Rain overnight and in the morning.,rain,2020-09-24 06:09:00,2020-09-24 18:14:00,0.27,1.1702,3.8442,2020-09-24 01:52:00,0.76,rain,20.63,2020-09-24 15:03:00,15.25,2020-09-25 05:35:00,22.92,2020-09-24 15:23:00,16.51,2020-09-25 05:29:00,17.64,1.0,1007.6,0.85,1.6,1600929420,32,0.92,6,1600932060,12.573,251.9,15.18,2020-09-24 07:06:00,20.63,2020-09-24 15:03:00,17.48,2020-09-24 06:06:00,22.92,2020-09-24 15:23:00
Dang,Ghorahi (Masina),28.13174722,82.30278333,2020-09-24 00:00:00,Rain and humid throughout the day.,rain,2020-09-24 06:07:00,2020-09-24 18:11:00,0.27,1.4946,3.6494,2020-09-24 05:40:00,0.86,rain,23.52,2020-09-24 17:29:00,20.6,2020-09-25 05:37:00,24.79,2020-09-24 17:03:00,21.79,2020-09-25 05:20:00,22.27,1.0,1006.1,1.01,2.2,1600884900,66,1.0,5,1600928760,11.895,252.3,20.67,2020-09-24 07:37:00,23.52,2020-09-24 17:29:00,22.28,2020-09-24 07:31:00,24.79,2020-09-24 17:03:00
Dang,Ghorai (Dang),27.69233306,82.52512694,2020-09-24 00:00:00,Heavy rain and humid throughout the day.,rain,2020-09-24 06:06:00,2020-09-24 18:10:00,0.27,4.1919,8.0975,2020-09-24 03:00:00,0.99,rain,23.14,2020-09-24 16:48:00,21.78,2020-09-25 00:18:00,24.3,2020-09-24 16:43:00,22.83,2020-09-25 00:28:00,22.44,1.0,1005.0,2.86,9.44,1600893480,63,1.0,5,1600928700,6.916,254.0,21.73,2020-09-24 08:45:00,23.48,2020-09-24 00:00:00,22.85,2020-09-25 00:00:00,24.3,2020-09-24 16:43:00
Dang,Koilabas,28.05,82.5,2020-09-24 00:00:00,Rain and humid throughout the day.,rain,2020-09-24 06:06:00,2020-09-24 18:11:00,0.27,2.0626,4.2137,2020-09-24 05:50:00,0.89,rain,23.34,2020-09-24 13:40:00,20.73,2020-09-25 06:23:00,24.67,2020-09-24 13:29:00,22.0,2020-09-25 04:58:00,22.03,1.0,1006.1,1.22,2.73,1600893900,64,1.0,5,1600928700,10.228,252.1,20.39,2020-09-24 07:45:00,23.34,2020-09-24 13:40:00,22.04,2020-09-24 07:35:00,24.67,2020-09-24 13:29:00
Dang,Lalmatiya,27.87055556,82.53666667,2020-09-24 00:00:00,Rain and humid throughout the day.,rain,2020-09-24 06:06:00,2020-09-24 18:10:00,0.27,3.0904,5.6854,2020-09-24 04:51:00,0.97,rain,24.05,2020-09-24 15:47:00,21.96,2020-09-25 05:35:00,25.29,2020-09-24 15:45:00,23.21,2020-09-25 05:23:00,23.07,1.0,1005.6,1.84,5.38,1600893660,59,1.0,5,1600928700,9.432,253.1,21.78,2020-09-24 07:47:00,24.52,2020-09-24 00:00:00,23.37,2020-09-24 07:36:00,25.34,2020-09-24 00:00:00
Dang,Lamahi,27.88486889,82.33509611,2020-09-24 00:00:00,Rain and humid throughout the day.,rain,2020-09-24 06:06:00,2020-09-24 18:11:00,0.27,2.6577,5.2801,2020-09-24 04:51:00,0.96,rain,24.47,2020-09-24 17:41:00,22.56,2020-09-25 05:42:00,25.61,2020-09-24 17:28:00,23.89,2020-09-25 05:27:00,23.44,1.0,1005.3,1.85,6.41,1600895280,70,1.0,5,1600928760,9.878,253.7,22.41,2020-09-24 08:00:00,24.77,2020-09-24 00:00:00,24.03,2020-09-24 07:31:00,25.62,2020-09-24 00:00:00
Dang,Padhampur,28.03719889,82.484156,2020-09-24 00:00:00,Rain and humid throughout the day.,rain,2020-09-24 06:06:00,2020-09-24 18:11:00,0.27,2.0752,4.2076,2020-09-24 05:49:00,0.89,rain,23.32,2020-09-24 13:41:00,20.79,2020-09-25 06:28:00,24.62,2020-09-24 13:29:00,22.12,2020-09-25 06:19:00,22.03,1.0,1006.1,1.23,2.72,1600893240,64,1.0,5,1600928700,10.169,252.3,20.39,2020-09-24 07:50:00,23.32,2020-09-24 13:41:00,22.03,2020-09-24 07:42:00,24.62,2020-09-24 13:29:00
Dang,Tulsipur,28.201323,82.1393939,2020-09-24 00:00:00,Rain until afternoon.,rain,2020-09-24 06:07:00,2020-09-24 18:12:00,0.27,1.133,2.8189,2020-09-24 05:26:00,0.85,rain,23.19,2020-09-24 18:23:00,20.19,2020-09-25 06:21:00,24.67,2020-09-24 16:49:00,21.52,2020-09-25 06:15:00,22.06,1.0,1006.1,0.91,2.1,1600927560,52,0.99,5,1600928760,13.578,252.7,20.35,2020-09-24 07:49:00,23.19,2020-09-24 18:23:00,22.08,2020-09-24 07:42:00,24.67,2020-09-24 16:49:00
Darchula,Darchula New,29.666666999999997,80.55,2020-09-24 00:15:00,Humid and partly cloudy throughout the day.,rain,2020-09-24 06:14:00,2020-09-24 18:18:00,0.27,0.1799,0.4268,2020-09-24 00:15:00,0.4,rain,26.78,2020-09-24 12:26:00,17.7,2020-09-25 05:25:00,28.49,2020-09-24 12:32:00,18.2,2020-09-25 05:25:00,20.86,0.95,1007.9,0.87,1.96,1600929360,164,0.28,9,1600928760,16.069,258.8,17.85,2020-09-24 05:45:00,26.78,2020-09-24 12:26:00,18.77,2020-09-24 05:45:00,28.49,2020-09-24 12:32:00
Darchula,Dhaulatiya (Dallekhdhar),29.78255194,80.82215806,2020-09-24 00:00:00,Partly cloudy throughout the day.,partly-cloudy-day,2020-09-24 06:13:00,2020-09-24 18:17:00,0.27,0.2383,1.0199,2020-09-24 12:29:00,0.22,rain,20.94,2020-09-24 12:03:00,13.04,2020-09-25 01:20:00,21.84,2020-09-24 12:36:00,13.3,2020-09-25 01:13:00,16.15,0.99,1008.2,1.09,2.52,1600928040,50,0.39,9,1600928280,15.136,254.8,12.6,2020-09-24 05:45:00,20.94,2020-09-24 12:03:00,12.87,2020-09-24 05:44:00,21.84,2020-09-24 12:36:00
Darchula,Gokuleshwar,29.84287806,80.53884806,2020-09-24 00:15:00,Humid and partly cloudy throughout the day.,partly-cloudy-day,2020-09-24 06:14:00,2020-09-24 18:18:00,0.27,0.1175,0.2896,2020-09-24 17:12:00,0.27,rain,26.5,2020-09-24 12:39:00,16.74,2020-09-25 05:28:00,27.76,2020-09-24 12:45:00,17.01,2020-09-25 05:28:00,19.07,0.92,1007.9,1.0,2.24,1600928520,189,0.29,9,1600927680,15.794,258.0,16.37,2020-09-24 05:45:00,26.5,2020-09-24 12:39:00,16.91,2020-09-24 05:44:00,27.76,2020-09-24 12:45:00
Darchula,Lumpthi,29.84496194,80.54539389,2020-09-24 00:15:00,Humid and partly cloudy throughout the day.,partly-cloudy-day,2020-09-24 06:14:00,2020-09-24 18:18:00,0.27,0.1183,0.2843,2020-09-24 17:00:00,0.27,rain,26.34,2020-09-24 12:38:00,16.61,2020-09-25 05:30:00,26.65,2020-09-24 12:43:00,16.88,2020-09-25 05:30:00,18.99,0.93,1007.9,1.01,2.24,1600928460,188,0.3,9,1600927680,15.759,257.9,16.25,2020-09-24 05:46:00,26.34,2020-09-24 12:38:00,16.77,2020-09-24 05:45:00,26.65,2020-09-24 12:43:00
Dhading,Dhading,28.05,84.82,2020-09-24 00:00:00,Rain throughout the day.,rain,2020-09-24 05:57:00,2020-09-24 18:01:00,0.27,2.4073,3.4485,2020-09-24 14:25:00,0.88,rain,21.04,2020-09-24 11:51:00,18.14,2020-09-25 06:33:00,22.29,2020-09-24 16:54:00,19.23,2020-09-25 06:30:00,19.69,1.0,1009.6,0.91,2.36,1600936800,37,1.0,5,1600928100,5.907,250.3,17.83,2020-09-24 06:47:00,21.04,2020-09-24 11:51:00,19.26,2020-09-24 06:43:00,22.29,2020-09-24 16:54:00
Dhading,Dhunibesi,27.912505600000003,84.8961333,2020-09-24 00:00:00,Rain throughout the day.,rain,2020-09-24 05:56:00,2020-09-24 18:01:00,0.27,2.1383,3.8275,2020-09-24 14:32:00,0.91,rain,22.48,2020-09-24 11:53:00,19.21,2020-09-25 06:42:00,23.72,2020-09-24 11:59:00,20.52,2020-09-25 06:39:00,21.13,1.0,1009.1,0.82,2.44,1600937280,34,1.0,5,1600928100,5.837,251.0,19.23,2020-09-24 06:59:00,22.48,2020-09-24 11:53:00,20.9,2020-09-24 06:54:00,23.72,2020-09-24 11:59:00
Dhading,Gajuri,27.8053359,84.7055012,2020-09-24 00:00:00,Rain throughout the day.,rain,2020-09-24 05:57:00,2020-09-24 18:02:00,0.27,2.6724,3.8766,2020-09-24 12:09:00,0.94,rain,22.27,2020-09-24 12:04:00,19.03,2020-09-25 06:36:00,23.47,2020-09-24 17:15:00,20.24,2020-09-25 06:32:00,21.36,1.0,1008.6,1.15,2.81,1600944720,30,1.0,5,1600928100,5.968,252.0,19.64,2020-09-24 07:05:00,22.52,2020-09-24 00:00:00,21.08,2020-09-24 06:57:00,23.47,2020-09-24 17:15:00
Dhading,Majhimtar,27.72311667,85.1642,2020-09-24 00:00:00,Rain throughout the day.,rain,2020-09-24 05:55:00,2020-09-24 18:00:00,0.27,1.8852,3.6569,2020-09-24 09:27:00,0.89,rain,21.65,2020-09-24 11:56:00,17.99,2020-09-25 06:48:00,23.01,2020-09-24 12:00:00,19.47,2020-09-25 06:42:00,19.97,1.0,1008.7,1.02,3.45,1600924860,76,1.0,5,1600928100,6.97,250.2,18.11,2020-09-24 06:53:00,21.65,2020-09-24 11:56:00,19.72,2020-09-24 06:47:00,23.01,2020-09-24 12:00:00
Dhading,Pakhribas,27.802707399999996,84.8797782,2020-09-24 00:00:00,Rain and humid throughout the day.,rain,2020-09-24 05:56:00,2020-09-24 18:01:00,0.27,2.3921,3.9757,2020-09-24 14:15:00,0.92,rain,22.97,2020-09-24 11:55:00,19.24,2020-09-25 06:41:00,24.12,2020-09-24 12:04:00,20.59,2020-09-25 06:38:00,21.56,1.0,1008.8,0.97,2.76,1600937880,35,1.0,5,1600928100,5.692,251.2,19.52,2020-09-24 06:59:00,22.97,2020-09-24 11:55:00,21.08,2020-09-24 06:53:00,24.12,2020-09-24 12:04:00
Dhankuta,Barahkshetra,26.91424278,87.15986,2020-09-24 00:00:00,Possible light rain overnight and in the morning.,rain,2020-09-24 05:47:00,2020-09-24 17:52:00,0.27,0.3121,1.3594,2020-09-24 00:00:00,0.84,rain,27.67,2020-09-24 14:46:00,21.33,2020-09-25 07:42:00,34.47,2020-09-24 15:21:00,22.87,2020-09-25 07:31:00,24.15,1.0,1007.9,1.22,2.67,1600938780,30,0.99,5,1600927920,16.093,253.1,21.36,2020-09-24 06:58:00,27.67,2020-09-24 14:46:00,22.85,2020-09-24 06:48:00,34.47,2020-09-24 15:21:00
Dhankuta,Dhankuta,27.0500025,87.24444444,2020-09-24 00:00:00,Possible light rain overnight and in the morning.,rain,2020-09-24 05:47:00,2020-09-24 17:52:00,0.27,0.2867,1.0778,2020-09-24 00:49:00,0.78,rain,21.29,2020-09-24 13:49:00,16.03,2020-09-25 06:43:00,22.74,2020-09-24 13:47:00,17.92,2020-09-25 06:35:00,18.12,1.0,1008.4,1.02,3.43,1600936440,6,1.0,6,1600927500,16.093,252.3,16.1,2020-09-24 06:39:00,21.29,2020-09-24 13:49:00,17.96,2020-09-24 06:31:00,22.74,2020-09-24 13:47:00
Dhankuta,Dhankuta,26.93805556,87.15472222,2020-09-24 00:00:00,Possible light rain overnight and in the morning.,rain,2020-09-24 05:47:00,2020-09-24 17:52:00,0.27,0.2958,1.2245,2020-09-24 00:00:00,0.82,rain,27.51,2020-09-24 14:19:00,21.12,2020-09-25 07:39:00,34.04,2020-09-24 15:21:00,22.64,2020-09-25 07:28:00,23.99,1.0,1008.0,1.21,2.86,1600938120,26,0.99,5,1600927800,16.093,252.9,21.17,2020-09-24 06:57:00,27.51,2020-09-24 14:19:00,22.65,2020-09-24 06:47:00,34.04,2020-09-24 15:21:00
Dhankuta,Leguwa Ghat,27.04633889,87.2925,2020-09-24 00:00:00,Possible light rain overnight and in the morning.,rain,2020-09-24 05:47:00,2020-09-24 17:51:00,0.27,0.3548,1.3373,2020-09-24 02:05:00,0.79,rain,20.28,2020-09-24 14:01:00,15.24,2020-09-25 06:39:00,22.03,2020-09-24 14:01:00,17.45,2020-09-25 06:13:00,17.3,1.0,1008.5,0.99,3.19,1600936560,9,1.0,6,1600927500,16.093,252.2,15.22,2020-09-24 06:27:00,20.28,2020-09-24 14:01:00,17.39,2020-09-24 06:09:00,22.03,2020-09-24 14:01:00
Dhankuta,Muga,27.15338889,87.28919444,2020-09-24 00:00:00,Rain overnight and in the morning.,rain,2020-09-24 05:47:00,2020-09-24 17:51:00,0.27,0.3246,0.7498,2020-09-24 00:22:00,0.78,rain,25.63,2020-09-24 15:13:00,19.46,2020-09-25 06:50:00,26.59,2020-09-24 15:20:00,20.77,2020-09-25 06:43:00,22.08,1.0,1008.8,0.71,2.42,1600936080,3,1.0,5,1600927440,16.093,251.9,19.43,2020-09-24 06:42:00,25.63,2020-09-24 15:13:00,20.73,2020-09-24 06:37:00,26.59,2020-09-24 15:20:00
Dhankuta,Mul Ghat,26.98321944,87.34595556,2020-09-24 00:00:00,Rain overnight and in the morning.,rain,2020-09-24 05:46:00,2020-09-24 17:51:00,0.27,0.461,2.1028,2020-09-24 02:23:00,0.82,rain,22.73,2020-09-24 14:02:00,17.5,2020-09-25 07:35:00,24.12,2020-09-24 13:59:00,19.42,2020-09-25 07:18:00,19.4,1.0,1008.3,1.07,3.0,1600937160,18,1.0,6,1600927620,16.093,252.3,17.6,2020-09-24 07:30:00,22.73,2020-09-24 14:02:00,19.21,2020-09-24 01:53:00,24.12,2020-09-24 13:59:00
Dhankuta,Mul Ghat,26.98321944,87.34595556,2020-09-24 00:00:00,Rain overnight and in the morning.,rain,2020-09-24 05:46:00,2020-09-24 17:51:00,0.27,0.461,2.1028,2020-09-24 02:23:00,0.82,rain,22.73,2020-09-24 14:02:00,17.5,2020-09-25 07:35:00,24.12,2020-09-24 13:59:00,19.42,2020-09-25 07:18:00,19.4,1.0,1008.3,1.07,3.0,1600937160,18,1.0,6,1600927620,16.093,252.3,17.6,2020-09-24 07:30:00,22.73,2020-09-24 14:02:00,19.21,2020-09-24 01:53:00,24.12,2020-09-24 13:59:00
Dhanusa,Chisapani Bazar,27.01295556,85.92089722,2020-09-24 00:00:00,Rain until afternoon.,rain,2020-09-24 05:52:00,2020-09-24 17:57:00,0.27,0.5568,1.6756,2020-09-24 11:27:00,0.9,rain,24.93,2020-09-24 18:29:00,22.1,2020-09-25 06:42:00,25.97,2020-09-24 16:53:00,23.4,2020-09-25 06:33:00,23.33,0.99,1006.8,1.74,4.71,1600937580,52,1.0,5,1600927920,14.776,254.4,22.07,2020-09-24 08:40:00,24.93,2020-09-24 18:29:00,23.63,2020-09-24 08:27:00,25.97,2020-09-24 16:53:00
Dhanusa,Janakpur Airport,26.8,85.9833333,2020-09-24 00:00:00,Rain and humid throughout the day.,rain,2020-09-24 05:52:00,2020-09-24 17:57:00,0.27,0.447,1.1988,2020-09-24 11:09:00,0.94,rain,25.72,2020-09-24 17:16:00,22.97,2020-09-25 07:00:00,26.64,2020-09-24 17:36:00,24.3,2020-09-25 06:54:00,23.9,0.98,1006.2,2.87,7.59,1600884900,75,1.0,5,1600927920,14.252,254.8,23.05,2020-09-24 09:14:00,25.72,2020-09-24 17:16:00,24.53,2020-09-24 06:56:00,26.64,2020-09-24 17:36:00
Dhanusa,Tulsi,26.71666667,85.96666667,2020-09-24 00:00:00,Rain and humid throughout the day.,rain,2020-09-24 05:52:00,2020-09-24 17:57:00,0.27,0.4324,1.0806,2020-09-24 11:20:00,0.95,rain,25.74,2020-09-24 17:17:00,23.02,2020-09-25 07:03:00,26.65,2020-09-24 17:18:00,24.38,2020-09-25 06:57:00,23.97,0.97,1006.0,3.46,9.72,1600884900,79,1.0,5,1600927920,14.129,254.9,23.18,2020-09-24 06:58:00,25.74,2020-09-24 17:17:00,24.57,2020-09-24 06:50:00,26.65,2020-09-24 17:18:00
Dolakha,Charikot,27.67633111,86.10399389,2020-09-24 00:00:00,Rain in the morning and afternoon.,rain,2020-09-24 05:51:00,2020-09-24 17:56:00,0.27,0.6398,1.7806,2020-09-24 13:00:00,0.71,rain,22.33,2020-09-24 15:01:00,17.66,2020-09-25 01:07:00,23.97,2020-09-24 15:00:00,18.7,2020-09-25 01:29:00,19.02,1.0,1009.1,0.69,1.81,1600960020,43,1.0,6,1600927920,15.053,248.2,17.19,2020-09-24 06:05:00,22.33,2020-09-24 15:01:00,18.58,2020-09-24 05:45:00,23.97,2020-09-24 15:00:00
Dolakha,Dunai,27.63333333,86.13333333,2020-09-24 00:00:00,Rain in the morning and afternoon.,rain,2020-09-24 05:51:00,2020-09-24 17:56:00,0.27,0.6028,1.6844,2020-09-24 12:57:00,0.69,rain,20.31,2020-09-24 15:03:00,15.67,2020-09-25 06:12:00,22.42,2020-09-24 15:01:00,17.36,2020-09-25 05:48:00,17.52,1.0,1009.0,0.69,1.74,1600959240,49,1.0,6,1600927920,15.101,248.4,15.07,2020-09-24 06:34:00,20.31,2020-09-24 15:03:00,17.14,2020-09-24 06:08:00,22.42,2020-09-24 15:01:00
Dolakha,Jiri,27.6666667,86.05,2020-09-24 00:00:00,Rain throughout the day.,rain,2020-09-24 05:52:00,2020-09-24 17:56:00,0.27,0.6689,1.8789,2020-09-24 12:36:00,0.72,rain,19.29,2020-09-24 14:53:00,14.91,2020-09-25 03:47:00,21.97,2020-09-24 14:44:00,17.03,2020-09-25 03:42:00,16.27,1.0,1009.0,0.72,1.87,1600959900,34,1.0,6,1600927920,14.554,248.6,14.4,2020-09-24 06:20:00,19.29,2020-09-24 14:53:00,17.13,2020-09-24 05:44:00,21.97,2020-09-24 14:44:00
Dolakha,Nagdaha,27.616666700000003,86.35,2020-09-24 00:00:00,Rain in the morning and afternoon.,rain,2020-09-24 05:50:00,2020-09-24 17:55:00,0.27,0.592,1.5684,2020-09-24 13:29:00,0.63,rain,13.5,2020-09-24 14:20:00,10.84,2020-09-25 06:18:00,17.95,2020-09-24 13:53:00,13.4,2020-09-25 05:33:00,11.74,1.0,1009.1,0.78,1.44,1600959780,62,1.0,6,1600927860,15.22,246.7,10.0,2020-09-24 06:36:00,13.5,2020-09-24 14:20:00,13.3,2020-09-24 03:47:00,17.95,2020-09-24 13:53:00
Dolpa,Kaigaun,29.03154722,82.76287778,2020-09-24 00:00:00,Overcast throughout the day.,rain,2020-09-24 06:05:00,2020-09-24 18:09:00,0.27,0.6883,1.9896,2020-09-24 14:31:00,0.57,rain,11.74,2020-09-24 11:42:00,8.59,2020-09-24 23:51:00,13.4,2020-09-24 11:50:00,9.44,2020-09-25 05:20:00,9.42,1.0,1009.7,1.09,3.26,1600938600,66,1.0,6,1600928640,13.226,245.5,8.18,2020-09-24 05:11:00,11.74,2020-09-24 11:42:00,8.57,2020-09-24 15:14:00,13.4,2020-09-24 11:50:00
Dolpa,Silgadhi Doti,28.98363333,82.82074444,2020-09-24 00:00:00,Foggy in the morning.,rain,2020-09-24 06:05:00,2020-09-24 18:09:00,0.27,0.7808,2.1362,2020-09-24 14:32:00,0.57,rain,11.83,2020-09-24 11:45:00,8.57,2020-09-24 23:57:00,13.67,2020-09-24 11:52:00,9.63,2020-09-25 05:24:00,9.42,1.0,1009.7,1.13,3.34,1600939140,72,1.0,6,1600928580,12.79,245.4,8.16,2020-09-24 05:04:00,11.83,2020-09-24 11:45:00,8.37,2020-09-24 15:14:00,13.67,2020-09-24 11:52:00
Doti,Dipayal (Doti),29.12015194,80.70944778,2020-09-24 00:00:00,Rain in the morning and afternoon.,rain,2020-09-24 06:13:00,2020-09-24 18:18:00,0.27,0.5678,1.7255,2020-09-24 13:38:00,0.64,rain,20.55,2020-09-24 13:41:00,16.61,2020-09-25 05:41:00,22.18,2020-09-24 13:48:00,18.0,2020-09-25 05:36:00,18.76,1.0,1007.2,0.88,2.01,1600948440,17,0.68,8,1600929180,13.373,256.6,17.26,2020-09-24 06:36:00,20.55,2020-09-24 13:41:00,18.83,2020-09-24 06:33:00,22.18,2020-09-24 13:48:00
Doti,Dumrakot,29.16385278,80.600738,2020-09-24 00:00:00,Rain in the afternoon.,rain,2020-09-24 06:13:00,2020-09-24 18:18:00,0.27,0.4559,1.4845,2020-09-24 13:41:00,0.6,rain,18.51,2020-09-24 11:27:00,14.66,2020-09-25 05:46:00,20.42,2020-09-24 11:50:00,16.56,2020-09-25 05:42:00,16.8,1.0,1007.2,0.87,2.05,1600929120,36,0.67,8,1600928400,13.581,257.3,15.55,2020-09-24 06:05:00,18.51,2020-09-24 11:27:00,17.62,2020-09-24 06:10:00,20.42,2020-09-24 11:50:00
Doti,Gaira,29.34106083,81.045105,2020-09-24 00:00:00,Rain in the morning and afternoon.,rain,2020-09-24 06:12:00,2020-09-24 18:16:00,0.27,0.6169,1.8074,2020-09-24 11:31:00,0.54,rain,18.59,2020-09-24 13:52:00,12.57,2020-09-25 05:38:00,21.02,2020-09-24 13:55:00,13.99,2020-09-25 05:32:00,14.86,1.0,1008.1,0.85,2.1,1600933620,20,0.48,8,1600932060,16.093,255.8,13.05,2020-09-24 06:41:00,18.59,2020-09-24 13:52:00,14.35,2020-09-24 04:57:00,21.02,2020-09-24 13:55:00
Doti,Jhingrana,29.26209694,80.93690083,2020-09-24 00:00:00,Rain in the morning and afternoon.,rain,2020-09-24 06:12:00,2020-09-24 18:17:00,0.27,0.5979,1.66,2020-09-24 11:46:00,0.56,rain,24.12,2020-09-24 13:58:00,17.67,2020-09-25 05:44:00,25.32,2020-09-24 15:36:00,18.52,2020-09-25 05:42:00,20.82,1.0,1007.9,0.79,1.84,1600937280,351,0.48,7,1600931880,16.093,256.2,18.47,2020-09-24 06:45:00,24.12,2020-09-24 13:58:00,19.37,2020-09-24 06:39:00,25.32,2020-09-24 15:36:00
Doti,Khaptad,29.0,81.13333333,2020-09-24 00:00:00,Rain until afternoon.,rain,2020-09-24 06:11:00,2020-09-24 18:16:00,0.27,0.9534,2.3636,2020-09-24 11:00:00,0.78,rain,23.3,2020-09-24 14:48:00,17.53,2020-09-25 05:32:00,24.58,2020-09-24 14:49:00,18.98,2020-09-25 05:24:00,19.59,1.0,1007.5,0.93,2.15,1600928880,359,0.7,7,1600932720,15.15,255.8,17.64,2020-09-24 09:05:00,23.3,2020-09-24 14:48:00,19.84,2020-09-24 06:55:00,24.58,2020-09-24 14:49:00
Doti,Kola Gaun,29.38804889,81.14630111,2020-09-24 00:00:00,Rain in the morning and afternoon.,rain,2020-09-24 06:11:00,2020-09-24 18:16:00,0.27,0.6397,1.8838,2020-09-24 10:57:00,0.55,rain,15.77,2020-09-24 14:00:00,9.61,2020-09-25 05:35:00,19.51,2020-09-24 14:15:00,9.71,2020-09-25 05:43:00,12.66,1.0,1008.3,0.92,2.36,1600931880,47,0.49,9,1600931580,15.898,255.2,10.67,2020-09-24 05:51:00,15.77,2020-09-24 14:00:00,12.23,2020-09-24 05:40:00,19.51,2020-09-24 14:15:00
Gorkha,Barpak,28.2,84.73333333,2020-09-23 21:45:00,Rain throughout the day.,rain,2020-09-24 05:57:00,2020-09-24 18:02:00,0.27,3.8154,5.6045,2020-09-24 11:25:00,0.77,rain,17.63,2020-09-24 11:49:00,14.48,2020-09-25 05:45:00,19.92,2020-09-24 11:57:00,17.02,2020-09-25 05:41:00,15.78,1.0,1010.1,1.51,3.92,1600930920,28,1.0,6,1600928100,6.312,248.1,14.23,2020-09-24 06:44:00,17.63,2020-09-24 11:49:00,17.27,2020-09-24 06:26:00,19.92,2020-09-24 11:57:00
Gorkha,Chhekampar,27.97138889,84.58944444,2020-09-24 00:00:00,Rain throughout the day.,rain,2020-09-24 05:57:00,2020-09-24 18:02:00,0.27,2.6708,3.9238,2020-09-24 03:01:00,0.94,rain,21.65,2020-09-24 15:50:00,18.07,2020-09-25 06:42:00,22.73,2020-09-24 15:49:00,19.11,2020-09-25 06:39:00,20.12,1.0,1009.1,0.8,2.04,1600906500,25,1.0,5,1600928160,5.907,252.0,18.41,2020-09-24 07:10:00,21.65,2020-09-24 15:50:00,19.77,2020-09-24 06:59:00,22.73,2020-09-24 15:49:00
Gorkha,Chumchet,28.48333333,85.0,2020-09-23 21:45:00,Foggy throughout the day.,rain,2020-09-24 05:56:00,2020-09-24 18:01:00,0.27,2.0196,2.9966,2020-09-24 11:58:00,0.64,rain,5.04,2020-09-24 04:45:00,4.41,2020-09-24 16:45:00,11.04,2020-09-24 04:45:00,3.7,2020-09-24 16:53:00,4.65,1.0,1011.0,1.05,2.53,1600948560,38,1.0,6,1600928160,1.153,242.9,3.22,2020-09-24 11:33:00,6.12,2020-09-23 21:45:00,3.49,2020-09-24 11:33:00,12.22,2020-09-23 21:45:00
Gorkha,Gorkha,28.66666667,84.61666667,2020-09-23 21:45:00,Foggy throughout the day.,rain,2020-09-24 05:57:00,2020-09-24 18:02:00,0.27,1.5328,2.2299,2020-09-24 11:40:00,0.61,rain,2.56,2020-09-24 16:45:00,1.35,2020-09-25 05:45:00,2.28,2020-09-24 16:45:00,1.62,2020-09-25 05:45:00,1.63,1.0,1010.8,0.97,2.0,1600896180,143,1.0,7,1600928280,0.195,242.2,0.31,2020-09-24 06:46:00,2.92,2020-09-24 18:01:00,0.58,2020-09-24 06:46:00,2.64,2020-09-24 18:01:00
Gorkha,Laprak,28.2,84.75,2020-09-23 21:45:00,Rain throughout the day.,rain,2020-09-24 05:57:00,2020-09-24 18:02:00,0.27,3.8855,5.7258,2020-09-24 11:24:00,0.76,rain,15.87,2020-09-24 11:56:00,12.39,2020-09-25 05:45:00,19.52,2020-09-24 13:04:00,15.88,2020-09-25 05:33:00,13.94,1.0,1010.1,1.54,4.09,1600931100,28,1.0,6,1600928100,6.305,248.0,12.28,2020-09-24 06:33:00,15.87,2020-09-24 11:56:00,16.47,2020-09-24 05:42:00,19.52,2020-09-24 13:04:00
Gorkha,Sama Gaun,28.42693611,84.90264444,2020-09-23 21:45:00,Rain in the morning.,rain,2020-09-24 05:56:00,2020-09-24 18:01:00,0.27,2.6151,3.7305,2020-09-24 11:45:00,0.66,rain,8.64,2020-09-24 04:45:00,7.95,2020-09-24 16:45:00,13.02,2020-09-24 14:23:00,7.63,2020-09-24 16:45:00,8.41,1.0,1010.9,1.12,2.49,1600948080,27,1.0,6,1600928160,1.967,243.7,7.71,2020-09-24 06:45:00,9.39,2020-09-23 21:45:00,7.27,2020-09-24 16:05:00,13.02,2020-09-24 14:23:00
Gulmi,Darma,27.9365,83.33811667,2020-09-24 00:00:00,Heavy rain throughout the day.,rain,2020-09-24 06:02:00,2020-09-24 18:07:00,0.27,4.3071,6.3783,2020-09-24 04:00:00,0.96,rain,19.82,2020-09-24 12:58:00,16.67,2020-09-25 05:42:00,21.13,2020-09-24 13:01:00,17.72,2020-09-25 01:35:00,18.11,1.0,1007.5,1.73,3.47,1600905660,28,1.0,5,1600928460,6.037,251.0,16.86,2020-09-24 06:59:00,19.82,2020-09-24 12:58:00,17.92,2020-09-25 00:00:00,21.13,2020-09-24 13:01:00
Gulmi,Musikot,27.93856667,83.44315278,2020-09-24 00:00:00,Heavy rain throughout the day.,rain,2020-09-24 06:02:00,2020-09-24 18:07:00,0.27,4.6133,6.8297,2020-09-24 03:52:00,0.96,rain,21.56,2020-09-24 12:58:00,17.63,2020-09-25 05:26:00,22.69,2020-09-24 12:57:00,18.57,2020-09-25 05:16:00,19.89,1.0,1007.7,1.69,3.42,1600905420,23,1.0,5,1600928460,5.502,250.9,18.24,2020-09-24 07:24:00,21.56,2020-09-24 12:58:00,19.67,2020-09-24 07:08:00,22.69,2020-09-24 12:57:00
Gulmi,Tamghas,28.16998056,83.26802778,2020-09-24 00:00:00,Rain throughout the day.,rain,2020-09-24 06:03:00,2020-09-24 18:07:00,0.27,2.8409,4.571,2020-09-24 03:53:00,0.91,rain,17.18,2020-09-24 12:03:00,13.55,2020-09-25 05:21:00,18.28,2020-09-24 12:11:00,14.49,2020-09-25 05:15:00,15.21,1.0,1008.6,1.49,3.17,1600914900,29,1.0,6,1600928520,8.119,249.7,13.64,2020-09-24 06:49:00,17.18,2020-09-24 12:03:00,14.97,2020-09-24 06:26:00,18.28,2020-09-24 12:11:00
Humla,Simikot,29.73056889,82.07185,2020-09-24 00:00:00,Mostly cloudy throughout the day.,rain,2020-09-24 06:08:00,2020-09-24 18:12:00,0.27,1.0313,1.9779,2020-09-24 02:47:00,0.63,rain,16.55,2020-09-24 14:00:00,10.6,2020-09-25 05:22:00,17.97,2020-09-24 14:28:00,10.96,2020-09-25 05:21:00,13.18,1.0,1009.9,0.85,2.48,1600938360,102,0.8,6,1600932240,11.298,249.9,10.86,2020-09-24 05:57:00,16.55,2020-09-24 14:00:00,12.28,2020-09-24 05:49:00,17.97,2020-09-24 14:28:00
Humla,Simikot Airport,29.77827806,81.95264499999999,2020-09-24 00:00:00,Mostly cloudy throughout the day.,rain,2020-09-24 06:08:00,2020-09-24 18:13:00,0.27,0.7451,1.1556,2020-09-24 00:48:00,0.59,rain,17.94,2020-09-24 14:24:00,11.28,2020-09-25 05:26:00,19.26,2020-09-24 14:37:00,11.57,2020-09-25 05:25:00,14.1,1.0,1009.8,0.68,2.29,1600938840,131,0.76,6,1600932480,12.676,250.6,11.57,2020-09-24 06:01:00,17.94,2020-09-24 14:24:00,12.73,2020-09-25 00:00:00,19.26,2020-09-24 14:37:00
Humla,Thali,29.91966194,81.87920194,2020-09-24 00:00:00,Overcast throughout the day.,rain,2020-09-24 06:08:00,2020-09-24 18:13:00,0.27,0.4349,0.9816,2020-09-24 11:33:00,0.53,rain,13.69,2020-09-24 14:34:00,8.03,2020-09-25 05:43:00,15.29,2020-09-24 14:40:00,8.3,2020-09-25 05:43:00,10.46,1.0,1009.8,0.86,2.83,1600938300,67,0.89,6,1600930260,9.285,249.4,8.18,2020-09-24 06:02:00,13.69,2020-09-24 14:34:00,9.26,2020-09-25 00:00:00,15.29,2020-09-24 14:40:00
Ilam,Himali Gaun,26.90963889,87.92308333,2020-09-24 00:00:00,"Rain until morning, starting again in the evening.",rain,2020-09-24 05:44:00,2020-09-24 17:49:00,0.27,0.5328,1.6904,2020-09-24 02:45:00,0.84,rain,25.13,2020-09-24 14:46:00,18.88,2020-09-25 06:58:00,26.53,2020-09-24 15:49:00,20.95,2020-09-25 06:45:00,21.11,1.0,1008.4,0.86,1.65,1600971300,61,0.97,6,1600927500,15.692,251.8,18.76,2020-09-24 06:33:00,25.13,2020-09-24 14:46:00,20.85,2020-09-24 06:13:00,26.53,2020-09-24 15:49:00
Ilam,Ilam Tea Estate,27.06666667,88.0,2020-09-24 00:00:00,"Rain until morning, starting again in the evening.",rain,2020-09-24 05:44:00,2020-09-24 17:49:00,0.27,0.5364,1.5513,2020-09-24 02:59:00,0.74,rain,18.84,2020-09-24 14:45:00,13.22,2020-09-25 06:57:00,22.13,2020-09-24 14:38:00,16.65,2020-09-25 06:24:00,14.89,1.0,1008.9,0.52,1.54,1600963860,49,0.98,6,1600927620,15.827,249.7,12.61,2020-09-24 06:31:00,18.84,2020-09-24 14:45:00,16.51,2020-09-24 05:56:00,22.13,2020-09-24 14:38:00
Ilam,Kanyam Tea Estate,26.8,87.9,2020-09-24 00:00:00,"Rain until morning, starting again in the evening.",rain,2020-09-24 05:44:00,2020-09-24 17:49:00,0.27,0.4694,1.3587,2020-09-24 02:22:00,0.91,rain,28.15,2020-09-24 15:07:00,21.74,2020-09-25 06:54:00,39.43,2020-09-24 15:27:00,23.52,2020-09-25 06:48:00,24.35,1.0,1007.9,1.21,2.09,1600938420,67,0.97,5,1600927380,15.223,253.4,21.79,2020-09-24 06:46:00,28.15,2020-09-24 15:07:00,23.53,2020-09-24 06:39:00,39.43,2020-09-24 15:27:00
Ilam,Soktim Tea E,26.88652778,88.02738889,2020-09-24 00:00:00,"Rain until morning, starting again in the evening.",rain,2020-09-24 05:44:00,2020-09-24 17:48:00,0.27,0.4491,1.236,2020-09-24 02:49:00,0.85,rain,22.75,2020-09-24 14:23:00,17.13,2020-09-25 06:28:00,24.81,2020-09-24 14:18:00,19.43,2020-09-25 05:49:00,18.9,1.0,1008.4,1.0,1.93,1600971300,61,0.97,6,1600927500,15.426,252.0,16.81,2020-09-24 05:52:00,22.75,2020-09-24 14:23:00,19.11,2020-09-24 05:37:00,24.81,2020-09-24 14:18:00
Jajarkot,Bhanu Thana,28.961315000000003,82.268888,2020-09-24 00:00:00,Rain in the morning and afternoon.,rain,2020-09-24 06:07:00,2020-09-24 18:11:00,0.27,0.8116,2.0076,2020-09-24 05:53:00,0.64,rain,19.69,2020-09-24 15:01:00,13.83,2020-09-25 05:39:00,21.77,2020-09-24 15:08:00,15.11,2020-09-25 05:32:00,15.64,1.0,1008.5,0.69,2.41,1600935780,65,0.99,6,1600928400,13.201,248.2,13.53,2020-09-24 05:52:00,19.69,2020-09-24 15:01:00,15.85,2020-09-24 01:50:00,21.77,2020-09-24 15:08:00
Jajarkot,Maina Gaun (D.Bas),28.69860389,82.200792,2020-09-24 00:00:00,Rain until afternoon.,rain,2020-09-24 06:07:00,2020-09-24 18:12:00,0.27,0.5368,1.1323,2020-09-24 11:52:00,0.73,rain,23.71,2020-09-24 16:29:00,18.25,2020-09-25 06:05:00,25.24,2020-09-24 16:39:00,19.19,2020-09-25 05:57:00,20.57,1.0,1007.6,0.57,1.78,1600932300,35,0.98,5,1600928760,15.331,251.6,17.78,2020-09-24 07:13:00,23.71,2020-09-24 16:29:00,19.44,2020-09-24 06:54:00,25.24,2020-09-24 16:39:00
Jhapa,Anarmani Birta,26.6706658,87.7004293,2020-09-24 00:00:00,"Rain until morning, starting again in the evening.",rain,2020-09-24 05:45:00,2020-09-24 17:50:00,0.27,0.5067,2.3372,2020-09-24 00:00:00,0.93,rain,29.19,2020-09-24 15:12:00,22.88,2020-09-25 07:37:00,39.98,2020-09-24 15:28:00,24.61,2020-09-25 07:36:00,25.31,1.0,1007.4,2.01,3.81,1600916280,74,0.98,5,1600927620,14.611,254.2,23.18,2020-09-24 07:11:00,29.19,2020-09-24 15:12:00,24.7,2020-09-24 03:10:00,39.98,2020-09-24 15:28:00
Jhapa,Chnadra Gadhi,26.39616667,88.00375,2020-09-24 00:00:00,Rain and humid throughout the day.,rain,2020-09-24 05:44:00,2020-09-24 17:49:00,0.27,0.2227,1.3045,2020-09-24 00:00:00,0.92,rain,26.86,2020-09-24 14:16:00,22.64,2020-09-25 06:02:00,30.3,2020-09-24 14:05:00,24.08,2020-09-25 05:55:00,24.52,0.98,1006.9,3.83,7.21,1600913580,69,1.0,5,1600927200,15.606,254.5,22.85,2020-09-24 05:38:00,26.86,2020-09-24 14:16:00,24.15,2020-09-24 05:34:00,30.3,2020-09-24 14:05:00
Jhapa,Gaida (Kankai),26.68972222,87.98861111,2020-09-24 00:00:00,"Rain until morning, starting again in the evening.",rain,2020-09-24 05:44:00,2020-09-24 17:49:00,0.27,0.3353,0.8419,2020-09-24 00:37:00,0.92,rain,28.16,2020-09-24 14:14:00,22.52,2020-09-25 06:03:00,37.37,2020-09-24 15:21:00,24.17,2020-09-25 03:46:00,24.93,1.0,1007.6,1.92,3.57,1600914720,69,0.97,5,1600927260,14.617,254.2,22.74,2020-09-24 06:30:00,28.16,2020-09-24 14:14:00,24.3,2020-09-24 03:10:00,37.37,2020-09-24 15:21:00
Jhapa,Jumla,26.5647011,88.0614307,2020-09-24 00:00:00,Rain and humid throughout the day.,rain,2020-09-24 05:44:00,2020-09-24 17:48:00,0.27,0.2465,0.8752,2020-09-24 00:00:00,0.91,rain,27.47,2020-09-24 14:18:00,22.33,2020-09-25 03:50:00,33.38,2020-09-24 14:08:00,23.63,2020-09-25 03:41:00,24.67,0.98,1007.3,3.03,6.1,1600915020,66,0.99,5,1600927200,15.587,254.3,22.7,2020-09-24 05:50:00,27.47,2020-09-24 14:18:00,24.03,2020-09-24 05:41:00,33.38,2020-09-24 14:08:00
Jhapa,Kechana,26.65688889,87.86072222,2020-09-24 00:00:00,"Rain until morning, starting again in the evening.",rain,2020-09-24 05:44:00,2020-09-24 17:49:00,0.27,0.3926,1.5447,2020-09-24 00:00:00,0.92,rain,28.48,2020-09-24 15:10:00,22.69,2020-09-25 05:54:00,37.49,2020-09-24 15:20:00,24.25,2020-09-25 03:46:00,25.01,0.99,1007.4,2.13,4.07,1600915500,71,0.98,5,1600927320,14.875,254.2,22.98,2020-09-24 06:29:00,28.48,2020-09-24 15:10:00,24.38,2020-09-24 03:16:00,37.49,2020-09-24 15:20:00
Jhapa,Sanischare,26.625063899999997,87.98858059999999,2020-09-24 00:00:00,Rain and humid throughout the day.,rain,2020-09-24 05:44:00,2020-09-24 17:49:00,0.27,0.2999,0.9765,2020-09-24 00:00:00,0.91,rain,27.91,2020-09-24 15:03:00,22.47,2020-09-25 05:48:00,35.68,2020-09-24 15:22:00,24.01,2020-09-25 03:50:00,24.88,0.99,1007.4,2.46,4.9,1600914780,69,0.98,5,1600927260,14.857,254.2,22.73,2020-09-24 05:52:00,27.91,2020-09-24 15:03:00,24.16,2020-09-24 05:40:00,35.68,2020-09-24 15:22:00
Jumla,Dipal Gaun,29.23088056,82.33041944,2020-09-24 00:00:00,Overcast throughout the day.,rain,2020-09-24 06:07:00,2020-09-24 18:11:00,0.27,0.6099,2.0332,2020-09-24 05:45:00,0.58,rain,12.74,2020-09-24 15:03:00,6.38,2020-09-25 05:32:00,14.57,2020-09-24 15:02:00,6.81,2020-09-25 05:29:00,9.81,1.0,1009.4,0.85,3.03,1600937700,76,0.93,6,1600928700,13.236,246.7,7.57,2020-09-24 06:02:00,12.74,2020-09-24 15:03:00,9.29,2020-09-25 00:00:00,14.57,2020-09-24 15:02:00
Jumla,Jacha,29.43111111,82.10744444,2020-09-24 00:00:00,Overcast throughout the day.,rain,2020-09-24 06:07:00,2020-09-24 18:12:00,0.27,0.8801,2.2593,2020-09-24 03:51:00,0.62,rain,13.03,2020-09-24 14:47:00,6.39,2020-09-25 05:38:00,15.18,2020-09-24 14:47:00,7.57,2020-09-25 05:35:00,9.21,1.0,1009.8,0.88,2.43,1600939560,84,0.86,6,1600930440,14.303,249.0,6.7,2020-09-24 06:04:00,13.03,2020-09-24 14:47:00,8.93,2020-09-25 00:00:00,15.18,2020-09-24 14:47:00
Jumla,Jumla,29.26385556,82.22301111,2020-09-24 00:00:00,Overcast throughout the day.,rain,2020-09-24 06:07:00,2020-09-24 18:12:00,0.27,0.6673,2.5069,2020-09-24 05:46:00,0.59,rain,14.35,2020-09-24 15:01:00,6.98,2020-09-25 05:37:00,15.34,2020-09-24 15:01:00,7.25,2020-09-25 05:37:00,10.71,1.0,1009.4,0.84,3.28,1600938300,75,0.89,6,1600929000,14.777,247.7,8.53,2020-09-24 06:08:00,14.35,2020-09-24 15:01:00,8.95,2020-09-25 00:00:00,15.34,2020-09-24 15:01:00
Jumla,Tatopani,29.316667,82.283333,2020-09-24 00:00:00,Overcast throughout the day.,rain,2020-09-24 06:07:00,2020-09-24 18:11:00,0.27,0.6616,2.2669,2020-09-24 05:44:00,0.58,rain,11.53,2020-09-24 15:02:00,5.05,2020-09-25 05:39:00,13.71,2020-09-24 15:02:00,6.04,2020-09-25 05:36:00,8.53,1.0,1009.6,0.91,3.08,1600938180,79,0.91,6,1600929000,14.396,247.2,5.95,2020-09-24 06:07:00,11.53,2020-09-24 15:02:00,8.16,2020-09-25 00:00:00,13.71,2020-09-24 15:02:00
Kabhre,Budal (Banepa),27.61611667,85.56550278,2020-09-24 00:00:00,Rain throughout the day.,rain,2020-09-24 05:54:00,2020-09-24 17:58:00,0.27,1.2394,3.4627,2020-09-24 11:02:00,0.82,rain,19.39,2020-09-24 12:46:00,16.3,2020-09-25 06:29:00,21.06,2020-09-24 12:50:00,17.82,2020-09-25 01:41:00,17.55,1.0,1008.8,0.99,2.54,1600926720,29,1.0,6,1600928040,9.237,250.0,16.16,2020-09-24 06:47:00,19.39,2020-09-24 12:46:00,17.98,2020-09-25 00:00:00,21.06,2020-09-24 12:50:00
Kabhre,Dhulikhel,27.63882194,85.70498083,2020-09-24 00:00:00,Rain throughout the day.,rain,2020-09-24 05:53:00,2020-09-24 17:58:00,0.27,1.0331,3.1487,2020-09-24 11:32:00,0.8,rain,21.45,2020-09-24 16:11:00,17.81,2020-09-25 06:40:00,22.88,2020-09-24 16:03:00,18.95,2020-09-25 06:37:00,19.83,1.0,1009.0,0.85,1.91,1600948800,11,1.0,5,1600928040,11.413,250.1,17.87,2020-09-24 06:53:00,21.45,2020-09-24 16:11:00,19.2,2020-09-24 06:45:00,22.88,2020-09-24 16:03:00
Kabhre,Dolal Ghat,27.69382389,85.635637,2020-09-24 00:00:00,Rain throughout the day.,rain,2020-09-24 05:53:00,2020-09-24 17:58:00,0.27,1.0794,2.9637,2020-09-24 11:14:00,0.81,rain,19.64,2020-09-24 17:30:00,16.9,2020-09-25 06:34:00,21.09,2020-09-24 16:54:00,18.16,2020-09-25 06:31:00,18.39,1.0,1009.1,0.78,1.98,1600926060,28,1.0,6,1600928040,10.833,249.8,16.89,2020-09-24 06:52:00,19.64,2020-09-24 17:30:00,18.36,2020-09-24 06:43:00,21.09,2020-09-24 16:54:00
Kabhre,Panchkhal,27.63333333,85.51666667,2020-09-24 00:00:00,Rain throughout the day.,rain,2020-09-24 05:54:00,2020-09-24 17:59:00,0.27,1.2923,3.51,2020-09-24 10:24:00,0.83,rain,19.47,2020-09-24 12:37:00,16.25,2020-09-25 06:32:00,21.08,2020-09-24 12:44:00,17.82,2020-09-25 01:42:00,17.55,1.0,1008.8,0.98,2.7,1600926120,37,1.0,6,1600928100,8.681,249.9,16.07,2020-09-24 06:48:00,19.47,2020-09-24 12:37:00,17.87,2020-09-24 06:40:00,21.08,2020-09-24 12:44:00
Kailali,Dhangadhi,28.68333333,80.6,2020-09-24 00:00:00,Rain until afternoon.,rain,2020-09-24 06:13:00,2020-09-24 18:18:00,0.27,0.5275,1.0254,2020-09-24 14:45:00,0.87,rain,27.05,2020-09-24 13:46:00,22.12,2020-09-25 05:16:00,31.7,2020-09-24 13:45:00,23.37,2020-09-25 04:57:00,24.52,0.99,1005.5,1.3,2.32,1600937220,43,0.67,6,1600930380,14.348,259.7,23.05,2020-09-24 07:44:00,27.05,2020-09-24 13:46:00,24.34,2020-09-25 00:00:00,31.7,2020-09-24 13:45:00
Kailali,Godavari(West),28.554054999999998,80.831765,2020-09-24 00:00:00,Rain and humid throughout the day.,rain,2020-09-24 06:13:00,2020-09-24 18:17:00,0.27,0.5857,1.0845,2020-09-24 11:30:00,0.91,rain,25.88,2020-09-24 14:48:00,21.76,2020-09-25 05:07:00,27.14,2020-09-24 14:46:00,22.98,2020-09-25 04:29:00,23.97,0.99,1005.4,1.56,2.52,1600959480,53,0.71,6,1600932060,14.766,259.0,22.31,2020-09-24 08:56:00,25.88,2020-09-24 14:48:00,23.8,2020-09-25 00:00:00,27.14,2020-09-24 14:46:00
Kailali,Malakheti,28.83333333,80.56666667,2020-09-24 00:00:00,Rain until afternoon.,rain,2020-09-24 06:14:00,2020-09-24 18:18:00,0.27,0.5412,1.2562,2020-09-24 14:32:00,0.83,rain,27.15,2020-09-24 13:19:00,21.86,2020-09-25 05:05:00,32.85,2020-09-24 13:11:00,23.12,2020-09-25 04:47:00,24.83,0.99,1005.9,1.09,2.11,1600936140,26,0.7,6,1600928940,13.824,259.2,23.22,2020-09-24 06:54:00,27.15,2020-09-24 13:19:00,24.76,2020-09-24 04:48:00,32.85,2020-09-24 13:11:00
Kailali,Sitapur,28.66417611,80.97850889,2020-09-24 00:00:00,Rain until afternoon.,rain,2020-09-24 06:12:00,2020-09-24 18:17:00,0.27,0.7092,1.3122,2020-09-24 11:11:00,0.92,rain,26.74,2020-09-24 15:19:00,21.85,2020-09-25 05:06:00,29.91,2020-09-24 15:22:00,23.09,2020-09-25 04:22:00,24.07,1.0,1005.9,1.27,1.94,1600937280,29,0.73,6,1600932360,13.003,258.3,22.04,2020-09-24 09:31:00,26.74,2020-09-24 15:19:00,23.84,2020-09-24 09:25:00,29.91,2020-09-24 15:22:00
Kailali,Teghari,28.87623,80.57918889,2020-09-24 00:00:00,Rain until afternoon.,rain,2020-09-24 06:14:00,2020-09-24 18:18:00,0.27,0.5559,1.3539,2020-09-24 14:23:00,0.8,rain,26.57,2020-09-24 12:59:00,21.36,2020-09-25 05:01:00,29.75,2020-09-24 12:58:00,22.58,2020-09-25 04:46:00,24.36,1.0,1006.1,1.05,2.02,1600932420,22,0.72,6,1600928640,13.75,258.8,22.68,2020-09-24 06:52:00,26.57,2020-09-24 12:59:00,24.25,2020-09-24 06:44:00,29.75,2020-09-24 12:58:00
Kalikot,Mahendra Nagar,29.09644444,81.70052778,2020-09-24 00:00:00,Rain in the morning.,rain,2020-09-24 06:09:00,2020-09-24 18:14:00,0.27,1.1649,2.4802,2020-09-24 01:27:00,0.72,rain,20.77,2020-09-24 14:46:00,14.4,2020-09-25 05:39:00,22.52,2020-09-24 14:48:00,15.37,2020-09-25 05:36:00,17.08,1.0,1008.3,1.08,2.28,1600938480,32,0.86,7,1600933200,11.428,251.6,14.28,2020-09-24 07:21:00,20.77,2020-09-24 14:46:00,16.39,2020-09-24 06:09:00,22.52,2020-09-24 14:48:00
Kalikot,Manma,29.2495,81.63913889,2020-09-24 00:00:00,Rain in the morning and afternoon.,rain,2020-09-24 06:09:00,2020-09-24 18:14:00,0.27,1.1548,2.3827,2020-09-24 08:40:00,0.63,rain,19.2,2020-09-24 14:35:00,13.13,2020-09-25 05:43:00,21.11,2020-09-24 14:41:00,14.34,2020-09-25 05:40:00,15.61,1.0,1008.9,1.22,2.93,1600938000,39,0.84,7,1600933020,11.04,251.5,12.73,2020-09-24 06:08:00,19.2,2020-09-24 14:35:00,14.93,2020-09-24 06:03:00,21.11,2020-09-24 14:41:00
Kalikot,Nagma,29.12995833,81.58836111,2020-09-24 00:00:00,Rain in the morning and afternoon.,rain,2020-09-24 06:09:00,2020-09-24 18:14:00,0.27,1.0952,2.4954,2020-09-24 08:21:00,0.72,rain,22.79,2020-09-24 14:55:00,16.71,2020-09-25 05:39:00,24.06,2020-09-24 14:57:00,17.3,2020-09-25 05:36:00,18.6,1.0,1008.4,1.13,2.25,1600937880,34,0.85,6,1600933080,13.706,252.5,16.25,2020-09-24 06:30:00,22.79,2020-09-24 14:55:00,17.65,2020-09-24 06:12:00,24.06,2020-09-24 14:57:00
Kanchanpur,Dodhara,28.86185889,80.44044194,2020-09-24 00:00:00,Rain until afternoon.,rain,2020-09-24 06:14:00,2020-09-24 18:19:00,0.27,0.4699,1.0845,2020-09-24 14:39:00,0.8,rain,27.41,2020-09-24 13:20:00,22.07,2020-09-25 05:08:00,33.21,2020-09-24 13:08:00,23.32,2020-09-25 04:50:00,24.98,0.99,1005.9,1.23,2.49,1600935840,30,0.68,6,1600928580,14.751,259.8,23.41,2020-09-24 04:47:00,27.41,2020-09-24 13:20:00,24.93,2020-09-24 04:45:00,33.21,2020-09-24 13:08:00
Kanchanpur,Hanmannagar,28.698575,80.37540389,2020-09-24 00:00:00,Possible light rain until afternoon.,rain,2020-09-24 06:14:00,2020-09-24 18:19:00,0.27,0.4195,0.9741,2020-09-24 00:00:00,0.83,rain,27.49,2020-09-24 13:42:00,22.01,2020-09-25 05:05:00,31.98,2020-09-24 13:31:00,23.21,2020-09-25 04:52:00,24.23,0.97,1005.4,1.65,5.02,1600884900,45,0.67,6,1600929360,14.744,260.5,23.09,2020-09-25 00:00:00,27.49,2020-09-24 13:42:00,24.13,2020-09-25 00:00:00,31.98,2020-09-24 13:31:00
Kanchanpur,Taulihawa,28.89702,80.36996389,2020-09-24 00:00:00,Rain until afternoon.,rain,2020-09-24 06:14:00,2020-09-24 18:19:00,0.27,0.4294,0.9425,2020-09-24 14:41:00,0.76,rain,27.68,2020-09-24 13:08:00,22.27,2020-09-25 05:05:00,34.3,2020-09-24 13:01:00,23.54,2020-09-25 04:45:00,25.16,0.99,1005.9,1.29,2.75,1600935600,32,0.66,6,1600928580,15.691,260.0,23.58,2020-09-24 04:48:00,27.68,2020-09-24 13:08:00,25.12,2020-09-24 04:45:00,34.3,2020-09-24 13:01:00
Kapilbastu,Banganga,27.669936100000005,82.7911917,2020-09-24 00:00:00,Heavy rain and humid throughout the day.,rain,2020-09-24 06:05:00,2020-09-24 18:09:00,0.27,4.642,8.3899,2020-09-24 04:31:00,0.99,rain,23.45,2020-09-24 16:18:00,21.26,2020-09-25 05:34:00,24.61,2020-09-24 13:51:00,22.37,2020-09-25 05:20:00,22.53,1.0,1005.3,3.06,9.05,1600894080,48,1.0,5,1600928580,4.904,253.6,21.53,2020-09-24 08:35:00,24.11,2020-09-24 00:00:00,22.67,2020-09-25 00:00:00,24.82,2020-09-24 00:00:00
Kapilvastu,Bahadur Ganj,27.693294399999996,83.1612556,2020-09-24 00:00:00,Heavy rain and humid throughout the day.,rain,2020-09-24 06:03:00,2020-09-24 18:08:00,0.27,4.9472,8.3,2020-09-24 02:50:00,0.99,rain,23.49,2020-09-24 16:18:00,20.7,2020-09-25 04:53:00,25.0,2020-09-24 15:59:00,21.94,2020-09-25 04:37:00,22.46,1.0,1005.9,2.81,6.52,1600900560,37,1.0,5,1600928460,4.479,253.0,21.06,2020-09-24 08:40:00,23.83,2020-09-24 00:00:00,22.58,2020-09-25 00:00:00,25.0,2020-09-24 15:59:00
Kapilvastu,Sallyan (Kaski),27.55,83.85,2020-09-24 00:00:00,Heavy rain throughout the day.,rain,2020-09-24 06:00:00,2020-09-24 18:05:00,0.27,4.7946,7.7663,2020-09-24 01:08:00,0.99,rain,21.79,2020-09-24 13:53:00,19.55,2020-09-25 05:40:00,22.79,2020-09-24 13:45:00,20.6,2020-09-25 00:50:00,20.73,1.0,1006.5,3.15,8.47,1600902240,37,1.0,5,1600928340,7.479,253.7,19.8,2020-09-25 00:00:00,21.79,2020-09-24 13:53:00,20.69,2020-09-25 00:00:00,22.79,2020-09-24 13:45:00
Kaski,Begnas,28.212011100000005,83.8915417,2020-09-24 00:00:00,Rain throughout the day.,rain,2020-09-24 06:00:00,2020-09-24 18:05:00,0.27,2.8968,4.4513,2020-09-24 03:13:00,0.93,rain,18.09,2020-09-24 14:51:00,14.79,2020-09-25 05:50:00,19.2,2020-09-24 14:45:00,16.09,2020-09-25 05:29:00,15.75,1.0,1009.3,1.26,2.09,1600888200,19,1.0,6,1600928400,6.89,250.2,14.08,2020-09-24 08:05:00,18.09,2020-09-24 14:51:00,15.78,2020-09-24 07:48:00,19.2,2020-09-24 14:45:00
Kaski,Begnas Tal,28.35805556,84.105175,2020-09-24 00:00:00,Rain throughout the day.,rain,2020-09-24 05:59:00,2020-09-24 18:04:00,0.27,3.0458,4.6102,2020-09-24 08:07:00,0.84,rain,12.57,2020-09-24 14:55:00,9.65,2020-09-25 05:45:00,15.34,2020-09-24 14:52:00,9.19,2020-09-25 05:44:00,10.94,1.0,1010.1,1.67,2.44,1600955400,20,1.0,6,1600928340,5.605,247.2,9.23,2020-09-24 09:32:00,12.57,2020-09-24 14:55:00,8.99,2020-09-24 10:17:00,15.34,2020-09-24 14:52:00
Kaski,Bhadaure Deurali,28.21849444,83.9742,2020-09-24 00:00:00,Rain throughout the day.,rain,2020-09-24 06:00:00,2020-09-24 18:05:00,0.27,2.5296,3.9045,2020-09-24 07:28:00,0.93,rain,17.83,2020-09-24 15:01:00,14.26,2020-09-25 05:37:00,18.32,2020-09-24 15:00:00,14.9,2020-09-25 05:34:00,15.39,1.0,1009.5,1.57,2.3,1600885800,21,1.0,5,1600928400,6.563,250.3,13.5,2020-09-24 08:38:00,17.83,2020-09-24 15:01:00,14.46,2020-09-24 08:31:00,18.32,2020-09-24 15:00:00
Kaski,Ghandruk,28.26168056,83.96873333,2020-09-24 00:00:00,Rain throughout the day.,rain,2020-09-24 06:00:00,2020-09-24 18:05:00,0.27,2.442,3.7988,2020-09-24 07:40:00,0.92,rain,17.08,2020-09-24 15:00:00,13.36,2020-09-25 05:31:00,17.63,2020-09-24 15:00:00,14.03,2020-09-25 05:27:00,14.59,1.0,1009.6,1.65,2.46,1600885440,22,1.0,5,1600928400,6.709,249.8,12.67,2020-09-24 08:34:00,17.08,2020-09-24 15:00:00,13.57,2020-09-24 05:38:00,17.63,2020-09-24 15:00:00
Kaski,Lamachaur,28.29653889,83.81791111,2020-09-24 00:00:00,Rain throughout the day.,rain,2020-09-24 06:01:00,2020-09-24 18:05:00,0.27,3.1447,4.8094,2020-09-24 03:02:00,0.89,rain,17.18,2020-09-24 14:44:00,13.68,2020-09-25 05:38:00,19.61,2020-09-24 14:44:00,15.71,2020-09-25 05:24:00,14.83,1.0,1009.5,1.02,1.98,1600885980,21,1.0,6,1600928460,7.452,248.8,13.09,2020-09-24 09:00:00,17.18,2020-09-24 14:44:00,16.11,2020-09-24 05:41:00,19.61,2020-09-24 14:44:00
Kaski,Lumle,28.26555556,83.82211944,2020-09-24 00:00:00,Rain throughout the day.,rain,2020-09-24 06:01:00,2020-09-24 18:05:00,0.27,3.0151,4.8467,2020-09-24 02:56:00,0.91,rain,18.17,2020-09-24 14:49:00,14.59,2020-09-25 05:42:00,19.95,2020-09-24 14:44:00,16.24,2020-09-25 05:28:00,15.65,1.0,1009.4,1.02,2.03,1600887960,18,1.0,6,1600928460,7.436,249.5,14.01,2020-09-24 08:44:00,18.17,2020-09-24 14:49:00,16.43,2020-09-24 01:56:00,19.95,2020-09-24 14:44:00
Kaski,Pokhara Airport,28.23333333,84.0,2020-09-24 00:00:00,Rain throughout the day.,rain,2020-09-24 06:00:00,2020-09-24 18:05:00,0.27,2.3279,3.7326,2020-09-24 07:34:00,0.93,rain,17.09,2020-09-24 15:01:00,13.88,2020-09-25 05:22:00,17.54,2020-09-24 15:02:00,14.53,2020-09-25 05:18:00,14.72,1.0,1009.6,1.72,2.44,1600885560,22,1.0,5,1600928400,6.53,250.3,12.83,2020-09-24 08:38:00,17.09,2020-09-24 15:01:00,13.71,2020-09-24 08:31:00,17.54,2020-09-24 15:02:00
Kaski,Pokhara Airport,28.22,84.0,2020-09-24 00:00:00,Rain throughout the day.,rain,2020-09-24 06:00:00,2020-09-24 18:05:00,0.27,2.4171,3.8377,2020-09-24 07:31:00,0.93,rain,17.38,2020-09-24 15:01:00,14.02,2020-09-25 05:31:00,17.81,2020-09-24 15:02:00,14.64,2020-09-25 05:27:00,14.98,1.0,1009.6,1.67,2.36,1600885740,21,1.0,5,1600928400,6.456,250.4,13.08,2020-09-24 08:39:00,17.38,2020-09-24 15:01:00,13.95,2020-09-24 08:32:00,17.81,2020-09-24 15:02:00
Kathmandu,Budhanilakan,27.78333333,85.31666667,2020-09-24 00:00:00,Rain throughout the day.,rain,2020-09-24 05:55:00,2020-09-24 17:59:00,0.27,1.5307,3.4117,2020-09-24 09:19:00,0.85,rain,19.43,2020-09-24 11:56:00,15.97,2020-09-25 06:22:00,21.0,2020-09-24 12:06:00,17.59,2020-09-25 06:15:00,17.54,1.0,1009.1,0.98,3.66,1600926300,84,1.0,6,1600928100,8.042,249.5,15.92,2020-09-24 06:44:00,19.43,2020-09-24 11:56:00,17.65,2020-09-24 06:37:00,21.0,2020-09-24 12:06:00
Kathmandu,Kathmandu Airport,27.703825,85.35624722,2020-09-24 00:00:00,Rain and humid throughout the day.,rain,2020-09-24 05:54:00,2020-09-24 17:59:00,0.27,1.5014,3.5556,2020-09-24 09:43:00,0.85,rain,22.98,2020-09-24 16:27:00,16.95,2020-09-25 06:03:00,24.08,2020-09-24 16:26:00,18.34,2020-09-25 06:02:00,19.99,1.0,1008.9,1.42,3.25,1600925700,76,1.0,6,1600928100,7.719,249.9,17.77,2020-09-24 19:28:00,22.98,2020-09-24 16:27:00,19.28,2020-09-24 06:31:00,24.08,2020-09-24 16:26:00
Kathmandu,Naikap,27.7726953,85.4277003,2020-09-24 00:00:00,Rain throughout the day.,rain,2020-09-24 05:54:00,2020-09-24 17:59:00,0.27,1.3761,3.2968,2020-09-24 09:36:00,0.84,rain,17.8,2020-09-24 11:55:00,14.71,2020-09-25 05:43:00,19.5,2020-09-24 12:05:00,16.09,2020-09-25 01:02:00,15.77,1.0,1009.2,0.84,3.03,1600925760,72,1.0,6,1600928040,9.237,249.4,14.58,2020-09-24 06:22:00,17.8,2020-09-24 11:55:00,16.16,2020-09-25 00:00:00,19.5,2020-09-24 12:05:00
Kathmandu,Pharping,27.76666667,85.31666667,2020-09-24 00:00:00,Rain throughout the day.,rain,2020-09-24 05:55:00,2020-09-24 17:59:00,0.27,1.5324,3.4971,2020-09-24 09:20:00,0.85,rain,19.63,2020-09-24 11:57:00,16.13,2020-09-25 06:27:00,21.07,2020-09-24 12:07:00,17.62,2020-09-25 06:22:00,17.79,1.0,1009.0,0.99,3.69,1600926180,86,1.0,6,1600928100,7.928,249.6,16.12,2020-09-24 06:45:00,19.63,2020-09-24 11:57:00,17.71,2020-09-24 06:39:00,21.07,2020-09-24 12:07:00
Kathmandu,Sankhu,27.73333333,85.33333333,2020-09-24 00:00:00,Rain throughout the day.,rain,2020-09-24 05:54:00,2020-09-24 17:59:00,0.27,1.5186,3.5623,2020-09-24 09:27:00,0.86,rain,19.95,2020-09-24 12:07:00,16.33,2020-09-25 06:29:00,21.29,2020-09-24 12:19:00,17.75,2020-09-25 06:23:00,18.14,1.0,1008.9,1.04,3.52,1600925880,83,1.0,6,1600928100,8.082,249.8,16.49,2020-09-24 06:45:00,19.95,2020-09-24 12:07:00,17.92,2020-09-24 06:40:00,21.29,2020-09-24 12:19:00
Kathmandu,Sankhu,27.73333333,85.33333333,2020-09-24 00:00:00,Rain throughout the day.,rain,2020-09-24 05:54:00,2020-09-24 17:59:00,0.27,1.5186,3.5623,2020-09-24 09:27:00,0.86,rain,19.95,2020-09-24 12:07:00,16.33,2020-09-25 06:29:00,21.29,2020-09-24 12:19:00,17.75,2020-09-25 06:23:00,18.14,1.0,1008.9,1.04,3.52,1600925880,83,1.0,6,1600928100,8.082,249.8,16.49,2020-09-24 06:45:00,19.95,2020-09-24 12:07:00,17.92,2020-09-24 06:40:00,21.29,2020-09-24 12:19:00
Kathmandu,Sivapuri,27.75,85.43333333,2020-09-24 00:00:00,Rain throughout the day.,rain,2020-09-24 05:54:00,2020-09-24 17:59:00,0.27,1.3475,3.3853,2020-09-24 09:37:00,0.84,rain,18.94,2020-09-24 11:59:00,15.87,2020-09-25 06:27:00,20.21,2020-09-24 12:14:00,17.18,2020-09-25 06:22:00,17.3,1.0,1009.1,0.82,2.99,1600925460,74,1.0,6,1600928100,9.274,249.7,15.77,2020-09-24 06:45:00,18.94,2020-09-24 11:59:00,17.2,2020-09-24 06:40:00,20.21,2020-09-24 12:14:00
Kathmandu,Sundarijal,27.8,85.43333333,2020-09-24 00:00:00,Rain throughout the day.,rain,2020-09-24 05:54:00,2020-09-24 17:59:00,0.27,1.3931,3.1735,2020-09-24 09:38:00,0.83,rain,15.42,2020-09-24 11:49:00,12.52,2020-09-25 06:11:00,18.08,2020-09-24 12:08:00,14.87,2020-09-25 06:05:00,13.64,1.0,1009.3,0.85,3.01,1600926000,68,1.0,6,1600928040,9.307,249.1,12.31,2020-09-24 06:42:00,15.42,2020-09-24 11:49:00,14.96,2020-09-24 06:19:00,18.08,2020-09-24 12:08:00
Kathmandu,Tarebhir,27.78419167,85.29049444,2020-09-24 00:00:00,Rain throughout the day.,rain,2020-09-24 05:55:00,2020-09-24 17:59:00,0.27,1.5647,3.4493,2020-09-24 09:16:00,0.85,rain,19.25,2020-09-24 11:56:00,15.75,2020-09-25 06:15:00,20.86,2020-09-24 12:05:00,17.35,2020-09-25 01:41:00,17.1,1.0,1009.0,1.0,3.8,1600926420,87,1.0,6,1600928100,7.766,249.6,15.68,2020-09-24 06:39:00,19.25,2020-09-24 11:56:00,17.53,2020-09-25 00:00:00,20.86,2020-09-24 12:05:00
Kathmandu,Tokha,27.7972222,85.3577778,2020-09-24 00:00:00,Rain throughout the day.,rain,2020-09-24 05:54:00,2020-09-24 17:59:00,0.27,1.4804,3.2812,2020-09-24 09:23:00,0.84,rain,16.56,2020-09-24 11:50:00,13.27,2020-09-25 05:56:00,18.91,2020-09-24 12:05:00,15.47,2020-09-25 05:47:00,14.51,1.0,1009.1,0.93,3.41,1600926300,78,1.0,6,1600928040,8.55,249.3,13.19,2020-09-24 06:27:00,16.56,2020-09-24 11:50:00,15.58,2020-09-24 06:03:00,18.91,2020-09-24 12:05:00
Khotang,Diktel,27.02930083,86.84337278,2020-09-24 00:00:00,Possible light rain overnight and in the morning.,rain,2020-09-24 05:48:00,2020-09-24 17:53:00,0.27,0.2594,0.5065,2020-09-24 07:39:00,0.69,rain,23.32,2020-09-24 13:12:00,18.32,2020-09-25 08:00:00,24.84,2020-09-24 13:13:00,20.16,2020-09-25 07:38:00,20.62,1.0,1007.9,1.06,2.52,1600884900,37,1.0,6,1600927620,16.093,252.1,18.57,2020-09-24 06:55:00,23.32,2020-09-24 13:12:00,20.46,2020-09-24 06:33:00,24.84,2020-09-24 13:13:00
Khotang,Dwarpa,27.359795000000002,86.7486619,2020-09-24 00:00:00,Possible light rain in the morning and afternoon.,rain,2020-09-24 05:49:00,2020-09-24 17:54:00,0.27,0.2607,0.5404,2020-09-24 14:04:00,0.6,rain,17.89,2020-09-24 12:47:00,14.0,2020-09-25 03:39:00,20.12,2020-09-24 12:53:00,15.7,2020-09-25 01:02:00,15.2,1.0,1008.8,0.86,1.73,1600884900,33,1.0,6,1600927620,16.093,249.5,13.5,2020-09-24 07:30:00,17.89,2020-09-24 12:47:00,15.63,2020-09-24 03:35:00,20.12,2020-09-24 12:53:00
Khotang,Khotang Bazar,27.1408985,86.4317585,2020-09-24 00:00:00,Possible light rain until afternoon.,rain,2020-09-24 05:50:00,2020-09-24 17:55:00,0.27,0.3534,0.8445,2020-09-24 11:45:00,0.73,rain,24.03,2020-09-24 19:00:00,20.69,2020-09-25 07:12:00,25.03,2020-09-24 16:57:00,21.98,2020-09-25 06:56:00,22.65,1.0,1007.9,1.12,2.35,1600936560,36,1.0,5,1600927740,15.819,252.3,20.94,2020-09-24 07:08:00,24.12,2020-09-24 19:47:00,22.32,2020-09-24 07:00:00,25.03,2020-09-24 16:57:00
Khotang,Kurle Ghat,27.21666667,86.85,2020-09-24 00:00:00,Possible light rain until afternoon.,rain,2020-09-24 05:48:00,2020-09-24 17:53:00,0.27,0.2367,0.4792,2020-09-24 08:49:00,0.63,rain,19.13,2020-09-24 13:15:00,15.46,2020-09-25 07:13:00,21.31,2020-09-24 13:15:00,17.39,2020-09-25 05:50:00,16.84,1.0,1008.5,0.77,2.11,1600884900,38,1.0,6,1600927560,15.996,250.9,15.11,2020-09-24 06:14:00,19.13,2020-09-24 13:15:00,17.21,2020-09-24 05:54:00,21.31,2020-09-24 13:15:00
Lalitpur,Chapa Gaun,27.566666700000003,85.3166667,2020-09-24 00:00:00,Rain throughout the day.,rain,2020-09-24 05:55:00,2020-09-24 17:59:00,0.27,1.6571,3.9305,2020-09-24 11:00:00,0.86,rain,20.16,2020-09-24 13:19:00,16.54,2020-09-25 01:27:00,21.94,2020-09-24 13:17:00,18.04,2020-09-25 01:22:00,17.79,1.0,1008.3,1.18,2.61,1600920060,55,1.0,6,1600928100,8.735,250.3,16.41,2020-09-24 06:37:00,20.16,2020-09-24 13:19:00,18.19,2020-09-25 00:00:00,21.94,2020-09-24 13:17:00
Lalitpur,Godavari,27.68333333,85.3,2020-09-24 00:00:00,Rain throughout the day.,rain,2020-09-24 05:55:00,2020-09-24 17:59:00,0.27,1.6057,3.6466,2020-09-24 09:45:00,0.86,rain,20.34,2020-09-24 12:21:00,16.75,2020-09-25 06:37:00,21.83,2020-09-24 12:33:00,18.28,2020-09-25 06:31:00,18.56,1.0,1008.7,1.11,3.33,1600925760,77,1.0,6,1600928100,8.075,250.0,16.85,2020-09-24 06:48:00,20.34,2020-09-24 12:21:00,18.42,2020-09-24 06:43:00,21.83,2020-09-24 12:33:00
Lalitpur,Khokana,27.65,85.38333333,2020-09-24 00:00:00,Rain throughout the day.,rain,2020-09-24 05:54:00,2020-09-24 17:59:00,0.27,1.4932,3.6144,2020-09-24 09:59:00,0.85,rain,20.27,2020-09-24 12:40:00,16.73,2020-09-25 06:38:00,21.8,2020-09-24 12:48:00,18.29,2020-09-25 06:33:00,18.49,1.0,1008.7,1.09,2.95,1600925520,60,1.0,6,1600928100,8.606,250.0,16.79,2020-09-24 06:49:00,20.27,2020-09-24 12:40:00,18.39,2020-09-24 06:44:00,21.8,2020-09-24 12:48:00
Lalitpur,Khumaltar,27.5929167,85.3788333,2020-09-24 00:00:00,Rain throughout the day.,rain,2020-09-24 05:54:00,2020-09-24 17:59:00,0.27,1.5381,3.7779,2020-09-24 10:39:00,0.85,rain,19.83,2020-09-24 12:55:00,16.3,2020-09-25 06:05:00,21.59,2020-09-24 12:58:00,17.78,2020-09-25 01:16:00,17.53,1.0,1008.5,1.14,2.74,1600924680,51,1.0,6,1600928100,8.486,250.2,16.15,2020-09-24 06:37:00,19.83,2020-09-24 12:55:00,17.92,2020-09-25 00:00:00,21.59,2020-09-24 12:58:00
Lalitpur,Kritipur (Bagban),27.68333333,85.33333333,2020-09-24 00:00:00,Rain throughout the day.,rain,2020-09-24 05:54:00,2020-09-24 17:59:00,0.27,1.552,3.6093,2020-09-24 09:47:00,0.86,rain,20.92,2020-09-24 12:47:00,16.86,2020-09-25 06:33:00,22.33,2020-09-24 12:54:00,18.33,2020-09-25 06:29:00,19.03,1.0,1008.8,1.19,3.23,1600925700,74,1.0,6,1600928100,8.181,249.9,17.32,2020-09-24 06:46:00,20.92,2020-09-24 12:47:00,18.67,2020-09-24 06:42:00,22.33,2020-09-24 12:54:00
Lalitpur,Lalitpur (Kopundol),27.659325,85.3697083,2020-09-24 00:00:00,Rain throughout the day.,rain,2020-09-24 05:54:00,2020-09-24 17:59:00,0.27,1.5091,3.6089,2020-09-24 09:55:00,0.85,rain,20.52,2020-09-24 12:44:00,16.81,2020-09-25 06:38:00,22.0,2020-09-24 12:51:00,18.32,2020-09-25 06:33:00,18.72,1.0,1008.7,1.12,3.01,1600925520,65,1.0,6,1600928100,8.545,250.0,17.0,2020-09-24 06:49:00,20.52,2020-09-24 12:44:00,18.51,2020-09-24 06:44:00,22.0,2020-09-24 12:51:00
Lalitpur,Lubhu,27.60325833,85.32656389,2020-09-24 00:00:00,Rain throughout the day.,rain,2020-09-24 05:55:00,2020-09-24 17:59:00,0.27,1.6165,3.7733,2020-09-24 10:28:00,0.86,rain,20.19,2020-09-24 13:02:00,16.71,2020-09-25 06:31:00,21.86,2020-09-24 13:02:00,18.27,2020-09-25 01:42:00,18.05,1.0,1008.5,1.14,2.77,1600922640,59,1.0,6,1600928100,8.628,250.2,16.61,2020-09-24 06:45:00,20.19,2020-09-24 13:02:00,18.46,2020-09-25 00:00:00,21.86,2020-09-24 13:02:00
Lalitpur,Tikathali,27.576825,85.3540444,2020-09-24 00:00:00,Rain throughout the day.,rain,2020-09-24 05:54:00,2020-09-24 17:59:00,0.27,1.5892,3.8597,2020-09-24 10:52:00,0.86,rain,19.62,2020-09-24 13:01:00,16.01,2020-09-25 05:51:00,21.53,2020-09-24 13:01:00,17.6,2020-09-25 01:25:00,17.23,1.0,1008.4,1.16,2.67,1600921200,51,1.0,6,1600928100,8.554,250.2,15.87,2020-09-24 06:31:00,19.62,2020-09-24 13:01:00,17.71,2020-09-25 00:00:00,21.53,2020-09-24 13:01:00
Lamiung,Khudi Bazar,28.12677778,84.34494167,2020-09-24 00:00:00,Rain throughout the day.,rain,2020-09-24 05:58:00,2020-09-24 18:03:00,0.27,2.823,3.8693,2020-09-24 10:34:00,0.92,rain,20.85,2020-09-24 15:04:00,15.98,2020-09-25 06:29:00,21.97,2020-09-24 15:03:00,17.23,2020-09-25 06:14:00,18.39,1.0,1009.5,1.01,1.72,1600894440,11,1.0,5,1600928220,4.526,250.7,16.46,2020-09-24 08:39:00,20.85,2020-09-24 15:04:00,18.1,2020-09-24 06:52:00,21.97,2020-09-24 15:03:00
Lamjung,Besishahar,28.25596667,84.47929722,2020-09-23 21:45:00,Rain throughout the day.,rain,2020-09-24 05:58:00,2020-09-24 18:03:00,0.27,2.7694,3.7964,2020-09-24 11:33:00,0.83,rain,19.43,2020-09-24 14:47:00,14.76,2020-09-25 05:45:00,21.45,2020-09-24 14:45:00,16.91,2020-09-25 05:45:00,16.46,1.0,1009.9,1.19,1.9,1600895520,31,1.0,6,1600928220,5.978,248.9,14.59,2020-09-24 06:01:00,19.43,2020-09-24 14:47:00,17.22,2020-09-24 05:48:00,21.45,2020-09-24 14:45:00
Lamjung,Bhorletar,28.21813889,84.24153889,2020-09-24 00:00:00,Rain throughout the day.,rain,2020-09-24 05:59:00,2020-09-24 18:04:00,0.27,2.2797,3.536,2020-09-24 10:23:00,0.9,rain,18.72,2020-09-24 14:49:00,13.99,2020-09-25 05:23:00,20.4,2020-09-24 14:46:00,15.85,2020-09-25 04:57:00,15.9,1.0,1009.8,1.28,2.0,1600891020,16,1.0,6,1600928280,3.968,250.2,14.07,2020-09-24 09:02:00,18.72,2020-09-24 14:49:00,16.49,2020-09-25 00:00:00,20.4,2020-09-24 14:46:00
Lamjung,Faleni,28.30964722,84.26600278,2020-09-24 00:00:00,Rain throughout the day.,rain,2020-09-24 05:59:00,2020-09-24 18:03:00,0.27,2.5212,3.911,2020-09-24 10:30:00,0.85,rain,16.52,2020-09-24 14:49:00,12.26,2020-09-25 05:45:00,18.42,2020-09-24 14:45:00,14.35,2020-09-25 05:30:00,14.12,1.0,1010.1,1.45,2.04,1600891020,15,1.0,6,1600928280,4.477,248.3,12.32,2020-09-24 07:41:00,16.52,2020-09-24 14:49:00,14.9,2020-09-24 06:05:00,18.42,2020-09-24 14:45:00
Lamjung,Gausala,28.07621667,84.47669444,2020-09-24 00:00:00,Rain and humid throughout the day.,rain,2020-09-24 05:58:00,2020-09-24 18:03:00,0.27,2.9252,4.1403,2020-09-24 03:04:00,0.92,rain,22.63,2020-09-24 15:14:00,17.58,2020-09-25 06:49:00,23.7,2020-09-24 16:11:00,18.74,2020-09-25 06:43:00,20.42,1.0,1009.4,0.85,1.91,1600898760,17,1.0,5,1600928160,5.888,251.0,18.33,2020-09-24 07:35:00,22.63,2020-09-24 15:14:00,19.89,2020-09-24 07:13:00,23.7,2020-09-24 16:11:00
Lamjung,Gharedhunga,28.282208299999997,84.3454164,2020-09-24 00:00:00,Rain throughout the day.,rain,2020-09-24 05:58:00,2020-09-24 18:03:00,0.27,2.5122,3.675,2020-09-24 10:45:00,0.85,rain,18.97,2020-09-24 14:53:00,14.79,2020-09-25 06:16:00,20.43,2020-09-24 14:51:00,16.31,2020-09-25 05:51:00,16.45,1.0,1010.0,1.32,1.94,1600893480,22,1.0,6,1600928280,4.885,248.5,14.69,2020-09-24 07:10:00,18.97,2020-09-24 14:53:00,16.75,2020-09-24 06:18:00,20.43,2020-09-24 14:51:00
Mahottari,Chisapani Gadhi,26.65224722,85.807275,2020-09-24 00:00:00,Rain and humid throughout the day.,rain,2020-09-24 05:53:00,2020-09-24 17:57:00,0.27,0.4662,1.4815,2020-09-24 11:42:00,0.95,rain,25.75,2020-09-24 17:06:00,23.17,2020-09-25 06:55:00,26.7,2020-09-24 16:51:00,24.55,2020-09-25 06:50:00,24.07,0.98,1005.6,4.15,11.44,1600884900,80,1.0,5,1600927920,13.213,254.8,23.25,2020-09-24 06:55:00,25.75,2020-09-24 17:06:00,24.64,2020-09-24 06:50:00,26.7,2020-09-24 16:51:00
Mahottari,Jalesore,26.88333333,85.78333333,2020-09-24 00:00:00,Rain and humid throughout the day.,rain,2020-09-24 05:53:00,2020-09-24 17:57:00,0.27,0.5042,1.19,2020-09-24 11:44:00,0.94,rain,25.61,2020-09-24 17:05:00,22.63,2020-09-25 06:37:00,26.65,2020-09-24 16:49:00,23.99,2020-09-25 06:32:00,23.97,0.98,1006.3,2.85,6.95,1600893540,71,1.0,5,1600927920,14.526,254.8,23.07,2020-09-24 08:49:00,25.61,2020-09-24 17:05:00,24.64,2020-09-24 08:37:00,26.65,2020-09-24 16:49:00
Makwanpur,Daman,27.5599456,85.1386067,2020-09-24 00:00:00,Rain throughout the day.,rain,2020-09-24 05:55:00,2020-09-24 18:00:00,0.27,1.9369,4.3338,2020-09-24 11:26:00,0.91,rain,18.79,2020-09-24 13:40:00,15.25,2020-09-25 06:45:00,21.13,2020-09-24 13:31:00,17.61,2020-09-25 06:34:00,16.85,1.0,1008.1,1.15,2.63,1600920360,59,1.0,6,1600928100,9.138,250.9,15.23,2020-09-24 07:06:00,18.79,2020-09-24 13:40:00,17.83,2020-09-24 06:48:00,21.13,2020-09-24 13:31:00
Makwanpur,Hetanuda(Ind. Dist),27.619,85.1496,2020-09-24 00:00:00,Rain throughout the day.,rain,2020-09-24 05:55:00,2020-09-24 18:00:00,0.27,1.9217,3.9374,2020-09-24 11:07:00,0.9,rain,19.01,2020-09-24 12:54:00,15.85,2020-09-25 05:51:00,21.15,2020-09-24 12:51:00,17.84,2020-09-25 05:38:00,17.06,1.0,1008.3,1.1,2.88,1600921500,64,1.0,6,1600928100,8.436,250.6,15.75,2020-09-24 06:23:00,19.01,2020-09-24 12:54:00,17.96,2020-09-24 06:01:00,21.15,2020-09-24 12:51:00
Makwanpur,Makwanpur Gadhi,27.43333333,85.03333333,2020-09-24 00:00:00,Rain and humid throughout the day.,rain,2020-09-24 05:56:00,2020-09-24 18:00:00,0.27,1.8562,4.701,2020-09-24 11:35:00,0.94,rain,25.46,2020-09-24 15:40:00,21.12,2020-09-25 06:47:00,26.55,2020-09-24 14:37:00,22.73,2020-09-25 06:41:00,23.14,1.0,1007.4,1.47,4.64,1600925580,63,1.0,5,1600928160,10.338,252.2,21.41,2020-09-24 09:29:00,25.46,2020-09-24 15:40:00,23.38,2020-09-24 07:12:00,26.55,2020-09-24 14:37:00
Makwanpur,Manang Bhot,27.635081899999996,84.7416103,2020-09-24 00:00:00,Rain throughout the day.,rain,2020-09-24 05:57:00,2020-09-24 18:02:00,0.27,2.6787,4.8017,2020-09-24 11:35:00,0.95,rain,21.32,2020-09-24 12:03:00,18.95,2020-09-25 06:34:00,22.69,2020-09-24 12:17:00,20.25,2020-09-25 06:29:00,20.33,1.0,1008.0,1.21,2.76,1600947660,27,1.0,5,1600928160,8.322,252.4,19.32,2020-09-24 06:55:00,21.32,2020-09-24 12:03:00,20.57,2020-09-25 00:00:00,22.69,2020-09-24 12:17:00
Makwanpur,Markhu Gaun,27.4227,85.0279,2020-09-24 00:00:00,Rain and humid throughout the day.,rain,2020-09-24 05:56:00,2020-09-24 18:00:00,0.27,1.8313,4.6537,2020-09-24 11:35:00,0.94,rain,25.44,2020-09-24 15:41:00,21.14,2020-09-25 06:47:00,26.53,2020-09-24 14:36:00,22.74,2020-09-25 06:41:00,23.13,1.0,1007.4,1.52,5.0,1600925520,63,1.0,5,1600928160,10.444,252.3,21.41,2020-09-24 09:30:00,25.44,2020-09-24 15:41:00,23.39,2020-09-24 07:14:00,26.53,2020-09-24 14:36:00
Manang,Goga,28.63989694,84.08811583,2020-09-24 00:00:00,Foggy throughout the day.,rain,2020-09-24 05:59:00,2020-09-24 18:04:00,0.27,2.949,3.929,2020-09-24 07:49:00,0.65,rain,5.37,2020-09-24 19:00:00,4.75,2020-09-25 05:55:00,9.98,2020-09-24 17:01:00,3.95,2020-09-24 20:11:00,4.99,1.0,1010.6,1.37,2.72,1600928040,68,1.0,6,1600928400,2.409,242.3,4.08,2020-09-24 09:59:00,6.03,2020-09-24 21:45:00,3.12,2020-09-24 11:42:00,9.98,2020-09-24 17:01:00
Manang,Humde,28.66627083,84.02257194,2020-09-24 00:00:00,Foggy throughout the day.,rain,2020-09-24 06:00:00,2020-09-24 18:04:00,0.27,2.8082,3.6222,2020-09-24 07:57:00,0.64,rain,4.81,2020-09-24 19:00:00,4.01,2020-09-25 07:17:00,9.53,2020-09-24 17:01:00,4.0,2020-09-24 20:45:00,4.39,1.0,1010.6,1.32,2.99,1600903620,92,1.0,6,1600928460,1.787,242.1,3.53,2020-09-24 11:36:00,5.26,2020-09-24 21:38:00,2.56,2020-09-24 11:47:00,9.53,2020-09-24 17:01:00
Manang,Naar,28.76666667,84.28333333,2020-09-24 00:00:00,Foggy throughout the day.,rain,2020-09-24 05:59:00,2020-09-24 18:03:00,0.27,1.6098,2.0841,2020-09-24 11:27:00,0.62,rain,2.82,2020-09-24 17:53:00,1.98,2020-09-25 08:00:00,2.54,2020-09-24 17:53:00,2.25,2020-09-25 08:00:00,2.32,1.0,1010.8,0.96,2.98,1600895820,168,1.0,7,1600928400,0.182,241.3,1.17,2020-09-24 07:10:00,4.34,2020-09-24 21:55:00,1.44,2020-09-24 07:10:00,4.06,2020-09-24 21:55:00
Manang,Phu Gaun,28.55,84.2333333,2020-09-24 00:00:00,Rain in the morning.,rain,2020-09-24 05:59:00,2020-09-24 18:04:00,0.27,3.4285,4.9293,2020-09-24 07:43:00,0.67,rain,7.52,2020-09-24 19:00:00,6.9,2020-09-25 03:49:00,6.06,2020-09-24 07:00:00,5.89,2020-09-24 19:00:00,6.99,1.0,1010.8,1.69,3.57,1600927320,7,1.0,6,1600928400,4.542,243.2,6.02,2020-09-24 10:03:00,8.01,2020-09-24 21:40:00,5.02,2020-09-24 11:05:00,9.81,2020-09-24 04:45:00
Morang,Biratnagar,29.2160678,83.983333,2020-09-23 21:45:00,Foggy throughout the day.,rain,2020-09-24 06:00:00,2020-09-24 18:05:00,0.27,0.2089,0.3564,2020-09-23 21:45:00,0.52,rain,9.34,2020-09-24 12:54:00,2.19,2020-09-25 05:40:00,7.66,2020-09-24 12:56:00,2.46,2020-09-25 05:40:00,6.16,1.0,1009.6,1.95,4.09,1600915980,180,1.0,6,1600928400,1.428,242.6,3.58,2020-09-24 06:13:00,9.34,2020-09-24 12:54:00,2.34,2020-09-24 06:31:00,7.66,2020-09-24 12:56:00
Morang,Biratnagar Airport,26.61000889,87.37074778,2020-09-24 00:00:00,Rain and humid throughout the day.,rain,2020-09-24 05:46:00,2020-09-24 17:51:00,0.27,0.5398,3.4695,2020-09-24 00:00:00,0.94,rain,29.08,2020-09-24 15:09:00,23.05,2020-09-25 06:37:00,38.86,2020-09-24 15:17:00,24.66,2020-09-25 06:22:00,25.32,0.99,1007.0,2.62,6.52,1600892700,76,0.97,5,1600929180,15.2,254.4,23.12,2020-09-24 04:51:00,29.08,2020-09-24 15:09:00,24.6,2020-09-24 04:47:00,38.86,2020-09-24 15:17:00
Morang,Gam Shree Nagar,26.73416667,87.50166667,2020-09-24 00:00:00,"Rain until morning, starting again in the evening.",rain,2020-09-24 05:46:00,2020-09-24 17:51:00,0.27,0.7184,3.2651,2020-09-24 00:51:00,0.92,rain,30.26,2020-09-24 14:56:00,22.72,2020-09-25 07:00:00,48.38,2020-09-24 15:28:00,24.75,2020-09-25 06:54:00,25.61,1.0,1007.4,1.68,4.02,1600960080,73,0.96,5,1600929420,13.15,254.0,22.87,2020-09-24 06:58:00,30.26,2020-09-24 14:56:00,24.92,2020-09-24 06:49:00,48.38,2020-09-24 15:28:00
Morang,Haraincha,28.46717,84.37307390000001,2020-09-24 00:00:00,Rain until afternoon.,rain,2020-09-24 05:58:00,2020-09-24 18:03:00,0.27,2.9868,4.2552,2020-09-24 10:53:00,0.7,rain,9.85,2020-09-24 19:00:00,9.3,2020-09-24 19:00:00,12.47,2020-09-24 08:28:00,8.68,2020-09-24 19:00:00,9.28,1.0,1010.7,1.47,3.26,1600948980,18,1.0,6,1600928340,3.464,243.9,8.17,2020-09-24 09:50:00,10.98,2020-09-24 22:03:00,7.64,2020-09-24 10:06:00,12.77,2020-09-24 22:00:00
Morang,Letang,26.46666667,87.28333333,2020-09-24 00:00:00,Rain and humid throughout the day.,rain,2020-09-24 05:47:00,2020-09-24 17:51:00,0.27,0.524,3.8833,2020-09-24 00:00:00,0.95,rain,27.27,2020-09-24 14:49:00,22.69,2020-09-25 06:10:00,32.9,2020-09-24 14:16:00,24.16,2020-09-25 06:06:00,24.64,0.98,1006.5,3.68,9.9,1600892340,79,0.97,5,1600929540,15.672,254.6,22.77,2020-09-24 04:44:00,27.27,2020-09-24 14:49:00,24.16,2020-09-24 04:43:00,32.9,2020-09-24 14:16:00
Morang,Mugu,26.483967,87.26700600000001,2020-09-24 00:00:00,Rain and humid throughout the day.,rain,2020-09-24 05:47:00,2020-09-24 17:52:00,0.27,0.5112,3.798,2020-09-24 00:00:00,0.95,rain,27.28,2020-09-24 14:50:00,22.68,2020-09-25 06:11:00,32.94,2020-09-24 14:18:00,24.15,2020-09-25 06:07:00,24.64,0.98,1006.6,3.62,9.93,1600892700,80,0.97,5,1600929720,15.611,254.6,22.78,2020-09-24 04:45:00,27.28,2020-09-24 14:50:00,24.18,2020-09-24 04:44:00,32.94,2020-09-24 14:18:00
Mugu,Jomsom,29.50867889,81.89267389,2020-09-24 00:00:00,Mostly cloudy throughout the day.,rain,2020-09-24 06:08:00,2020-09-24 18:13:00,0.27,0.8549,2.0584,2020-09-24 02:46:00,0.6,rain,16.6,2020-09-24 12:53:00,9.96,2020-09-25 05:38:00,17.32,2020-09-24 13:01:00,10.22,2020-09-25 05:37:00,13.05,1.0,1009.9,0.67,2.74,1600942260,76,0.73,6,1600932060,14.553,251.0,9.81,2020-09-24 05:58:00,16.6,2020-09-24 12:53:00,10.77,2020-09-24 05:54:00,17.32,2020-09-24 13:01:00
Mugu,Mangri,29.540125,82.081825,2020-09-24 00:00:00,Overcast throughout the day.,rain,2020-09-24 06:08:00,2020-09-24 18:12:00,0.27,0.954,2.5153,2020-09-24 02:59:00,0.62,rain,12.86,2020-09-24 14:38:00,6.81,2020-09-25 05:39:00,15.38,2020-09-24 14:37:00,8.27,2020-09-25 05:35:00,9.14,1.0,1009.9,0.86,2.41,1600939380,92,0.84,6,1600931040,13.968,249.5,6.69,2020-09-24 05:57:00,12.86,2020-09-24 14:38:00,9.43,2020-09-25 00:00:00,15.38,2020-09-24 14:37:00
Mugu,Rara,29.75,82.55,2020-09-24 00:00:00,Foggy throughout the day.,rain,2020-09-24 06:06:00,2020-09-24 18:10:00,0.27,0.712,1.4768,2020-09-24 03:23:00,0.6,rain,3.45,2020-09-24 13:33:00,-1.12,2020-09-25 05:22:00,1.6,2020-09-24 13:08:00,-1.22,2020-09-24 21:20:00,0.94,1.0,1010.0,1.32,3.6,1600939260,358,1.0,7,1600928760,3.107,245.2,-1.04,2020-09-24 06:13:00,3.45,2020-09-24 13:33:00,-1.22,2020-09-24 21:20:00,1.6,2020-09-24 13:08:00
Mugu,Seroge,29.58904306,82.30580306,2020-09-24 00:00:00,Overcast throughout the day.,rain,2020-09-24 06:07:00,2020-09-24 18:11:00,0.27,0.9578,2.1686,2020-09-24 03:59:00,0.6,rain,11.81,2020-09-24 14:45:00,7.6,2020-09-25 05:43:00,13.13,2020-09-24 14:45:00,7.87,2020-09-25 05:43:00,9.12,1.0,1010.0,1.16,2.8,1600938660,70,0.95,6,1600929180,12.534,247.2,7.46,2020-09-24 06:07:00,11.81,2020-09-24 14:45:00,8.45,2020-09-25 00:00:00,13.13,2020-09-24 14:45:00
Mustang,Lete,28.78401111,83.72981667,2020-09-24 00:00:00,Foggy throughout the day.,rain,2020-09-24 06:01:00,2020-09-24 18:06:00,0.27,1.7251,2.2524,2020-09-24 06:09:00,0.63,rain,8.12,2020-09-24 15:52:00,5.48,2020-09-24 23:57:00,10.8,2020-09-24 15:27:00,7.45,2020-09-25 01:28:00,6.35,1.0,1010.5,0.75,2.03,1600896060,186,1.0,6,1600928520,3.69,242.7,5.3,2020-09-24 08:46:00,8.12,2020-09-24 15:52:00,7.56,2020-09-25 00:00:00,10.8,2020-09-24 15:27:00
Mustang,Mustang(Lomangthang),28.81555556,83.86222222,2020-09-24 00:00:00,Foggy throughout the day.,rain,2020-09-24 06:00:00,2020-09-24 18:05:00,0.27,1.5494,1.9016,2020-09-24 06:06:00,0.6,rain,6.28,2020-09-24 15:55:00,4.25,2020-09-25 05:46:00,10.07,2020-09-24 15:23:00,6.38,2020-09-25 05:18:00,4.91,1.0,1010.5,0.98,2.69,1600899960,164,1.0,6,1600928460,2.417,242.2,3.71,2020-09-24 07:40:00,6.28,2020-09-24 15:55:00,3.89,2020-09-24 06:06:00,10.07,2020-09-24 15:23:00
Mustang,Ranipauwa (M.Nath),28.73887222,83.68183333,2020-09-24 00:00:00,Foggy throughout the day.,rain,2020-09-24 06:01:00,2020-09-24 18:06:00,0.27,2.0533,2.7734,2020-09-24 06:02:00,0.64,rain,8.15,2020-09-24 15:58:00,5.81,2020-09-25 00:09:00,11.09,2020-09-24 14:57:00,7.67,2020-09-25 01:30:00,6.55,1.0,1010.5,0.67,1.98,1600895520,199,1.0,6,1600928520,3.883,242.8,5.47,2020-09-24 09:01:00,8.15,2020-09-24 15:58:00,7.85,2020-09-25 00:00:00,11.09,2020-09-24 14:57:00
Mustang,Tatopani,28.9,83.68333333,2020-09-24 00:00:00,Foggy throughout the day.,rain,2020-09-24 06:01:00,2020-09-24 18:06:00,0.27,1.156,1.7053,2020-09-24 05:49:00,0.58,rain,5.7,2020-09-24 15:53:00,3.6,2020-09-25 05:42:00,10.85,2020-09-24 15:27:00,3.87,2020-09-25 05:42:00,4.76,1.0,1010.4,1.01,2.67,1600900200,191,1.0,6,1600928460,1.682,241.9,3.58,2020-09-24 06:10:00,5.7,2020-09-24 15:53:00,3.59,2020-09-24 06:06:00,10.85,2020-09-24 15:27:00
Myagdi,Bega,28.4,83.73333333,2020-09-24 00:00:00,Rain throughout the day.,rain,2020-09-24 06:01:00,2020-09-24 18:06:00,0.27,3.4748,4.8308,2020-09-24 03:12:00,0.8,rain,13.13,2020-09-24 13:07:00,9.53,2020-09-25 01:32:00,19.74,2020-09-24 14:32:00,14.36,2020-09-25 02:01:00,10.55,1.0,1009.7,0.89,2.19,1600937760,29,1.0,6,1600928460,8.042,246.9,8.87,2020-09-24 07:43:00,13.13,2020-09-24 13:07:00,15.03,2020-09-25 00:00:00,19.74,2020-09-24 14:32:00
Myagdi,Beni Bazar,29.22713194,83.979815,2020-09-23 21:45:00,Foggy throughout the day.,rain,2020-09-24 06:00:00,2020-09-24 18:05:00,0.27,0.2017,0.3547,2020-09-23 21:45:00,0.52,rain,9.19,2020-09-24 12:57:00,1.9,2020-09-25 05:38:00,7.46,2020-09-24 12:59:00,2.17,2020-09-25 05:38:00,6.01,1.0,1009.6,1.98,4.16,1600916100,180,1.0,6,1600928400,1.397,242.6,3.37,2020-09-24 06:14:00,9.19,2020-09-24 12:57:00,2.06,2020-09-24 06:33:00,7.46,2020-09-24 12:59:00
Myagdi,Dumkauli,28.56666667,83.38333333,2020-09-24 00:00:00,Rain in the morning and afternoon.,rain,2020-09-24 06:02:00,2020-09-24 18:07:00,0.27,2.8273,4.4082,2020-09-24 03:15:00,0.69,rain,10.9,2020-09-24 11:52:00,9.58,2020-09-25 04:55:00,13.09,2020-09-24 13:23:00,9.11,2020-09-25 05:16:00,10.01,1.0,1010.1,1.47,2.82,1600915980,14,1.0,6,1600928520,6.511,245.4,9.39,2020-09-24 05:48:00,10.9,2020-09-24 11:52:00,9.03,2020-09-24 17:21:00,13.09,2020-09-24 13:23:00
Myagdi,Ghorepani,28.35083333,83.56666667,2020-09-24 00:00:00,Rain throughout the day.,rain,2020-09-24 06:02:00,2020-09-24 18:06:00,0.27,3.1716,5.0807,2020-09-24 03:04:00,0.86,rain,17.37,2020-09-24 12:08:00,14.32,2020-09-25 01:41:00,18.69,2020-09-24 12:17:00,14.89,2020-09-25 01:44:00,15.34,1.0,1009.6,1.23,2.45,1600937700,6,1.0,5,1600928520,7.612,248.2,14.3,2020-09-24 03:04:00,17.37,2020-09-24 12:08:00,15.07,2020-09-25 00:00:00,18.69,2020-09-24 12:17:00
Myagdi,Muna,28.44271389,83.576185,2020-09-24 00:00:00,Rain throughout the day.,rain,2020-09-24 06:02:00,2020-09-24 18:06:00,0.27,3.2149,4.599,2020-09-24 03:16:00,0.77,rain,15.14,2020-09-24 12:01:00,12.69,2020-09-25 05:36:00,17.22,2020-09-24 12:11:00,14.3,2020-09-25 05:18:00,13.19,1.0,1010.0,1.35,3.07,1600938420,12,1.0,6,1600928520,7.992,247.1,11.79,2020-09-24 06:50:00,15.14,2020-09-24 12:01:00,14.52,2020-09-24 06:38:00,17.22,2020-09-24 12:11:00
Nawalparasi,Bara Ghat,27.680675,84.22854170000001,2020-09-24 00:00:00,Heavy rain and humid throughout the day.,rain,2020-09-24 05:59:00,2020-09-24 18:04:00,0.27,4.495,8.6464,2020-09-24 00:06:00,0.99,rain,23.51,2020-09-24 15:44:00,18.86,2020-09-25 06:34:00,24.56,2020-09-24 15:44:00,20.01,2020-09-25 06:32:00,21.49,1.0,1007.7,2.35,5.37,1600948320,14,1.0,5,1600928280,6.578,253.1,19.88,2020-09-24 08:01:00,23.51,2020-09-24 15:44:00,21.37,2020-09-24 07:47:00,24.56,2020-09-24 15:44:00
Nawalparasi,Dumkibas,27.51925,83.66218333,2020-09-24 00:00:00,Heavy rain and humid throughout the day.,rain,2020-09-24 06:01:00,2020-09-24 18:06:00,0.27,4.863,9.7613,2020-09-24 02:43:00,1.0,rain,23.09,2020-09-24 14:54:00,20.6,2020-09-25 05:41:00,24.08,2020-09-24 14:47:00,21.79,2020-09-25 05:38:00,22.18,0.99,1006.0,3.29,10.04,1600904100,46,1.0,5,1600928340,7.011,254.0,21.23,2020-09-24 08:41:00,23.37,2020-09-24 00:00:00,22.74,2020-09-24 08:32:00,24.08,2020-09-24 14:47:00
Nawalparasi,Parasi,27.67488333,84.07438333,2020-09-24 00:00:00,Heavy rain and humid throughout the day.,rain,2020-09-24 06:00:00,2020-09-24 18:04:00,0.27,4.8223,9.0868,2020-09-24 00:10:00,0.99,rain,22.68,2020-09-24 15:36:00,18.82,2020-09-25 06:28:00,23.71,2020-09-24 15:37:00,19.96,2020-09-25 06:25:00,21.07,1.0,1007.5,2.55,5.58,1600946460,16,1.0,5,1600928280,6.182,253.0,19.44,2020-09-24 08:07:00,22.68,2020-09-24 15:36:00,20.9,2020-09-24 07:53:00,23.71,2020-09-24 15:37:00
Nawalparasi,Rambas,27.56666667,82.95,2020-09-24 00:00:00,Heavy rain and humid throughout the day.,rain,2020-09-24 06:04:00,2020-09-24 18:09:00,0.27,5.291,10.9543,2020-09-24 01:19:00,1.0,rain,23.53,2020-09-24 16:47:00,21.5,2020-09-25 01:48:00,24.63,2020-09-24 16:41:00,22.5,2020-09-25 01:46:00,22.71,0.99,1005.1,4.0,12.45,1600895280,51,1.0,5,1600928460,5.262,254.0,21.69,2020-09-25 00:00:00,24.15,2020-09-24 00:00:00,22.7,2020-09-25 00:00:00,24.83,2020-09-24 00:00:00
Nawalparasi,Trisuli,27.68333333,84.13333333,2020-09-24 00:00:00,Heavy rain and humid throughout the day.,rain,2020-09-24 05:59:00,2020-09-24 18:04:00,0.27,4.7061,8.9341,2020-09-24 00:09:00,0.99,rain,22.92,2020-09-24 15:37:00,18.83,2020-09-25 06:36:00,23.97,2020-09-24 15:38:00,19.99,2020-09-25 06:33:00,21.07,1.0,1007.6,2.43,5.39,1600947420,15,1.0,5,1600928280,6.259,253.0,19.52,2020-09-24 08:18:00,22.92,2020-09-24 15:37:00,21.01,2020-09-24 07:54:00,23.97,2020-09-24 15:38:00
Nuwakot,Kakani,27.91666667,85.15,2020-09-24 00:00:00,Rain and humid throughout the day.,rain,2020-09-24 05:55:00,2020-09-24 18:00:00,0.27,1.7286,3.8036,2020-09-24 14:39:00,0.86,rain,23.08,2020-09-24 11:49:00,18.87,2020-09-25 06:21:00,24.59,2020-09-24 11:55:00,20.33,2020-09-25 06:16:00,20.76,1.0,1009.2,0.87,3.05,1600927680,59,1.0,5,1600928040,7.629,249.6,18.68,2020-09-24 06:45:00,23.08,2020-09-24 11:49:00,20.55,2020-09-24 06:41:00,24.59,2020-09-24 11:55:00
Nuwakot,Mane Bhanjyang,28.02851111,85.10623056,2020-09-24 00:00:00,Rain throughout the day.,rain,2020-09-24 05:55:00,2020-09-24 18:00:00,0.27,1.8357,4.2266,2020-09-24 14:42:00,0.85,rain,18.33,2020-09-24 11:55:00,14.4,2020-09-25 04:06:00,21.83,2020-09-24 12:11:00,17.2,2020-09-25 03:50:00,15.8,1.0,1009.6,0.83,2.64,1600894560,39,1.0,6,1600928040,7.234,249.0,14.35,2020-09-24 06:02:00,18.33,2020-09-24 11:55:00,17.84,2020-09-25 00:00:00,21.83,2020-09-24 12:11:00
Nuwakot,Pansayakhola,27.816970299999998,85.2323034,2020-09-24 00:00:00,Rain throughout the day.,rain,2020-09-24 05:55:00,2020-09-24 18:00:00,0.27,1.6393,3.3292,2020-09-24 09:09:00,0.86,rain,18.38,2020-09-24 11:52:00,14.64,2020-09-25 05:37:00,20.56,2020-09-24 12:02:00,16.76,2020-09-25 04:40:00,15.85,1.0,1009.0,1.0,3.83,1600926780,85,1.0,6,1600928040,7.563,249.6,14.54,2020-09-24 06:20:00,18.38,2020-09-24 11:52:00,16.89,2020-09-25 00:00:00,20.56,2020-09-24 12:02:00
Nuwakot,Ranipauwa,27.914975,85.16463889,2020-09-24 00:00:00,Rain throughout the day.,rain,2020-09-24 05:55:00,2020-09-24 18:00:00,0.27,1.7009,3.7592,2020-09-24 14:39:00,0.86,rain,22.14,2020-09-24 11:56:00,18.04,2020-09-25 05:56:00,23.77,2020-09-24 12:07:00,19.68,2020-09-25 05:47:00,20.0,1.0,1009.2,0.88,3.14,1600927500,62,1.0,5,1600928040,7.771,249.5,18.06,2020-09-24 06:44:00,22.14,2020-09-24 11:56:00,20.17,2020-09-24 06:29:00,23.77,2020-09-24 12:07:00
