district,formal_name,lat,long,time,summary,icon,sunriseTime,sunsetTime,moonPhase,precipIntensity,precipIntensityMax,precipIntensityMaxTime,precipProbability,precipType,temperatureHigh,temperatureHighTime,temperatureLow,temperatureLowTime,apparentTemperatureHigh,apparentTemperatureHighTime,apparentTemperatureLow,apparentTemperatureLowTime,dewPoint,humidity,pressure,windSpeed,windGust,windGustTime,windBearing,cloudCover,uvIndex,uvIndexTime,visibility,ozone,temperatureMin,temperatureMinTime,temperatureMax,temperatureMaxTime,apparentTemperatureMin,apparentTemperatureMinTime,apparentTemperatureMax,apparentTemperatureMaxTime,precipAccumulation
Achham,Asara Ghat,28.95029444,81.44431944,2021-04-06 00:00:00,Partly cloudy throughout the day.,partly-cloudy-day,2021-04-06 06:04:00,2021-04-06 18:41:00,0.83,0.0146,0.1063,2021-04-06 14:45:00,0.03,rain,34.22,2021-04-06 14:04:00,18.07,2021-04-07 05:52:00,33.94,2021-04-06 14:04:00,18.34,2021-04-07 05:52:00,1.74,0.23,1010.7,2.52,6.78,1617693360,0,0.31,10,1617692700,16.093,276.9,18.2,2021-04-06 06:09:00,34.22,2021-04-06 14:04:00,18.47,2021-04-06 06:09:00,33.94,2021-04-06 14:04:00,
Achham,Basti,29.03098333,81.17113333,2021-04-06 00:00:00,Partly cloudy throughout the day.,partly-cloudy-day,2021-04-06 06:05:00,2021-04-06 18:42:00,0.83,0.0324,0.1632,2021-04-06 14:47:00,0.05,rain,35.22,2021-04-06 13:55:00,18.08,2021-04-07 05:44:00,34.94,2021-04-06 13:55:00,18.35,2021-04-07 05:44:00,4.94,0.29,1010.9,2.09,6.21,1617692700,344,0.4,10,1617692100,16.093,277.6,17.85,2021-04-06 06:10:00,35.22,2021-04-06 13:55:00,18.12,2021-04-06 06:10:00,34.94,2021-04-06 13:55:00,
Achham,Mangalsen,29.13611389,81.25009167,2021-04-06 00:00:00,Partly cloudy throughout the day.,partly-cloudy-day,2021-04-06 06:05:00,2021-04-06 18:42:00,0.83,0.0504,0.2395,2021-04-06 14:48:00,0.06,rain,30.5,2021-04-06 13:13:00,15.47,2021-04-07 05:42:00,30.22,2021-04-06 13:13:00,15.74,2021-04-07 05:42:00,3.22,0.32,1011.5,2.22,6.68,1617692280,6,0.44,10,1617692340,16.093,277.2,15.59,2021-04-06 06:02:00,30.5,2021-04-06 13:13:00,15.86,2021-04-06 06:02:00,30.22,2021-04-06 13:13:00,
Achham,Sugali,29.17980694,81.37293889,2021-04-06 00:00:00,Partly cloudy throughout the day.,partly-cloudy-day,2021-04-06 06:04:00,2021-04-06 18:42:00,0.83,0.0819,0.3056,2021-04-07 00:00:00,0.09,rain,26.96,2021-04-06 13:00:00,12.85,2021-04-07 05:41:00,26.68,2021-04-06 13:00:00,13.12,2021-04-07 05:41:00,2.34,0.35,1012.9,2.56,6.86,1617691260,16,0.53,10,1617692340,16.093,275.8,13.11,2021-04-06 05:58:00,26.96,2021-04-06 13:00:00,13.38,2021-04-06 05:58:00,26.68,2021-04-06 13:00:00,
Arghakhanchi,Rangsing,27.80330278,82.78400833,2021-04-06 00:00:00,Clear throughout the day.,clear-day,2021-04-06 06:00:00,2021-04-06 18:35:00,0.83,0.0012,0.0051,2021-04-06 02:45:00,0.01,rain,36.84,2021-04-06 15:39:00,22.14,2021-04-07 05:17:00,36.56,2021-04-06 15:39:00,22.41,2021-04-07 05:17:00,-1.4,0.16,1008.3,2.45,6.43,1617700560,66,0.05,11,1617688740,16.093,276.1,19.31,2021-04-06 05:25:00,36.84,2021-04-06 15:39:00,19.58,2021-04-06 05:25:00,36.56,2021-04-06 15:39:00,
Arghakhanchi,Sandhikharka,27.96402222,83.12056944,2021-04-06 00:00:00,Clear throughout the day.,clear-day,2021-04-06 05:58:00,2021-04-06 18:34:00,0.83,0.005,0.0424,2021-04-06 14:45:00,0.02,rain,31.02,2021-04-06 13:57:00,17.43,2021-04-07 04:40:00,30.74,2021-04-06 13:57:00,17.7,2021-04-07 04:40:00,-1.29,0.22,1010.4,2.27,7.04,1617701820,51,0.09,10,1617688440,16.093,274.4,15.31,2021-04-06 05:33:00,31.02,2021-04-06 13:57:00,15.58,2021-04-06 05:33:00,30.74,2021-04-06 13:57:00,
Arghakhanchi,Sidhara,27.7945,82.82838333,2021-04-06 00:00:00,Clear throughout the day.,clear-day,2021-04-06 05:59:00,2021-04-06 18:35:00,0.83,0.0011,0.0051,2021-04-06 02:45:00,0.01,rain,36.13,2021-04-06 15:35:00,22.34,2021-04-07 05:24:00,35.85,2021-04-06 15:35:00,22.61,2021-04-07 05:24:00,-1.84,0.15,1008.2,2.45,6.26,1617700560,66,0.05,11,1617688680,16.093,276.2,19.59,2021-04-06 05:32:00,36.13,2021-04-06 15:35:00,19.86,2021-04-06 05:32:00,35.85,2021-04-06 15:35:00,
Baglung,Baglung,28.26363611,83.60032222,2021-04-06 00:00:00,Partly cloudy throughout the day.,partly-cloudy-day,2021-04-06 05:56:00,2021-04-06 18:32:00,0.83,0.0324,0.3019,2021-04-06 16:47:00,0.03,rain,28.33,2021-04-06 14:03:00,16.0,2021-04-07 00:26:00,28.05,2021-04-06 14:03:00,16.27,2021-04-07 00:26:00,0.67,0.29,1013.6,2.39,5.54,1617696120,330,0.34,9,1617688200,16.093,272.5,13.52,2021-04-06 05:42:00,28.33,2021-04-06 14:03:00,13.79,2021-04-06 05:42:00,28.05,2021-04-06 14:03:00,
Baglung,Dhorpatan,28.48333333,83.08333333,2021-04-06 00:00:00,Partly cloudy throughout the day.,partly-cloudy-day,2021-04-06 05:58:00,2021-04-06 18:34:00,0.83,0.0693,0.4894,2021-04-06 15:57:00,0.1,rain,14.56,2021-04-06 10:55:00,6.57,2021-04-07 05:45:00,14.28,2021-04-06 10:55:00,4.85,2021-04-07 01:41:00,-3.37,0.42,1015.2,2.65,5.8,1617691560,317,0.32,10,1617688500,16.093,268.5,4.75,2021-04-06 05:49:00,14.56,2021-04-06 10:55:00,2.67,2021-04-06 05:45:00,14.28,2021-04-06 10:55:00,
Baglung,Galkot,28.21869167,83.41881111,2021-04-06 00:00:00,Partly cloudy throughout the day.,partly-cloudy-day,2021-04-06 05:57:00,2021-04-06 18:33:00,0.83,0.0385,0.3992,2021-04-06 16:45:00,0.03,rain,27.78,2021-04-06 13:55:00,14.01,2021-04-07 03:45:00,27.5,2021-04-06 13:55:00,14.28,2021-04-07 03:45:00,0.26,0.31,1013.1,2.31,6.48,1617704820,326,0.28,9,1617686340,16.093,272.5,11.36,2021-04-06 05:42:00,27.78,2021-04-06 13:55:00,11.63,2021-04-06 05:42:00,27.5,2021-04-06 13:55:00,
Baglung,Rangkhani,28.14408889,83.55824444,2021-04-06 00:00:00,Partly cloudy throughout the day.,partly-cloudy-day,2021-04-06 05:56:00,2021-04-06 18:32:00,0.83,0.0234,0.2142,2021-04-06 16:47:00,0.03,rain,25.38,2021-04-06 13:54:00,14.1,2021-04-07 04:40:00,25.1,2021-04-06 13:54:00,14.37,2021-04-07 04:40:00,-2.69,0.26,1011.8,2.13,5.88,1617696540,333,0.29,9,1617686880,16.093,273.2,11.68,2021-04-06 05:44:00,25.38,2021-04-06 13:54:00,11.95,2021-04-06 05:44:00,25.1,2021-04-06 13:54:00,
Baitadi,Patan (West),29.467137,80.54575109999999,2021-04-06 00:00:00,Mostly cloudy throughout the day.,partly-cloudy-day,2021-04-06 06:08:00,2021-04-06 18:45:00,0.83,0.0583,0.3377,2021-04-06 08:45:00,0.07,rain,29.51,2021-04-06 13:52:00,13.22,2021-04-07 05:11:00,29.23,2021-04-06 13:52:00,13.49,2021-04-07 05:11:00,5.05,0.43,1012.6,1.76,6.74,1617692580,28,0.64,9,1617689220,16.093,278.0,12.11,2021-04-06 05:43:00,29.51,2021-04-06 13:52:00,12.38,2021-04-06 05:43:00,29.23,2021-04-06 13:52:00,
Baitadi,Satbanjh,29.4973,80.49741194,2021-04-06 00:00:00,Mostly cloudy throughout the day.,partly-cloudy-day,2021-04-06 06:08:00,2021-04-06 18:45:00,0.83,0.0546,0.3611,2021-04-06 08:46:00,0.07,rain,25.93,2021-04-06 13:47:00,10.8,2021-04-07 05:36:00,25.65,2021-04-06 13:47:00,11.07,2021-04-07 05:36:00,2.12,0.44,1012.4,1.74,6.85,1617692700,29,0.64,10,1617689100,16.093,278.2,9.7,2021-04-06 05:42:00,25.93,2021-04-06 13:47:00,9.34,2021-04-06 05:43:00,25.65,2021-04-06 13:47:00,
Bajhang,Chainpur (West),29.55,81.21666667,2021-04-06 00:00:00,Mostly cloudy throughout the day.,partly-cloudy-day,2021-04-06 06:05:00,2021-04-06 18:42:00,0.83,0.1917,1.0307,2021-04-07 00:00:00,0.26,rain,24.66,2021-04-06 12:55:00,10.98,2021-04-07 05:31:00,24.38,2021-04-06 12:55:00,11.25,2021-04-07 05:31:00,5.67,0.54,1016.0,2.13,6.15,1617690060,29,0.67,8,1617690240,16.093,274.6,10.81,2021-04-06 06:00:00,24.66,2021-04-06 12:55:00,11.08,2021-04-06 06:00:00,24.38,2021-04-06 12:55:00,
Bajhang,Chainpur Bajhang Aws Climate,29.545890000000004,81.20114000000001,2021-04-06 00:00:00,Mostly cloudy throughout the day.,partly-cloudy-day,2021-04-06 06:05:00,2021-04-06 18:42:00,0.83,0.1848,1.0137,2021-04-07 00:00:00,0.25,rain,25.21,2021-04-06 12:53:00,11.37,2021-04-07 05:31:00,24.93,2021-04-06 12:53:00,11.64,2021-04-07 05:31:00,5.65,0.53,1015.9,2.13,6.26,1617690000,29,0.68,8,1617690240,16.093,274.7,11.19,2021-04-06 05:59:00,25.21,2021-04-06 12:53:00,11.46,2021-04-06 05:59:00,24.93,2021-04-06 12:53:00,
Bajhang,Kalukheti,29.447359999999996,81.16838,2021-04-06 00:00:00,Mostly cloudy throughout the day.,partly-cloudy-day,2021-04-06 06:05:00,2021-04-06 18:43:00,0.83,0.1082,0.7776,2021-04-07 00:00:00,0.13,rain,27.45,2021-04-06 12:52:00,12.03,2021-04-07 05:34:00,27.17,2021-04-06 12:52:00,12.3,2021-04-07 05:34:00,5.81,0.48,1014.3,2.16,6.79,1617689880,34,0.63,9,1617691380,16.093,275.9,12.16,2021-04-06 06:09:00,27.45,2021-04-06 12:52:00,12.43,2021-04-06 06:09:00,27.17,2021-04-06 12:52:00,
Bajhang,Rayal,29.464595000000003,80.95405,2021-04-06 00:00:00,Mostly cloudy throughout the day.,partly-cloudy-day,2021-04-06 06:06:00,2021-04-06 18:43:00,0.83,0.1058,0.7008,2021-04-06 23:49:00,0.11,rain,30.02,2021-04-06 12:50:00,15.24,2021-04-07 05:27:00,29.74,2021-04-06 12:50:00,15.51,2021-04-07 05:27:00,6.51,0.43,1013.8,1.95,6.95,1617690180,33,0.68,9,1617691320,16.093,276.5,14.86,2021-04-06 05:55:00,30.02,2021-04-06 12:50:00,15.13,2021-04-06 05:55:00,29.74,2021-04-06 12:50:00,
Bajura,Bajura (Martadi),29.45697889,81.48038389,2021-04-06 00:00:00,Mostly cloudy throughout the day.,partly-cloudy-day,2021-04-06 06:04:00,2021-04-06 18:41:00,0.83,0.1299,0.811,2021-04-07 00:00:00,0.21,rain,24.22,2021-04-06 13:26:00,10.36,2021-04-07 01:38:00,23.94,2021-04-06 13:26:00,10.63,2021-04-07 01:38:00,5.13,0.54,1016.3,2.31,6.39,1617691320,36,0.73,8,1617692460,16.093,273.7,10.06,2021-04-06 05:45:00,24.22,2021-04-06 13:26:00,10.33,2021-04-06 05:45:00,23.94,2021-04-06 13:26:00,
Bajura,Kailasmandu,29.35291694,81.33385889,2021-04-06 00:00:00,Mostly cloudy throughout the day.,partly-cloudy-day,2021-04-06 06:04:00,2021-04-06 18:42:00,0.83,0.1059,0.5997,2021-04-07 00:00:00,0.13,rain,28.63,2021-04-06 12:56:00,13.71,2021-04-07 05:31:00,28.35,2021-04-06 12:56:00,13.98,2021-04-07 05:31:00,5.71,0.43,1014.4,2.4,6.85,1617690000,28,0.62,9,1617692160,16.093,275.3,13.92,2021-04-06 05:53:00,28.63,2021-04-06 12:56:00,14.19,2021-04-06 05:53:00,28.35,2021-04-06 12:56:00,
Bajura,Kolti,29.50348694,81.66617611,2021-04-06 00:00:00,Mostly cloudy throughout the day.,partly-cloudy-day,2021-04-06 06:03:00,2021-04-06 18:41:00,0.83,0.1146,0.7457,2021-04-07 00:00:00,0.21,rain,23.88,2021-04-06 13:50:00,9.62,2021-04-07 05:43:00,23.6,2021-04-06 13:50:00,8.99,2021-04-07 05:45:00,4.75,0.56,1016.7,1.75,6.29,1617689700,8,0.73,8,1617691740,16.093,274.1,8.5,2021-04-06 05:49:00,23.88,2021-04-06 13:50:00,8.12,2021-04-06 05:53:00,23.6,2021-04-06 13:50:00,
Banke,Amlekhganj,27.94748333,81.78569444,2021-04-06 00:15:00,Clear throughout the day.,clear-day,2021-04-06 06:04:00,2021-04-06 18:39:00,0.83,0.0091,0.1256,2021-04-06 23:56:00,0.03,rain,39.63,2021-04-06 16:09:00,21.75,2021-04-07 05:28:00,39.35,2021-04-06 16:09:00,22.02,2021-04-07 05:28:00,-3.54,0.13,1007.1,2.65,5.15,1617678720,109,0.14,10,1617691860,16.093,278.0,19.47,2021-04-06 04:56:00,39.63,2021-04-06 16:09:00,19.74,2021-04-06 04:56:00,39.35,2021-04-06 16:09:00,
Banke,Dhakeri,28.10055556,81.66824722,2021-04-06 00:15:00,Clear throughout the day.,clear-day,2021-04-06 06:04:00,2021-04-06 18:40:00,0.83,0.005,0.0633,2021-04-07 00:05:00,0.03,rain,39.12,2021-04-06 16:04:00,22.16,2021-04-07 05:24:00,38.84,2021-04-06 16:04:00,22.43,2021-04-07 05:24:00,-3.23,0.13,1007.2,2.58,5.09,1617704820,100,0.14,10,1617691620,16.093,278.3,20.19,2021-04-06 05:07:00,39.12,2021-04-06 16:04:00,20.46,2021-04-06 05:07:00,38.84,2021-04-06 16:04:00,
Banke,Khajura (Nepalganj),28.11368333,81.59030556,2021-04-06 00:15:00,Clear throughout the day.,clear-day,2021-04-06 06:04:00,2021-04-06 18:40:00,0.83,0.0043,0.0492,2021-04-06 23:59:00,0.03,rain,38.99,2021-04-06 16:09:00,22.09,2021-04-07 05:24:00,38.71,2021-04-06 16:09:00,22.36,2021-04-07 05:24:00,-3.33,0.13,1007.1,2.69,5.09,1617702780,101,0.16,10,1617691440,16.093,278.4,20.28,2021-04-06 05:07:00,38.99,2021-04-06 16:09:00,20.55,2021-04-06 05:07:00,38.71,2021-04-06 16:09:00,
Banke,Naubasta,28.230225,81.65270278,2021-04-06 00:00:00,Clear throughout the day.,clear-day,2021-04-06 06:04:00,2021-04-06 18:40:00,0.83,0.0018,0.0176,2021-04-07 00:00:00,0.02,rain,38.71,2021-04-06 15:43:00,23.11,2021-04-07 05:08:00,38.43,2021-04-06 15:43:00,23.38,2021-04-07 05:08:00,-2.78,0.13,1007.4,2.38,5.4,1617701220,86,0.12,10,1617691560,16.093,278.3,21.2,2021-04-06 05:35:00,38.71,2021-04-06 15:43:00,21.47,2021-04-06 05:35:00,38.43,2021-04-06 15:43:00,
Banke,Nepalgunj Airport,28.051994399999995,81.6228389,2021-04-06 00:15:00,Clear throughout the day.,clear-day,2021-04-06 06:04:00,2021-04-06 18:40:00,0.83,0.0057,0.071,2021-04-06 23:57:00,0.03,rain,39.27,2021-04-06 16:07:00,21.7,2021-04-07 05:29:00,38.99,2021-04-06 16:07:00,21.97,2021-04-07 05:29:00,-3.54,0.13,1007.0,2.76,4.98,1617704580,105,0.16,10,1617691560,16.093,278.3,19.79,2021-04-06 04:56:00,39.27,2021-04-06 16:07:00,20.06,2021-04-06 04:56:00,38.99,2021-04-06 16:07:00,
Bara,Gulariya,27.164166700000003,84.98,2021-04-06 00:00:00,Clear throughout the day.,clear-day,2021-04-06 05:51:00,2021-04-06 18:26:00,0.83,0.0008,0.0051,2021-04-06 02:45:00,0.01,rain,37.46,2021-04-06 15:17:00,23.17,2021-04-07 05:29:00,37.18,2021-04-06 15:17:00,23.44,2021-04-07 05:29:00,2.07,0.18,1008.2,2.49,4.49,1617679440,68,0.11,10,1617687180,16.093,274.8,21.79,2021-04-06 05:06:00,37.46,2021-04-06 15:17:00,22.06,2021-04-06 05:06:00,37.18,2021-04-06 15:17:00,
Bara,Kalaiya,27.079,84.9329,2021-04-06 00:00:00,Clear throughout the day.,clear-day,2021-04-06 05:51:00,2021-04-06 18:26:00,0.83,0.0008,0.0051,2021-04-06 02:45:00,0.02,rain,37.99,2021-04-06 14:58:00,22.47,2021-04-07 05:32:00,37.71,2021-04-06 14:58:00,22.74,2021-04-07 05:32:00,1.81,0.18,1008.0,2.55,5.11,1617678840,77,0.1,10,1617689700,16.093,274.9,20.79,2021-04-06 04:45:00,37.99,2021-04-06 14:58:00,21.06,2021-04-06 04:45:00,37.71,2021-04-06 14:58:00,
Bara,Nijgadh,27.16416667,84.98,2021-04-06 00:00:00,Clear throughout the day.,clear-day,2021-04-06 05:51:00,2021-04-06 18:26:00,0.83,0.0008,0.0051,2021-04-06 02:45:00,0.01,rain,37.46,2021-04-06 15:17:00,23.17,2021-04-07 05:29:00,37.18,2021-04-06 15:17:00,23.44,2021-04-07 05:29:00,2.07,0.18,1008.2,2.49,4.49,1617679440,68,0.11,10,1617687180,16.093,274.8,21.79,2021-04-06 05:06:00,37.46,2021-04-06 15:17:00,22.06,2021-04-06 05:06:00,37.18,2021-04-06 15:17:00,
Bara,Parwanipur,27.20300556,85.170475,2021-04-06 00:00:00,Clear throughout the day.,clear-day,2021-04-06 05:50:00,2021-04-06 18:25:00,0.83,0.0007,0.0051,2021-04-06 02:45:00,0.01,rain,37.12,2021-04-06 15:06:00,22.77,2021-04-07 05:28:00,36.84,2021-04-06 15:06:00,23.04,2021-04-07 05:28:00,2.71,0.19,1008.5,2.39,4.55,1617710220,57,0.13,10,1617686220,16.093,274.8,21.68,2021-04-06 05:13:00,37.12,2021-04-06 15:06:00,21.95,2021-04-06 05:13:00,36.84,2021-04-06 15:06:00,
Bara,Simara Airport,27.2813,84.9919,2021-04-06 00:00:00,Clear throughout the day.,clear-day,2021-04-06 05:51:00,2021-04-06 18:26:00,0.83,0.0018,0.0102,2021-04-06 11:58:00,0.01,rain,35.53,2021-04-06 15:00:00,23.13,2021-04-07 05:30:00,35.25,2021-04-06 15:00:00,23.4,2021-04-07 05:30:00,1.81,0.19,1008.5,2.35,4.34,1617710220,60,0.14,10,1617686040,16.093,274.5,21.84,2021-04-06 05:33:00,35.53,2021-04-06 15:00:00,22.11,2021-04-06 05:33:00,35.25,2021-04-06 15:00:00,
Bardiya,Chisapani(Karnali),28.21278611,81.34521111,2021-04-06 00:00:00,Clear throughout the day.,clear-day,2021-04-06 06:05:00,2021-04-06 18:41:00,0.83,0.0061,0.0865,2021-04-06 23:55:00,0.03,rain,38.95,2021-04-06 16:00:00,21.55,2021-04-07 05:02:00,38.67,2021-04-06 16:00:00,21.82,2021-04-07 05:02:00,-3.62,0.13,1006.9,2.72,5.09,1617705180,106,0.19,9,1617690180,16.093,278.8,19.81,2021-04-06 04:57:00,38.95,2021-04-06 16:00:00,20.08,2021-04-06 04:57:00,38.67,2021-04-06 16:00:00,
Bardiya,Kumalgaun,28.33735833,81.33784167,2021-04-06 00:00:00,Clear throughout the day.,clear-day,2021-04-06 06:05:00,2021-04-06 18:41:00,0.83,0.007,0.1093,2021-04-07 00:00:00,0.03,rain,38.89,2021-04-06 16:02:00,21.52,2021-04-07 05:02:00,38.61,2021-04-06 16:02:00,21.79,2021-04-07 05:02:00,-3.17,0.13,1007.1,2.55,5.34,1617701160,98,0.18,10,1617690780,16.093,279.0,20.13,2021-04-06 05:24:00,38.89,2021-04-06 16:02:00,20.4,2021-04-06 05:24:00,38.61,2021-04-06 16:02:00,
Bardiya,Manpur,28.36353889,81.41428333,2021-04-06 00:00:00,Clear throughout the day.,clear-day,2021-04-06 06:05:00,2021-04-06 18:41:00,0.83,0.005,0.0754,2021-04-07 00:00:00,0.03,rain,38.71,2021-04-06 15:53:00,21.88,2021-04-07 05:10:00,38.43,2021-04-06 15:53:00,22.15,2021-04-07 05:10:00,-2.8,0.13,1007.3,2.4,5.5,1617701760,93,0.17,10,1617691380,16.093,278.8,20.51,2021-04-06 05:33:00,38.71,2021-04-06 15:53:00,20.78,2021-04-06 05:33:00,38.43,2021-04-06 15:53:00,
Bardiya,Rajapur,28.64721944,81.28542778,2021-04-06 00:00:00,Clear throughout the day.,clear-day,2021-04-06 06:05:00,2021-04-06 18:42:00,0.83,0.0066,0.105,2021-04-07 00:00:00,0.02,rain,37.68,2021-04-06 15:38:00,20.73,2021-04-07 05:43:00,37.4,2021-04-06 15:38:00,21.0,2021-04-07 05:43:00,-0.83,0.16,1008.0,2.22,5.82,1617700560,53,0.24,10,1617691440,16.093,279.1,20.16,2021-04-06 06:05:00,37.68,2021-04-06 15:38:00,20.43,2021-04-06 06:05:00,37.4,2021-04-06 15:38:00,
Bardiya,Rambhapur,28.307825,81.27586389,2021-04-06 00:00:00,Clear throughout the day.,clear-day,2021-04-06 06:05:00,2021-04-06 18:41:00,0.83,0.0083,0.1304,2021-04-07 00:00:00,0.03,rain,39.11,2021-04-06 15:58:00,21.17,2021-04-07 04:58:00,38.83,2021-04-06 15:58:00,21.44,2021-04-07 04:58:00,-3.51,0.13,1007.0,2.67,5.25,1617700560,103,0.2,9,1617690120,16.093,279.0,19.71,2021-04-06 05:04:00,39.11,2021-04-06 15:58:00,19.98,2021-04-06 05:04:00,38.83,2021-04-06 15:58:00,
Bardiya,Rani Jaruwa Nursery,28.42588611,81.33803611,2021-04-06 00:00:00,Clear throughout the day.,clear-day,2021-04-06 06:05:00,2021-04-06 18:41:00,0.83,0.0078,0.1312,2021-04-07 00:00:00,0.03,rain,39.03,2021-04-06 16:00:00,21.57,2021-04-07 05:08:00,38.75,2021-04-06 16:00:00,21.84,2021-04-07 05:08:00,-2.84,0.13,1007.3,2.47,5.6,1617701580,89,0.18,10,1617691200,16.093,279.0,20.31,2021-04-06 05:38:00,39.03,2021-04-06 16:00:00,20.58,2021-04-06 05:38:00,38.75,2021-04-06 16:00:00,
Bhaktapur,Bhaktapur,27.63333333,85.43333333,2021-04-06 00:00:00,Clear throughout the day.,clear-day,2021-04-06 05:49:00,2021-04-06 18:24:00,0.83,0.0128,0.0582,2021-04-06 14:57:00,0.04,rain,26.33,2021-04-06 14:40:00,14.32,2021-04-07 05:31:00,26.05,2021-04-06 14:40:00,14.59,2021-04-07 05:31:00,0.07,0.3,1011.5,1.59,4.56,1617710040,232,0.23,10,1617690180,16.093,272.0,12.68,2021-04-06 05:41:00,26.33,2021-04-06 14:40:00,12.95,2021-04-06 05:41:00,26.05,2021-04-06 14:40:00,
Bhaktapur,Changu Narayan,27.67668056,85.42396944,2021-04-06 00:00:00,Clear throughout the day.,clear-day,2021-04-06 05:49:00,2021-04-06 18:24:00,0.83,0.0128,0.0561,2021-04-06 15:26:00,0.03,rain,28.61,2021-04-06 14:45:00,14.26,2021-04-07 05:29:00,28.33,2021-04-06 14:45:00,14.53,2021-04-07 05:29:00,1.21,0.3,1011.7,1.49,4.89,1617710100,198,0.22,11,1617689880,16.093,272.1,13.02,2021-04-06 05:39:00,28.61,2021-04-06 14:45:00,13.29,2021-04-06 05:39:00,28.33,2021-04-06 14:45:00,
Bhaktapur,Nagarkot,27.645725,85.4615833,2021-04-06 00:00:00,Clear throughout the day.,clear-day,2021-04-06 05:49:00,2021-04-06 18:24:00,0.83,0.0123,0.0643,2021-04-06 14:57:00,0.03,rain,27.81,2021-04-06 14:44:00,14.42,2021-04-07 05:30:00,27.53,2021-04-06 14:44:00,14.69,2021-04-07 05:30:00,0.73,0.3,1011.7,1.53,4.91,1617710100,252,0.23,11,1617690000,16.093,272.0,12.95,2021-04-06 05:39:00,27.81,2021-04-06 14:44:00,13.22,2021-04-06 05:39:00,27.53,2021-04-06 14:44:00,
Bhaktapur,Sanga,27.71605833,85.42675556,2021-04-06 00:00:00,Clear throughout the day.,clear-day,2021-04-06 05:49:00,2021-04-06 18:24:00,0.83,0.0126,0.0607,2021-04-06 15:36:00,0.03,rain,28.04,2021-04-06 14:45:00,13.66,2021-04-07 05:29:00,27.76,2021-04-06 14:45:00,13.93,2021-04-07 05:29:00,0.59,0.3,1011.7,1.39,5.28,1617710160,194,0.2,11,1617689700,16.093,272.2,12.43,2021-04-06 05:38:00,28.04,2021-04-06 14:45:00,12.7,2021-04-06 05:38:00,27.76,2021-04-06 14:45:00,
Bhojpur,Dingla,27.1944798,87.04862659999999,2021-04-06 00:00:00,Partly cloudy throughout the day.,partly-cloudy-day,2021-04-06 05:43:00,2021-04-06 18:18:00,0.83,0.0161,0.1221,2021-04-06 16:46:00,0.04,rain,23.69,2021-04-06 12:57:00,14.11,2021-04-07 05:33:00,23.41,2021-04-06 12:57:00,14.38,2021-04-07 05:33:00,0.44,0.34,1011.8,1.63,4.28,1617701280,205,0.34,10,1617689160,16.093,269.9,11.86,2021-04-06 05:41:00,23.69,2021-04-06 12:57:00,12.13,2021-04-06 05:41:00,23.41,2021-04-06 12:57:00,
Bhojpur,Rampur,27.5282716,87.2177064,2021-04-06 00:00:00,Clear throughout the day.,clear-day,2021-04-06 05:42:00,2021-04-06 18:17:00,0.83,0.0661,0.1357,2021-04-06 17:31:00,0.1,rain,25.0,2021-04-06 13:28:00,15.7,2021-04-07 01:37:00,24.72,2021-04-06 13:28:00,15.97,2021-04-07 01:37:00,3.13,0.37,1013.9,1.95,3.9,1617732900,353,0.31,11,1617689160,16.093,269.7,13.28,2021-04-06 05:44:00,25.0,2021-04-06 13:28:00,13.55,2021-04-06 05:44:00,24.72,2021-04-06 13:28:00,
Chitawan,Bharatpur,27.5909,84.5223,2021-04-06 00:00:00,Clear throughout the day.,clear-day,2021-04-06 05:53:00,2021-04-06 18:28:00,0.83,0.0023,0.0084,2021-04-06 12:02:00,0.02,rain,37.79,2021-04-06 14:52:00,20.5,2021-04-07 05:24:00,37.51,2021-04-06 14:52:00,20.77,2021-04-07 05:24:00,1.14,0.19,1008.6,1.56,3.42,1617703200,21,0.16,10,1617688800,16.093,275.2,19.41,2021-04-06 05:31:00,37.79,2021-04-06 14:52:00,19.68,2021-04-06 05:31:00,37.51,2021-04-06 14:52:00,
Chitawan,Bharatpur,27.72113611,84.58525556,2021-04-06 00:00:00,Clear throughout the day.,clear-day,2021-04-06 05:52:00,2021-04-06 18:28:00,0.83,0.0021,0.0082,2021-04-06 11:48:00,0.02,rain,36.38,2021-04-06 14:48:00,20.4,2021-04-07 05:27:00,36.1,2021-04-06 14:48:00,20.67,2021-04-07 05:27:00,0.72,0.19,1009.2,1.64,3.21,1617703200,32,0.17,10,1617688680,16.093,274.9,19.18,2021-04-06 05:38:00,36.38,2021-04-06 14:48:00,19.45,2021-04-06 05:38:00,36.1,2021-04-06 14:48:00,
Chitawan,Jhuwani,27.654025,84.3507944,2021-04-06 00:00:00,Clear throughout the day.,clear-day,2021-04-06 05:53:00,2021-04-06 18:29:00,0.83,0.0011,0.0051,2021-04-06 02:45:00,0.01,rain,37.93,2021-04-06 14:54:00,20.63,2021-04-07 05:19:00,37.65,2021-04-06 14:54:00,20.9,2021-04-07 05:19:00,0.66,0.18,1008.7,1.65,4.0,1617702120,16,0.17,10,1617688920,16.093,275.4,19.18,2021-04-06 05:30:00,37.93,2021-04-06 14:54:00,19.45,2021-04-06 05:30:00,37.65,2021-04-06 14:54:00,
Chitwan,Gobindabasti,27.423171500000002,84.30374090000001,2021-04-06 00:00:00,Clear throughout the day.,clear-day,2021-04-06 05:54:00,2021-04-06 18:29:00,0.83,0.001,0.0051,2021-04-06 02:45:00,0.01,rain,36.63,2021-04-06 14:59:00,20.24,2021-04-07 05:25:00,36.35,2021-04-06 14:59:00,20.51,2021-04-07 05:25:00,1.34,0.19,1008.2,1.83,3.62,1617702600,44,0.14,10,1617689640,16.093,275.6,18.81,2021-04-06 04:45:00,36.63,2021-04-06 14:59:00,19.08,2021-04-06 04:45:00,36.35,2021-04-06 14:59:00,
Chitwan,Madi Kalyanpur,27.580483299999997,84.2242222,2021-04-06 00:00:00,Clear throughout the day.,clear-day,2021-04-06 05:54:00,2021-04-06 18:29:00,0.83,0.0007,0.0051,2021-04-06 02:45:00,0.01,rain,37.78,2021-04-06 15:03:00,19.72,2021-04-07 05:18:00,37.5,2021-04-06 15:03:00,19.99,2021-04-07 05:18:00,1.3,0.19,1008.7,1.72,3.92,1617701280,28,0.16,10,1617689460,16.093,275.6,18.29,2021-04-06 05:03:00,37.78,2021-04-06 15:03:00,18.56,2021-04-06 05:03:00,37.5,2021-04-06 15:03:00,
Chitwan,Meghauli,27.67303333,84.42227222,2021-04-06 00:00:00,Clear throughout the day.,clear-day,2021-04-06 05:53:00,2021-04-06 18:28:00,0.83,0.0014,0.0051,2021-04-06 02:45:00,0.01,rain,37.89,2021-04-06 14:52:00,20.9,2021-04-07 05:23:00,37.61,2021-04-06 14:52:00,21.17,2021-04-07 05:23:00,0.52,0.18,1008.7,1.64,3.83,1617702720,14,0.17,10,1617688800,16.093,275.3,19.46,2021-04-06 05:34:00,37.89,2021-04-06 14:52:00,19.73,2021-04-06 05:34:00,37.61,2021-04-06 14:52:00,
Dadeldhura,Dadeldhura,29.301352,80.58775194,2021-04-06 00:00:00,Partly cloudy throughout the day.,partly-cloudy-day,2021-04-06 06:07:00,2021-04-06 18:45:00,0.83,0.0551,0.185,2021-04-06 11:57:00,0.08,rain,26.41,2021-04-06 13:41:00,11.94,2021-04-07 05:42:00,26.13,2021-04-06 13:41:00,12.21,2021-04-07 05:42:00,1.79,0.39,1012.1,1.95,6.83,1617703200,31,0.55,8,1617690720,16.093,277.4,11.53,2021-04-06 05:43:00,26.41,2021-04-06 13:41:00,11.8,2021-04-06 05:43:00,26.13,2021-04-06 13:41:00,
Dadeldhura,Dailekh,29.12785778,80.34740778,2021-04-06 00:00:00,Partly cloudy throughout the day.,partly-cloudy-day,2021-04-06 06:09:00,2021-04-06 18:46:00,0.83,0.0316,0.1123,2021-04-07 00:00:00,0.06,rain,36.87,2021-04-06 15:16:00,19.34,2021-04-07 04:56:00,36.59,2021-04-06 15:16:00,19.61,2021-04-07 04:56:00,4.96,0.27,1009.8,2.59,6.65,1617702960,29,0.48,8,1617691740,16.093,279.5,20.27,2021-04-06 05:55:00,36.87,2021-04-06 15:16:00,20.54,2021-04-06 05:55:00,36.59,2021-04-06 15:16:00,
Dadeldhura,Sahukharka,29.288393100000004,80.37301500000001,2021-04-06 00:00:00,Partly cloudy throughout the day.,partly-cloudy-day,2021-04-06 06:08:00,2021-04-06 18:46:00,0.83,0.0432,0.1357,2021-04-06 11:26:00,0.08,rain,28.71,2021-04-06 14:15:00,14.34,2021-04-07 05:36:00,28.43,2021-04-06 14:15:00,14.61,2021-04-07 05:36:00,2.52,0.36,1011.5,2.31,6.96,1617702840,13,0.53,8,1617690840,16.093,278.4,14.22,2021-04-06 05:44:00,28.71,2021-04-06 14:15:00,14.49,2021-04-06 05:44:00,28.43,2021-04-06 14:15:00,
Dailekh,Bale Budha (Tallo Dhungeshwor),28.83811111,81.70848333,2021-04-06 00:00:00,Clear throughout the day.,clear-day,2021-04-06 06:03:00,2021-04-06 18:40:00,0.83,0.0183,0.0785,2021-04-07 00:00:00,0.03,rain,31.35,2021-04-06 14:27:00,16.98,2021-04-07 06:11:00,31.07,2021-04-06 14:27:00,17.25,2021-04-07 06:11:00,0.21,0.23,1011.6,2.45,7.1,1617690540,346,0.27,9,1617694080,16.093,274.7,16.61,2021-04-06 06:08:00,31.35,2021-04-06 14:27:00,16.88,2021-04-06 06:08:00,31.07,2021-04-06 14:27:00,
Dailekh,Katti,28.92202778,81.62608333,2021-04-06 00:00:00,Partly cloudy throughout the day.,partly-cloudy-day,2021-04-06 06:04:00,2021-04-06 18:40:00,0.83,0.0191,0.0928,2021-04-06 14:44:00,0.04,rain,30.88,2021-04-06 14:13:00,16.38,2021-04-07 06:00:00,30.6,2021-04-06 14:13:00,16.65,2021-04-07 06:00:00,0.37,0.23,1011.7,2.63,6.92,1617691380,5,0.32,10,1617693180,16.093,275.1,16.44,2021-04-06 06:08:00,30.88,2021-04-06 14:13:00,16.71,2021-04-06 06:08:00,30.6,2021-04-06 14:13:00,
Dailekh,Nayabasti (Dang),28.78022222,81.82144444,2021-04-06 00:00:00,Clear throughout the day.,clear-day,2021-04-06 06:03:00,2021-04-06 18:39:00,0.83,0.0157,0.0792,2021-04-07 00:00:00,0.03,rain,31.84,2021-04-06 14:36:00,17.82,2021-04-07 06:17:00,31.56,2021-04-06 14:36:00,18.09,2021-04-07 06:17:00,0.78,0.23,1011.8,2.35,7.52,1617695340,303,0.22,9,1617694020,16.093,274.4,17.23,2021-04-06 06:10:00,31.84,2021-04-06 14:36:00,17.5,2021-04-06 06:10:00,31.56,2021-04-06 14:36:00,
Dailekh,Ranimatta,28.90711111,81.75019167,2021-04-06 00:00:00,Partly cloudy throughout the day.,partly-cloudy-day,2021-04-06 06:03:00,2021-04-06 18:40:00,0.83,0.0246,0.1045,2021-04-06 12:45:00,0.04,rain,27.93,2021-04-06 14:15:00,14.78,2021-04-07 06:09:00,27.65,2021-04-06 14:15:00,15.05,2021-04-07 06:09:00,-1.31,0.24,1012.4,2.65,7.43,1617687180,2,0.34,9,1617694740,16.093,273.6,14.8,2021-04-06 06:07:00,27.93,2021-04-06 14:15:00,15.07,2021-04-06 06:07:00,27.65,2021-04-06 14:15:00,
Dang,Ghorahi (Masina),28.13174722,82.30278333,2021-04-06 00:00:00,Clear throughout the day.,clear-day,2021-04-06 06:01:00,2021-04-06 18:37:00,0.83,0.0,0.0,2021-04-06 23:52:00,0.0,,34.94,2021-04-06 14:44:00,20.7,2021-04-07 05:40:00,34.66,2021-04-06 14:44:00,20.97,2021-04-07 05:40:00,-1.32,0.17,1009.7,2.56,7.64,1617702720,83,0.05,10,1617691500,16.093,275.2,18.4,2021-04-06 05:29:00,34.94,2021-04-06 14:44:00,18.67,2021-04-06 05:29:00,34.66,2021-04-06 14:44:00,
Dang,Ghorai (Dang),27.69233306,82.52512694,2021-04-06 00:00:00,Clear throughout the day.,clear-day,2021-04-06 06:01:00,2021-04-06 18:36:00,0.83,0.0007,0.0051,2021-04-06 02:45:00,0.01,rain,37.78,2021-04-06 16:13:00,22.36,2021-04-07 05:24:00,37.5,2021-04-06 16:13:00,22.63,2021-04-07 05:24:00,-2.61,0.14,1007.7,2.62,6.04,1617701340,87,0.04,10,1617689100,16.093,276.5,19.69,2021-04-06 04:57:00,37.78,2021-04-06 16:13:00,19.96,2021-04-06 04:57:00,37.5,2021-04-06 16:13:00,
Dang,Koilabas,28.05,82.5,2021-04-06 00:00:00,Clear throughout the day.,clear-day,2021-04-06 06:01:00,2021-04-06 18:36:00,0.83,0.0,0.0,2021-04-06 14:46:00,0.0,,34.65,2021-04-06 14:48:00,22.0,2021-04-07 05:31:00,34.37,2021-04-06 14:48:00,22.27,2021-04-07 05:31:00,-1.01,0.17,1009.6,2.66,8.01,1617697020,65,0.03,11,1617691140,16.093,275.0,19.44,2021-04-06 05:41:00,34.65,2021-04-06 14:48:00,19.71,2021-04-06 05:41:00,34.37,2021-04-06 14:48:00,
Dang,Lalmatiya,27.87055556,82.53666667,2021-04-06 00:00:00,Clear throughout the day.,clear-day,2021-04-06 06:01:00,2021-04-06 18:36:00,0.83,0.0009,0.0051,2021-04-06 02:45:00,0.01,rain,38.02,2021-04-06 15:30:00,22.6,2021-04-07 05:20:00,37.74,2021-04-06 15:30:00,22.87,2021-04-07 05:20:00,-1.47,0.15,1008.6,2.53,7.03,1617701820,80,0.03,11,1617689340,16.093,275.9,19.92,2021-04-06 05:33:00,38.02,2021-04-06 15:30:00,20.19,2021-04-06 05:33:00,37.74,2021-04-06 15:30:00,
Dang,Lamahi,27.88486889,82.33509611,2021-04-06 00:00:00,Clear throughout the day.,clear-day,2021-04-06 06:01:00,2021-04-06 18:37:00,0.83,0.0007,0.0051,2021-04-06 02:45:00,0.01,rain,38.49,2021-04-06 16:03:00,22.87,2021-04-07 05:26:00,38.21,2021-04-06 16:03:00,23.14,2021-04-07 05:26:00,-2.13,0.14,1008.2,2.54,6.49,1617701160,92,0.04,10,1617690780,16.093,276.4,20.22,2021-04-06 05:31:00,38.49,2021-04-06 16:03:00,20.49,2021-04-06 05:31:00,38.21,2021-04-06 16:03:00,
Dang,Padhampur,28.03719889,82.484156,2021-04-06 00:00:00,Clear throughout the day.,clear-day,2021-04-06 06:01:00,2021-04-06 18:36:00,0.83,0.0,0.0,2021-04-06 14:46:00,0.0,,34.76,2021-04-06 14:53:00,22.2,2021-04-07 05:31:00,34.48,2021-04-06 14:53:00,22.47,2021-04-07 05:31:00,-1.25,0.16,1009.4,2.65,7.92,1617697080,71,0.03,11,1617691080,16.093,275.1,19.65,2021-04-06 05:41:00,34.76,2021-04-06 14:53:00,19.92,2021-04-06 05:41:00,34.48,2021-04-06 14:53:00,
Dang,Tulsipur,28.201323,82.1393939,2021-04-06 00:00:00,Clear throughout the day.,clear-day,2021-04-06 06:02:00,2021-04-06 18:38:00,0.83,0.0,0.0,2021-04-07 00:00:00,0.0,,34.92,2021-04-06 14:42:00,21.06,2021-04-07 05:58:00,34.64,2021-04-06 14:42:00,21.33,2021-04-07 05:58:00,-1.89,0.16,1009.5,2.47,7.4,1617703080,75,0.06,10,1617692100,16.093,275.6,18.85,2021-04-06 05:39:00,34.92,2021-04-06 14:42:00,19.12,2021-04-06 05:39:00,34.64,2021-04-06 14:42:00,
Darchula,Darchula New,29.666666999999997,80.55,2021-04-06 00:15:00,Mostly cloudy throughout the day.,partly-cloudy-day,2021-04-06 06:07:00,2021-04-06 18:45:00,0.83,0.0676,0.3823,2021-04-06 23:52:00,0.11,rain,31.9,2021-04-06 13:58:00,16.04,2021-04-07 05:10:00,31.62,2021-04-06 13:58:00,16.31,2021-04-07 05:10:00,7.24,0.43,1013.4,1.86,6.47,1617692700,19,0.71,9,1617691260,16.093,278.2,15.15,2021-04-06 05:44:00,31.9,2021-04-06 13:58:00,15.42,2021-04-06 05:44:00,31.62,2021-04-06 13:58:00,
Darchula,Dhaulatiya (Dallekhdhar),29.78255194,80.82215806,2021-04-06 00:00:00,Mostly cloudy throughout the day.,partly-cloudy-day,2021-04-06 06:06:00,2021-04-06 18:44:00,0.83,0.2894,0.9718,2021-04-07 00:00:00,0.35,rain,21.72,2021-04-06 13:34:00,10.6,2021-04-07 00:46:00,21.44,2021-04-06 13:34:00,10.87,2021-04-07 00:46:00,4.1,0.52,1016.8,2.49,7.02,1617695040,352,0.75,8,1617691440,16.093,274.5,10.3,2021-04-06 05:45:00,21.72,2021-04-06 13:34:00,10.57,2021-04-06 05:45:00,21.44,2021-04-06 13:34:00,
Darchula,Gokuleshwar,29.84287806,80.53884806,2021-04-06 00:15:00,Mostly cloudy throughout the day.,partly-cloudy-day,2021-04-06 06:07:00,2021-04-06 18:45:00,0.83,0.2022,0.7047,2021-04-07 00:15:00,0.28,rain,27.65,2021-04-06 13:39:00,14.09,2021-04-07 05:21:00,27.37,2021-04-06 13:39:00,14.36,2021-04-07 05:21:00,6.46,0.47,1015.0,2.24,6.89,1617693540,28,0.78,8,1617691920,16.093,277.1,13.62,2021-04-06 05:46:00,27.65,2021-04-06 13:39:00,13.89,2021-04-06 05:46:00,27.37,2021-04-06 13:39:00,
Darchula,Lumpthi,29.84496194,80.54539389,2021-04-06 00:15:00,Mostly cloudy throughout the day.,partly-cloudy-day,2021-04-06 06:07:00,2021-04-06 18:45:00,0.83,0.2082,0.7183,2021-04-07 00:15:00,0.29,rain,27.38,2021-04-06 13:37:00,13.94,2021-04-07 05:22:00,27.1,2021-04-06 13:37:00,14.21,2021-04-07 05:22:00,6.39,0.47,1015.1,2.25,6.91,1617693600,29,0.78,8,1617691920,16.093,277.0,13.48,2021-04-06 05:46:00,27.38,2021-04-06 13:37:00,13.75,2021-04-06 05:46:00,27.1,2021-04-06 13:37:00,
Dhading,Dhading,28.05,84.82,2021-04-06 00:00:00,Clear throughout the day.,clear-day,2021-04-06 05:51:00,2021-04-06 18:27:00,0.83,0.0155,0.0683,2021-04-06 17:43:00,0.02,rain,32.25,2021-04-06 14:07:00,18.56,2021-04-07 05:29:00,31.97,2021-04-06 14:07:00,18.83,2021-04-07 05:29:00,0.09,0.22,1012.0,1.92,3.15,1617732900,33,0.19,11,1617689520,16.093,273.3,17.17,2021-04-06 05:40:00,32.25,2021-04-06 14:07:00,17.44,2021-04-06 05:40:00,31.97,2021-04-06 14:07:00,
Dhading,Dhunibesi,27.912505600000003,84.8961333,2021-04-06 00:00:00,Clear throughout the day.,clear-day,2021-04-06 05:51:00,2021-04-06 18:27:00,0.83,0.002,0.0107,2021-04-06 11:44:00,0.01,rain,33.4,2021-04-06 14:22:00,18.63,2021-04-07 05:30:00,33.12,2021-04-06 14:22:00,18.9,2021-04-07 05:30:00,0.89,0.22,1011.2,1.73,2.56,1617704760,53,0.17,11,1617689100,16.093,273.8,17.44,2021-04-06 05:41:00,33.4,2021-04-06 14:22:00,17.71,2021-04-06 05:41:00,33.12,2021-04-06 14:22:00,
Dhading,Gajuri,27.8053359,84.7055012,2021-04-06 00:00:00,Clear throughout the day.,clear-day,2021-04-06 05:52:00,2021-04-06 18:27:00,0.83,0.0023,0.0119,2021-04-06 11:45:00,0.02,rain,34.95,2021-04-06 14:16:00,18.59,2021-04-07 05:26:00,34.67,2021-04-06 14:16:00,18.86,2021-04-07 05:26:00,1.08,0.21,1010.3,1.56,2.57,1617705540,58,0.18,10,1617688860,16.093,274.4,17.85,2021-04-06 05:36:00,34.95,2021-04-06 14:16:00,18.12,2021-04-06 05:36:00,34.67,2021-04-06 14:16:00,
Dhading,Majhimtar,27.72311667,85.1642,2021-04-06 00:00:00,Clear throughout the day.,clear-day,2021-04-06 05:50:00,2021-04-06 18:25:00,0.83,0.0117,0.0777,2021-04-06 11:51:00,0.04,rain,31.38,2021-04-06 14:02:00,16.14,2021-04-07 05:29:00,31.1,2021-04-06 14:02:00,16.41,2021-04-07 05:29:00,1.83,0.27,1011.5,1.63,3.22,1617709860,140,0.19,10,1617689160,16.093,272.4,14.95,2021-04-06 05:37:00,31.38,2021-04-06 14:02:00,15.22,2021-04-06 05:37:00,31.1,2021-04-06 14:02:00,
Dhading,Pakhribas,27.802707399999996,84.8797782,2021-04-06 00:00:00,Clear throughout the day.,clear-day,2021-04-06 05:51:00,2021-04-06 18:27:00,0.83,0.0032,0.023,2021-04-06 11:45:00,0.02,rain,34.75,2021-04-06 13:59:00,18.83,2021-04-07 05:28:00,34.47,2021-04-06 13:59:00,19.1,2021-04-07 05:28:00,1.8,0.22,1011.0,1.63,2.46,1617705960,72,0.16,10,1617688860,16.093,273.6,17.89,2021-04-06 05:39:00,34.75,2021-04-06 13:59:00,18.16,2021-04-06 05:39:00,34.47,2021-04-06 13:59:00,
Dhankuta,Barahkshetra,26.91424278,87.15986,2021-04-06 00:00:00,Clear throughout the day.,clear-day,2021-04-06 05:43:00,2021-04-06 18:17:00,0.83,0.0052,0.0416,2021-04-06 12:47:00,0.03,rain,34.64,2021-04-06 13:46:00,22.2,2021-04-07 05:24:00,34.36,2021-04-06 13:46:00,22.47,2021-04-07 05:24:00,6.58,0.28,1010.5,2.14,3.58,1617693420,61,0.13,10,1617689280,16.093,272.2,20.22,2021-04-06 05:36:00,34.64,2021-04-06 13:46:00,20.49,2021-04-06 05:36:00,34.36,2021-04-06 13:46:00,
Dhankuta,Dhankuta,26.93805556,87.15472222,2021-04-06 00:00:00,Clear throughout the day.,clear-day,2021-04-06 05:43:00,2021-04-06 18:17:00,0.83,0.0053,0.0437,2021-04-06 12:46:00,0.03,rain,34.42,2021-04-06 13:45:00,22.07,2021-04-07 05:23:00,34.14,2021-04-06 13:45:00,22.34,2021-04-07 05:23:00,6.42,0.28,1010.7,2.11,3.69,1617693720,61,0.15,9,1617689340,16.093,272.0,20.0,2021-04-06 05:37:00,34.42,2021-04-06 13:45:00,20.27,2021-04-06 05:37:00,34.14,2021-04-06 13:45:00,
Dhankuta,Dhankuta,27.0500025,87.24444444,2021-04-06 00:00:00,Clear throughout the day.,clear-day,2021-04-06 05:42:00,2021-04-06 18:17:00,0.83,0.0068,0.067,2021-04-06 12:46:00,0.03,rain,26.01,2021-04-06 13:31:00,15.63,2021-04-07 05:23:00,25.73,2021-04-06 13:31:00,15.9,2021-04-07 05:23:00,1.27,0.31,1010.9,1.82,3.8,1617698820,18,0.19,10,1617688680,16.093,271.6,13.59,2021-04-06 05:38:00,26.01,2021-04-06 13:31:00,13.86,2021-04-06 05:38:00,25.73,2021-04-06 13:31:00,
Dhankuta,Leguwa Ghat,27.04633889,87.2925,2021-04-06 00:00:00,Clear throughout the day.,clear-day,2021-04-06 05:42:00,2021-04-06 18:17:00,0.83,0.0068,0.0609,2021-04-06 12:46:00,0.04,rain,25.29,2021-04-06 13:28:00,14.08,2021-04-07 05:23:00,25.01,2021-04-06 13:28:00,14.35,2021-04-07 05:23:00,0.74,0.32,1010.9,1.81,3.76,1617698820,39,0.2,10,1617688860,16.093,271.4,12.11,2021-04-06 05:37:00,25.29,2021-04-06 13:28:00,12.38,2021-04-06 05:37:00,25.01,2021-04-06 13:28:00,
Dhankuta,Muga,27.15338889,87.28919444,2021-04-06 00:00:00,Clear throughout the day.,clear-day,2021-04-06 05:42:00,2021-04-06 18:17:00,0.83,0.0039,0.0293,2021-04-06 12:47:00,0.01,rain,32.28,2021-04-06 13:28:00,18.74,2021-04-07 05:19:00,32.0,2021-04-06 13:28:00,19.01,2021-04-07 05:19:00,5.6,0.32,1011.8,1.55,3.95,1617699240,215,0.22,10,1617689100,16.093,271.4,16.04,2021-04-06 05:38:00,32.28,2021-04-06 13:28:00,16.31,2021-04-06 05:38:00,32.0,2021-04-06 13:28:00,
Dhankuta,Mul Ghat,26.98321944,87.34595556,2021-04-06 00:00:00,Clear throughout the day.,clear-day,2021-04-06 05:42:00,2021-04-06 18:16:00,0.83,0.0073,0.0587,2021-04-06 12:46:00,0.04,rain,27.14,2021-04-06 13:26:00,16.81,2021-04-07 05:28:00,26.86,2021-04-06 13:26:00,17.08,2021-04-07 05:28:00,2.44,0.31,1011.0,1.93,3.64,1617698580,56,0.17,10,1617688920,16.093,271.3,14.55,2021-04-06 05:40:00,27.14,2021-04-06 13:26:00,14.82,2021-04-06 05:40:00,26.86,2021-04-06 13:26:00,
Dhankuta,Mul Ghat,26.98321944,87.34595556,2021-04-06 00:00:00,Clear throughout the day.,clear-day,2021-04-06 05:42:00,2021-04-06 18:16:00,0.83,0.0073,0.0587,2021-04-06 12:46:00,0.04,rain,27.14,2021-04-06 13:26:00,16.81,2021-04-07 05:28:00,26.86,2021-04-06 13:26:00,17.08,2021-04-07 05:28:00,2.44,0.31,1011.0,1.93,3.64,1617698580,56,0.17,10,1617688920,16.093,271.3,14.55,2021-04-06 05:40:00,27.14,2021-04-06 13:26:00,14.82,2021-04-06 05:40:00,26.86,2021-04-06 13:26:00,
Dhanusa,Chisapani Bazar,27.01295556,85.92089722,2021-04-06 00:00:00,Clear throughout the day.,clear-day,2021-04-06 05:48:00,2021-04-06 18:22:00,0.83,0.0008,0.0051,2021-04-06 02:45:00,0.01,rain,35.75,2021-04-06 14:01:00,22.49,2021-04-07 05:26:00,35.47,2021-04-06 14:01:00,22.76,2021-04-07 05:26:00,2.86,0.2,1008.6,2.81,4.61,1617679080,86,0.08,11,1617690960,16.093,274.6,21.34,2021-04-06 05:20:00,35.75,2021-04-06 14:01:00,21.61,2021-04-06 05:20:00,35.47,2021-04-06 14:01:00,
Dhanusa,Janakpur Airport,26.8,85.9833333,2021-04-06 00:00:00,Clear throughout the day.,clear-day,2021-04-06 05:47:00,2021-04-06 18:22:00,0.83,0.0007,0.0051,2021-04-06 02:45:00,0.02,rain,37.73,2021-04-06 14:28:00,22.04,2021-04-07 05:29:00,37.45,2021-04-06 14:28:00,22.31,2021-04-07 05:29:00,3.53,0.2,1008.2,3.21,6.02,1617678360,94,0.06,11,1617690900,16.093,274.3,20.59,2021-04-06 04:41:00,37.73,2021-04-06 14:28:00,20.86,2021-04-06 04:41:00,37.45,2021-04-06 14:28:00,
Dhanusa,Tulsi,26.71666667,85.96666667,2021-04-06 00:00:00,Clear throughout the day.,clear-day,2021-04-06 05:48:00,2021-04-06 18:22:00,0.83,0.0007,0.0051,2021-04-06 02:45:00,0.02,rain,38.03,2021-04-06 14:51:00,21.96,2021-04-07 05:30:00,37.75,2021-04-06 14:51:00,22.23,2021-04-07 05:30:00,3.85,0.21,1008.1,3.36,6.5,1617678060,94,0.05,11,1617690900,16.093,274.1,20.28,2021-04-06 04:41:00,38.03,2021-04-06 14:51:00,20.55,2021-04-06 04:41:00,37.75,2021-04-06 14:51:00,
Dolakha,Charikot,27.67633111,86.10399389,2021-04-06 00:00:00,Partly cloudy throughout the day.,partly-cloudy-day,2021-04-06 05:46:00,2021-04-06 18:22:00,0.83,0.0219,0.0697,2021-04-06 15:53:00,0.03,rain,27.4,2021-04-06 13:10:00,16.05,2021-04-07 05:21:00,27.12,2021-04-06 13:10:00,16.32,2021-04-07 05:21:00,1.1,0.3,1013.9,2.36,3.78,1617710160,124,0.29,9,1617686040,16.093,269.9,13.75,2021-04-06 05:41:00,27.4,2021-04-06 13:10:00,14.02,2021-04-06 05:41:00,27.12,2021-04-06 13:10:00,
Dolakha,Dunai,27.63333333,86.13333333,2021-04-06 00:00:00,Partly cloudy throughout the day.,partly-cloudy-day,2021-04-06 05:46:00,2021-04-06 18:22:00,0.83,0.0264,0.0947,2021-04-06 12:49:00,0.04,rain,25.87,2021-04-06 13:35:00,14.3,2021-04-07 05:29:00,25.59,2021-04-06 13:35:00,14.57,2021-04-07 05:29:00,0.99,0.32,1013.3,2.43,4.16,1617710160,129,0.28,10,1617686160,16.093,269.9,11.99,2021-04-06 05:40:00,25.87,2021-04-06 13:35:00,12.26,2021-04-06 05:40:00,25.59,2021-04-06 13:35:00,
Dolakha,Jiri,27.6666667,86.05,2021-04-06 00:00:00,Partly cloudy throughout the day.,partly-cloudy-day,2021-04-06 05:47:00,2021-04-06 18:22:00,0.83,0.0136,0.0494,2021-04-06 15:51:00,0.03,rain,22.81,2021-04-06 13:01:00,12.32,2021-04-07 05:28:00,22.53,2021-04-06 13:01:00,12.59,2021-04-07 05:28:00,-1.37,0.33,1012.9,2.19,3.72,1617710100,79,0.29,10,1617686280,16.093,270.3,10.06,2021-04-06 05:44:00,22.81,2021-04-06 13:01:00,10.33,2021-04-06 05:44:00,22.53,2021-04-06 13:01:00,
Dolakha,Nagdaha,27.616666700000003,86.35,2021-04-06 00:00:00,Partly cloudy throughout the day.,partly-cloudy-day,2021-04-06 05:45:00,2021-04-06 18:21:00,0.83,0.0588,0.2362,2021-04-06 12:45:00,0.1,rain,16.46,2021-04-06 13:38:00,7.75,2021-04-07 00:03:00,16.18,2021-04-06 13:38:00,6.11,2021-04-07 05:30:00,-3.14,0.4,1014.7,2.72,3.89,1617692700,239,0.32,10,1617686340,16.093,267.7,5.43,2021-04-06 05:44:00,16.46,2021-04-06 13:38:00,3.41,2021-04-06 05:42:00,16.18,2021-04-06 13:38:00,
Dolpa,Kaigaun,29.03154722,82.76287778,2021-04-06 00:00:00,Mostly cloudy throughout the day.,partly-cloudy-day,2021-04-06 05:59:00,2021-04-06 18:36:00,0.83,0.1655,0.6498,2021-04-06 18:32:00,0.28,rain,15.64,2021-04-06 10:47:00,4.79,2021-04-07 00:50:00,15.36,2021-04-06 10:47:00,3.6,2021-04-07 00:59:00,0.01,0.56,1018.5,1.62,4.53,1617684600,307,0.56,7,1617688320,15.164,267.8,4.06,2021-04-06 05:46:00,15.64,2021-04-06 10:47:00,3.25,2021-04-06 05:43:00,15.36,2021-04-06 10:47:00,
Dolpa,Silgadhi Doti,28.98363333,82.82074444,2021-04-06 00:00:00,Mostly cloudy throughout the day.,partly-cloudy-day,2021-04-06 05:59:00,2021-04-06 18:36:00,0.83,0.1396,0.572,2021-04-06 18:23:00,0.26,rain,15.76,2021-04-06 10:56:00,5.19,2021-04-07 00:46:00,15.48,2021-04-06 10:56:00,4.01,2021-04-07 00:48:00,-0.04,0.56,1018.4,1.67,4.43,1617684180,306,0.51,8,1617686460,15.336,267.6,4.11,2021-04-06 05:48:00,15.76,2021-04-06 10:56:00,3.37,2021-04-06 05:43:00,15.48,2021-04-06 10:56:00,
Doti,Dipayal (Doti),29.12015194,80.70944778,2021-04-06 00:00:00,Partly cloudy throughout the day.,partly-cloudy-day,2021-04-06 06:07:00,2021-04-06 18:44:00,0.83,0.0408,0.1459,2021-04-06 11:59:00,0.06,rain,29.15,2021-04-06 14:08:00,14.6,2021-04-07 05:22:00,28.87,2021-04-06 14:08:00,14.87,2021-04-07 05:22:00,2.26,0.32,1011.5,2.02,6.88,1617701280,15,0.5,8,1617691500,16.093,277.4,15.13,2021-04-06 05:43:00,29.15,2021-04-06 14:08:00,15.4,2021-04-06 05:43:00,28.87,2021-04-06 14:08:00,
Doti,Dumrakot,29.16385278,80.600738,2021-04-06 00:00:00,Partly cloudy throughout the day.,partly-cloudy-day,2021-04-06 06:08:00,2021-04-06 18:45:00,0.83,0.0413,0.1602,2021-04-06 12:10:00,0.07,rain,26.66,2021-04-06 13:57:00,12.86,2021-04-07 05:29:00,26.38,2021-04-06 13:57:00,13.13,2021-04-07 05:29:00,-0.03,0.32,1011.2,2.14,6.88,1617702900,34,0.5,8,1617691860,16.093,277.8,12.99,2021-04-06 05:43:00,26.66,2021-04-06 13:57:00,13.26,2021-04-06 05:43:00,26.38,2021-04-06 13:57:00,
Doti,Gaira,29.34106083,81.045105,2021-04-06 00:00:00,Mostly cloudy throughout the day.,partly-cloudy-day,2021-04-06 06:06:00,2021-04-06 18:43:00,0.83,0.106,0.4097,2021-04-06 23:56:00,0.1,rain,24.12,2021-04-06 12:47:00,9.93,2021-04-07 05:27:00,23.84,2021-04-06 12:47:00,10.2,2021-04-07 05:27:00,1.2,0.43,1013.0,1.96,6.67,1617690360,17,0.61,10,1617692220,16.093,276.8,9.56,2021-04-06 05:49:00,24.12,2021-04-06 12:47:00,8.86,2021-04-06 05:46:00,23.84,2021-04-06 12:47:00,
Doti,Jhingrana,29.26209694,80.93690083,2021-04-06 00:00:00,Partly cloudy throughout the day.,partly-cloudy-day,2021-04-06 06:06:00,2021-04-06 18:43:00,0.83,0.0982,0.353,2021-04-06 11:44:00,0.09,rain,32.77,2021-04-06 12:48:00,15.93,2021-04-07 05:22:00,32.49,2021-04-06 12:48:00,16.2,2021-04-07 05:22:00,6.35,0.4,1012.8,1.7,6.31,1617691920,352,0.57,9,1617692340,16.093,277.1,15.73,2021-04-06 05:44:00,32.77,2021-04-06 12:48:00,16.0,2021-04-06 05:44:00,32.49,2021-04-06 12:48:00,
Doti,Khaptad,29.0,81.13333333,2021-04-06 00:00:00,Partly cloudy throughout the day.,partly-cloudy-day,2021-04-06 06:05:00,2021-04-06 18:42:00,0.83,0.0258,0.1334,2021-04-06 14:46:00,0.05,rain,31.74,2021-04-06 14:15:00,16.62,2021-04-07 05:45:00,31.46,2021-04-06 14:15:00,16.89,2021-04-07 05:45:00,2.09,0.28,1010.4,2.11,6.43,1617702360,339,0.4,10,1617691980,16.093,277.7,16.52,2021-04-06 05:59:00,31.74,2021-04-06 14:15:00,16.79,2021-04-06 05:59:00,31.46,2021-04-06 14:15:00,
Doti,Kola Gaun,29.38804889,81.14630111,2021-04-06 00:00:00,Mostly cloudy throughout the day.,partly-cloudy-day,2021-04-06 06:05:00,2021-04-06 18:43:00,0.83,0.1023,0.5924,2021-04-07 00:00:00,0.11,rain,21.47,2021-04-06 12:48:00,6.47,2021-04-07 05:26:00,21.19,2021-04-06 12:48:00,4.67,2021-04-07 05:27:00,0.23,0.48,1013.5,2.14,6.84,1617690060,28,0.61,10,1617691980,16.093,276.3,6.58,2021-04-06 05:49:00,21.47,2021-04-06 12:48:00,5.09,2021-04-06 05:49:00,21.19,2021-04-06 12:48:00,
Gorkha,Barpak,28.2,84.73333333,2021-04-06 21:45:00,Partly cloudy throughout the day.,partly-cloudy-day,2021-04-07 05:51:00,2021-04-07 18:28:00,0.86,0.1527,0.767,2021-04-07 16:43:00,0.11,rain,26.8,2021-04-07 12:48:00,15.82,2021-04-08 00:13:00,26.52,2021-04-07 12:48:00,16.09,2021-04-08 00:13:00,1.71,0.31,1014.4,3.14,6.03,1617808860,354,0.36,8,1617775920,16.011,270.3,15.78,2021-04-07 02:34:00,26.8,2021-04-07 12:48:00,16.05,2021-04-07 02:34:00,26.52,2021-04-07 12:48:00,
Gorkha,Chhekampar,27.97138889,84.58944444,2021-04-06 00:00:00,Clear throughout the day.,clear-day,2021-04-06 05:52:00,2021-04-06 18:28:00,0.83,0.0013,0.0066,2021-04-06 04:37:00,0.01,rain,33.88,2021-04-06 14:50:00,17.61,2021-04-07 05:28:00,33.6,2021-04-06 14:50:00,17.88,2021-04-07 05:28:00,-0.83,0.2,1010.1,1.33,2.89,1617703920,43,0.16,11,1617689820,16.093,275.1,16.69,2021-04-06 05:37:00,33.88,2021-04-06 14:50:00,16.96,2021-04-06 05:37:00,33.6,2021-04-06 14:50:00,
Gorkha,Chumchet,28.48333333,85.0,2021-04-06 21:45:00,Foggy in the evening and overnight.,fog,2021-04-07 05:49:00,2021-04-07 18:27:00,0.86,0.1409,0.4444,2021-04-07 19:54:00,0.37,rain,6.62,2021-04-07 12:05:00,-0.13,2021-04-08 02:44:00,3.9,2021-04-07 10:58:00,-1.77,2021-04-08 04:45:00,-2.42,0.68,1020.0,2.23,5.06,1617785460,206,0.43,11,1617775200,12.005,264.9,1.0,2021-04-07 02:25:00,6.62,2021-04-07 12:05:00,-0.76,2021-04-07 20:10:00,3.9,2021-04-07 10:58:00,
Gorkha,Gorkha,28.66666667,84.61666667,2021-04-06 21:45:00,Foggy starting in the afternoon.,rain,2021-04-07 05:51:00,2021-04-07 18:29:00,0.86,0.1636,0.6174,2021-04-07 20:29:00,0.45,rain,0.11,2021-04-07 13:17:00,-8.28,2021-04-08 04:45:00,-3.65,2021-04-07 12:59:00,-12.73,2021-04-08 04:45:00,-6.59,0.86,1022.1,2.56,4.42,1617786000,244,0.5,11,1617774840,9.033,263.3,-7.39,2021-04-07 05:43:00,0.11,2021-04-07 13:17:00,-12.05,2021-04-07 05:39:00,-3.65,2021-04-07 12:59:00,
Gorkha,Laprak,28.2,84.75,2021-04-06 21:45:00,Partly cloudy throughout the day.,partly-cloudy-day,2021-04-07 05:50:00,2021-04-07 18:28:00,0.86,0.1575,0.7978,2021-04-07 16:43:00,0.11,rain,24.26,2021-04-07 12:50:00,13.76,2021-04-08 00:11:00,23.98,2021-04-07 12:50:00,14.03,2021-04-08 00:11:00,0.13,0.32,1014.5,3.17,6.21,1617808800,353,0.36,8,1617775860,15.969,270.2,13.78,2021-04-07 02:36:00,24.26,2021-04-07 12:50:00,14.05,2021-04-07 02:36:00,23.98,2021-04-07 12:50:00,
Gorkha,Sama Gaun,28.42693611,84.90264444,2021-04-06 21:45:00,Partly cloudy throughout the day.,rain,2021-04-07 05:50:00,2021-04-07 18:27:00,0.86,0.1818,0.6554,2021-04-07 16:45:00,0.38,rain,12.51,2021-04-07 12:04:00,4.0,2021-04-08 01:07:00,12.23,2021-04-07 12:04:00,2.41,2021-04-08 01:28:00,-1.31,0.55,1019.7,2.48,4.58,1617783060,250,0.43,9,1617775080,12.955,265.6,4.72,2021-04-07 01:08:00,12.51,2021-04-07 12:04:00,2.87,2021-04-07 01:36:00,12.23,2021-04-07 12:04:00,
Gulmi,Darma,27.9365,83.33811667,2021-04-06 00:00:00,Clear throughout the day.,clear-day,2021-04-06 05:57:00,2021-04-06 18:33:00,0.83,0.0077,0.0637,2021-04-06 14:45:00,0.02,rain,31.34,2021-04-06 14:19:00,17.37,2021-04-07 04:42:00,31.06,2021-04-06 14:19:00,17.64,2021-04-07 04:42:00,-1.31,0.21,1010.4,2.12,6.17,1617702780,27,0.17,10,1617687300,16.093,274.4,15.42,2021-04-06 05:35:00,31.34,2021-04-06 14:19:00,15.69,2021-04-06 05:35:00,31.06,2021-04-06 14:19:00,
Gulmi,Musikot,27.93856667,83.44315278,2021-04-06 00:00:00,Clear throughout the day.,clear-day,2021-04-06 05:57:00,2021-04-06 18:32:00,0.83,0.0083,0.0637,2021-04-06 14:45:00,0.02,rain,34.28,2021-04-06 14:15:00,18.54,2021-04-07 04:36:00,34.0,2021-04-06 14:15:00,18.81,2021-04-07 04:36:00,-0.28,0.2,1010.7,2.04,6.06,1617702780,16,0.2,9,1617686820,16.093,274.3,16.71,2021-04-06 05:39:00,34.28,2021-04-06 14:15:00,16.98,2021-04-06 05:39:00,34.0,2021-04-06 14:15:00,
Gulmi,Tamghas,28.16998056,83.26802778,2021-04-06 00:00:00,Partly cloudy throughout the day.,partly-cloudy-day,2021-04-06 05:57:00,2021-04-06 18:33:00,0.83,0.0343,0.321,2021-04-06 16:43:00,0.03,rain,28.44,2021-04-06 13:53:00,14.58,2021-04-07 03:38:00,28.16,2021-04-06 13:53:00,14.85,2021-04-07 03:38:00,0.2,0.29,1012.6,2.36,7.79,1617702960,343,0.22,10,1617686100,16.093,272.7,11.82,2021-04-06 05:41:00,28.44,2021-04-06 13:53:00,12.09,2021-04-06 05:41:00,28.16,2021-04-06 13:53:00,
Humla,Simikot,29.73056889,82.07185,2021-04-06 00:00:00,Mostly cloudy throughout the day.,partly-cloudy-day,2021-04-06 06:01:00,2021-04-06 18:39:00,0.83,0.2824,0.7051,2021-04-06 18:53:00,0.33,rain,19.57,2021-04-06 13:44:00,7.27,2021-04-07 06:10:00,19.29,2021-04-06 13:44:00,6.52,2021-04-07 06:27:00,2.46,0.57,1018.3,1.78,6.4,1617701100,250,0.87,8,1617689220,15.897,273.3,6.39,2021-04-06 05:53:00,19.57,2021-04-06 13:44:00,5.6,2021-04-06 05:51:00,19.29,2021-04-06 13:44:00,
Humla,Simikot Airport,29.77827806,81.95264499999999,2021-04-06 00:00:00,Mostly cloudy throughout the day.,partly-cloudy-day,2021-04-06 06:02:00,2021-04-06 18:40:00,0.83,0.2337,0.7655,2021-04-06 18:49:00,0.33,rain,20.11,2021-04-06 13:44:00,7.6,2021-04-07 06:14:00,19.83,2021-04-06 13:44:00,7.03,2021-04-07 06:23:00,2.97,0.57,1018.4,1.6,5.52,1617702000,295,0.87,8,1617688980,16.028,273.7,6.75,2021-04-06 05:54:00,20.11,2021-04-06 13:44:00,5.98,2021-04-06 05:54:00,19.83,2021-04-06 13:44:00,
Humla,Thali,29.91966194,81.87920194,2021-04-06 00:00:00,Mostly cloudy throughout the day.,rain,2021-04-06 06:02:00,2021-04-06 18:40:00,0.83,0.3665,1.2019,2021-04-06 18:52:00,0.47,rain,12.83,2021-04-06 13:46:00,3.19,2021-04-07 00:06:00,12.55,2021-04-06 13:46:00,1.6,2021-04-07 01:34:00,1.16,0.71,1020.3,1.74,4.1,1617701340,163,0.88,7,1617688920,9.758,271.8,2.18,2021-04-06 05:58:00,12.83,2021-04-06 13:46:00,0.19,2021-04-06 06:02:00,12.55,2021-04-06 13:46:00,
Ilam,Himali Gaun,26.90963889,87.92308333,2021-04-06 00:00:00,Clear throughout the day.,clear-day,2021-04-06 05:40:00,2021-04-06 18:14:00,0.83,0.0128,0.0708,2021-04-06 11:48:00,0.06,rain,27.64,2021-04-06 12:50:00,18.13,2021-04-07 05:31:00,27.36,2021-04-06 12:50:00,18.4,2021-04-07 05:31:00,5.94,0.36,1011.8,2.0,3.67,1617699240,35,0.23,11,1617688440,16.093,270.2,16.37,2021-04-06 05:40:00,27.64,2021-04-06 12:50:00,16.64,2021-04-06 05:40:00,27.36,2021-04-06 12:50:00,
Ilam,Ilam Tea Estate,27.06666667,88.0,2021-04-06 00:00:00,Partly cloudy throughout the day.,partly-cloudy-day,2021-04-06 05:39:00,2021-04-06 18:14:00,0.83,0.0379,0.2478,2021-04-06 14:51:00,0.08,rain,18.25,2021-04-06 12:30:00,10.26,2021-04-07 05:27:00,17.97,2021-04-06 12:30:00,10.53,2021-04-07 05:27:00,1.71,0.48,1013.5,1.74,3.23,1617699360,76,0.35,10,1617687180,16.093,267.8,8.44,2021-04-06 05:41:00,18.25,2021-04-06 12:30:00,7.92,2021-04-06 05:39:00,17.97,2021-04-06 12:30:00,
Ilam,Kanyam Tea Estate,26.8,87.9,2021-04-06 00:00:00,Clear throughout the day.,clear-day,2021-04-06 05:40:00,2021-04-06 18:14:00,0.83,0.0079,0.055,2021-04-06 11:46:00,0.05,rain,33.47,2021-04-06 13:12:00,22.77,2021-04-07 05:28:00,33.19,2021-04-06 13:12:00,23.04,2021-04-07 05:28:00,8.36,0.31,1010.3,2.1,3.64,1617699540,20,0.11,11,1617688860,16.093,272.3,21.01,2021-04-06 05:35:00,33.47,2021-04-06 13:12:00,21.28,2021-04-06 05:35:00,33.19,2021-04-06 13:12:00,
Ilam,Soktim Tea E,26.88652778,88.02738889,2021-04-06 00:00:00,Clear throughout the day.,clear-day,2021-04-06 05:39:00,2021-04-06 18:13:00,0.83,0.0147,0.0912,2021-04-06 11:47:00,0.06,rain,25.21,2021-04-06 12:43:00,16.35,2021-04-07 05:33:00,24.93,2021-04-06 12:43:00,16.62,2021-04-07 05:33:00,3.82,0.36,1011.3,2.0,3.64,1617699420,359,0.19,11,1617688320,16.093,270.6,14.65,2021-04-06 05:41:00,25.21,2021-04-06 12:43:00,14.92,2021-04-06 05:41:00,24.93,2021-04-06 12:43:00,
Jajarkot,Bhanu Thana,28.961315000000003,82.268888,2021-04-06 00:00:00,Mostly cloudy throughout the day.,partly-cloudy-day,2021-04-06 06:01:00,2021-04-06 18:38:00,0.83,0.1243,0.7866,2021-04-06 15:45:00,0.13,rain,20.48,2021-04-06 11:57:00,9.73,2021-04-07 05:21:00,20.2,2021-04-06 11:57:00,10.0,2021-04-07 05:21:00,1.15,0.45,1016.4,2.38,5.71,1617689640,7,0.56,8,1617688380,16.093,270.3,8.76,2021-04-06 05:47:00,20.48,2021-04-06 11:57:00,7.35,2021-04-06 05:45:00,20.2,2021-04-06 11:57:00,
Jajarkot,Maina Gaun (D.Bas),28.69860389,82.200792,2021-04-06 00:00:00,Clear throughout the day.,clear-day,2021-04-06 06:01:00,2021-04-06 18:38:00,0.83,0.0112,0.0865,2021-04-06 14:48:00,0.02,rain,32.46,2021-04-06 13:55:00,17.26,2021-04-07 05:56:00,32.18,2021-04-06 13:55:00,17.53,2021-04-07 05:56:00,1.41,0.25,1012.0,2.45,6.99,1617697620,309,0.23,10,1617691620,16.093,274.4,16.0,2021-04-06 06:01:00,32.46,2021-04-06 13:55:00,16.27,2021-04-06 06:01:00,32.18,2021-04-06 13:55:00,
Jhapa,Anarmani Birta,26.6706658,87.7004293,2021-04-06 00:00:00,Clear throughout the day.,clear-day,2021-04-06 05:41:00,2021-04-06 18:15:00,0.83,0.0018,0.0071,2021-04-06 11:53:00,0.03,rain,36.02,2021-04-06 14:31:00,23.97,2021-04-07 05:28:00,35.74,2021-04-06 14:31:00,24.24,2021-04-07 05:28:00,8.43,0.28,1009.1,2.29,3.52,1617732900,62,0.03,11,1617689220,16.093,273.3,22.17,2021-04-06 05:23:00,36.02,2021-04-06 14:31:00,22.44,2021-04-06 05:23:00,35.74,2021-04-06 14:31:00,
Jhapa,Chnadra Gadhi,26.39616667,88.00375,2021-04-06 00:00:00,Clear throughout the day.,clear-day,2021-04-06 05:40:00,2021-04-06 18:13:00,0.83,0.0016,0.0071,2021-04-06 20:45:00,0.03,rain,36.21,2021-04-06 15:00:00,21.62,2021-04-07 05:22:00,35.93,2021-04-06 15:00:00,21.89,2021-04-07 05:22:00,9.08,0.31,1008.9,2.22,4.98,1617656460,87,0.01,11,1617689340,16.093,273.7,19.4,2021-04-06 04:40:00,36.21,2021-04-06 15:00:00,19.67,2021-04-06 04:40:00,35.93,2021-04-06 15:00:00,
Jhapa,Gaida (Kankai),26.68972222,87.98861111,2021-04-06 00:00:00,Clear throughout the day.,clear-day,2021-04-06 05:40:00,2021-04-06 18:14:00,0.83,0.0068,0.0584,2021-04-06 11:45:00,0.05,rain,34.84,2021-04-06 14:12:00,23.58,2021-04-07 05:27:00,34.56,2021-04-06 14:12:00,23.85,2021-04-07 05:27:00,8.8,0.3,1009.6,2.1,3.62,1617700080,26,0.06,11,1617689100,16.093,273.4,21.99,2021-04-06 05:24:00,34.84,2021-04-06 14:12:00,22.26,2021-04-06 05:24:00,34.56,2021-04-06 14:12:00,
Jhapa,Jumla,26.5647011,88.0614307,2021-04-06 00:00:00,Clear throughout the day.,clear-day,2021-04-06 05:39:00,2021-04-06 18:13:00,0.83,0.0027,0.0194,2021-04-06 11:45:00,0.02,rain,35.52,2021-04-06 14:14:00,22.2,2021-04-07 05:21:00,35.24,2021-04-06 14:14:00,22.47,2021-04-07 05:21:00,8.91,0.31,1009.1,2.18,4.4,1617657060,61,0.03,11,1617689220,16.093,273.8,20.36,2021-04-06 04:42:00,35.52,2021-04-06 14:14:00,20.63,2021-04-06 04:42:00,35.24,2021-04-06 14:14:00,
Jhapa,Kechana,26.65688889,87.86072222,2021-04-06 00:00:00,Clear throughout the day.,clear-day,2021-04-06 05:40:00,2021-04-06 18:14:00,0.83,0.0034,0.0252,2021-04-06 11:45:00,0.03,rain,35.55,2021-04-06 14:35:00,23.52,2021-04-07 05:27:00,35.27,2021-04-06 14:35:00,23.79,2021-04-07 05:27:00,8.67,0.29,1009.3,2.2,3.49,1617732900,55,0.04,11,1617689160,16.093,273.5,21.81,2021-04-06 05:12:00,35.55,2021-04-06 14:35:00,22.08,2021-04-06 05:12:00,35.27,2021-04-06 14:35:00,
Jhapa,Sanischare,26.625063899999997,87.98858059999999,2021-04-06 00:00:00,Clear throughout the day.,clear-day,2021-04-06 05:40:00,2021-04-06 18:13:00,0.83,0.0047,0.0385,2021-04-06 11:45:00,0.03,rain,35.3,2021-04-06 14:36:00,22.92,2021-04-07 05:26:00,35.02,2021-04-06 14:36:00,23.19,2021-04-07 05:26:00,8.99,0.3,1009.3,2.13,3.86,1617732900,51,0.04,11,1617689160,16.093,273.6,21.28,2021-04-06 04:54:00,35.3,2021-04-06 14:36:00,21.55,2021-04-06 04:54:00,35.02,2021-04-06 14:36:00,
Jumla,Dipal Gaun,29.23088056,82.33041944,2021-04-06 00:00:00,Mostly cloudy throughout the day.,partly-cloudy-day,2021-04-06 06:01:00,2021-04-06 18:38:00,0.83,0.1082,0.3135,2021-04-06 14:50:00,0.22,rain,16.63,2021-04-06 13:27:00,4.83,2021-04-07 00:15:00,16.35,2021-04-06 13:27:00,3.34,2021-04-07 00:16:00,-0.48,0.54,1018.0,1.95,6.15,1617685200,191,0.63,8,1617691800,15.374,269.0,4.29,2021-04-06 05:55:00,16.63,2021-04-06 13:27:00,3.32,2021-04-06 05:50:00,16.35,2021-04-06 13:27:00,
Jumla,Jacha,29.43111111,82.10744444,2021-04-06 00:00:00,Mostly cloudy throughout the day.,partly-cloudy-day,2021-04-06 06:01:00,2021-04-06 18:39:00,0.83,0.1285,0.3479,2021-04-06 00:00:00,0.21,rain,16.22,2021-04-06 13:40:00,3.35,2021-04-07 05:44:00,15.94,2021-04-06 13:40:00,1.92,2021-04-07 05:43:00,-0.92,0.56,1017.4,1.82,6.48,1617689460,318,0.75,8,1617691980,16.093,271.9,2.87,2021-04-06 05:56:00,16.22,2021-04-06 13:40:00,1.83,2021-04-06 06:00:00,15.94,2021-04-06 13:40:00,
Jumla,Jumla,29.26385556,82.22301111,2021-04-06 00:00:00,Mostly cloudy throughout the day.,partly-cloudy-day,2021-04-06 06:01:00,2021-04-06 18:38:00,0.83,0.0637,0.2521,2021-04-06 14:46:00,0.15,rain,19.54,2021-04-06 13:39:00,5.97,2021-04-07 00:28:00,19.26,2021-04-06 13:39:00,4.7,2021-04-07 00:28:00,0.11,0.51,1017.4,1.95,6.37,1617684720,122,0.66,7,1617691080,15.745,270.0,5.35,2021-04-06 05:43:00,19.54,2021-04-06 13:39:00,4.55,2021-04-06 05:43:00,19.26,2021-04-06 13:39:00,
Jumla,Tatopani,29.316667,82.283333,2021-04-06 00:00:00,Mostly cloudy throughout the day.,partly-cloudy-day,2021-04-06 06:01:00,2021-04-06 18:38:00,0.83,0.1168,0.2827,2021-04-06 00:00:00,0.22,rain,15.36,2021-04-06 13:41:00,3.39,2021-04-07 05:45:00,15.08,2021-04-06 13:41:00,1.82,2021-04-07 05:44:00,-0.97,0.57,1017.9,1.94,6.43,1617683580,160,0.69,7,1617690780,15.424,269.8,2.84,2021-04-06 05:57:00,15.36,2021-04-06 13:41:00,1.66,2021-04-06 05:52:00,15.08,2021-04-06 13:41:00,
Kabhre,Budal (Banepa),27.61611667,85.56550278,2021-04-06 00:00:00,Clear throughout the day.,clear-day,2021-04-06 05:49:00,2021-04-06 18:24:00,0.83,0.0096,0.0593,2021-04-06 14:52:00,0.03,rain,27.37,2021-04-06 14:43:00,14.44,2021-04-07 05:31:00,27.09,2021-04-06 14:43:00,14.71,2021-04-07 05:31:00,0.58,0.3,1011.6,1.59,4.71,1617710100,283,0.22,10,1617689700,16.093,272.1,12.76,2021-04-06 05:39:00,27.37,2021-04-06 14:43:00,13.03,2021-04-06 05:39:00,27.09,2021-04-06 14:43:00,
Kabhre,Dhulikhel,27.63882194,85.70498083,2021-04-06 00:00:00,Clear throughout the day.,clear-day,2021-04-06 05:48:00,2021-04-06 18:23:00,0.83,0.0052,0.0219,2021-04-06 17:40:00,0.01,rain,31.6,2021-04-06 14:19:00,15.59,2021-04-07 05:28:00,31.32,2021-04-06 14:19:00,15.86,2021-04-07 05:28:00,2.93,0.3,1012.3,1.58,4.45,1617710100,287,0.16,10,1617689280,16.093,272.4,14.14,2021-04-06 05:36:00,31.6,2021-04-06 14:19:00,14.41,2021-04-06 05:36:00,31.32,2021-04-06 14:19:00,
Kabhre,Dolal Ghat,27.69382389,85.635637,2021-04-06 00:00:00,Clear throughout the day.,clear-day,2021-04-06 05:48:00,2021-04-06 18:24:00,0.83,0.0075,0.0327,2021-04-06 15:14:00,0.02,rain,30.09,2021-04-06 14:45:00,14.25,2021-04-07 05:30:00,29.81,2021-04-06 14:45:00,14.52,2021-04-07 05:30:00,1.85,0.31,1012.0,1.46,5.19,1617710160,269,0.16,11,1617689640,16.093,272.4,12.6,2021-04-06 05:37:00,30.09,2021-04-06 14:45:00,12.87,2021-04-06 05:37:00,29.81,2021-04-06 14:45:00,
Kabhre,Panchkhal,27.63333333,85.51666667,2021-04-06 00:00:00,Clear throughout the day.,clear-day,2021-04-06 05:49:00,2021-04-06 18:24:00,0.83,0.0111,0.071,2021-04-06 14:53:00,0.03,rain,27.68,2021-04-06 14:45:00,14.37,2021-04-07 05:30:00,27.4,2021-04-06 14:45:00,14.64,2021-04-07 05:30:00,0.65,0.3,1011.7,1.54,5.04,1617710100,275,0.23,11,1617689940,16.093,272.0,12.8,2021-04-06 05:39:00,27.68,2021-04-06 14:45:00,13.07,2021-04-06 05:39:00,27.4,2021-04-06 14:45:00,
Kailali,Dhangadhi,28.68333333,80.6,2021-04-06 00:00:00,Partly cloudy throughout the day.,partly-cloudy-day,2021-04-06 06:08:00,2021-04-06 18:44:00,0.83,0.0334,0.197,2021-04-06 21:24:00,0.05,rain,39.46,2021-04-06 16:12:00,21.6,2021-04-07 05:38:00,39.18,2021-04-06 16:12:00,21.87,2021-04-07 05:38:00,0.57,0.17,1006.9,2.57,5.66,1617705780,89,0.36,9,1617694980,16.093,280.5,21.93,2021-04-06 05:10:00,39.46,2021-04-06 16:12:00,22.2,2021-04-06 05:10:00,39.18,2021-04-06 16:12:00,
Kailali,Godavari(West),28.554054999999998,80.831765,2021-04-06 00:00:00,Clear throughout the day.,clear-day,2021-04-06 06:07:00,2021-04-06 18:43:00,0.83,0.0322,0.2581,2021-04-06 23:40:00,0.05,rain,39.49,2021-04-06 16:04:00,20.88,2021-04-07 05:37:00,39.21,2021-04-06 16:04:00,21.15,2021-04-07 05:37:00,-0.65,0.16,1006.9,2.91,5.65,1617705360,90,0.28,9,1617689280,16.093,280.1,21.05,2021-04-06 04:54:00,39.49,2021-04-06 16:04:00,21.32,2021-04-06 04:54:00,39.21,2021-04-06 16:04:00,
Kailali,Malakheti,28.83333333,80.56666667,2021-04-06 00:00:00,Partly cloudy throughout the day.,partly-cloudy-day,2021-04-06 06:08:00,2021-04-06 18:45:00,0.83,0.0302,0.1586,2021-04-06 21:29:00,0.05,rain,39.36,2021-04-06 15:44:00,21.16,2021-04-07 05:34:00,39.08,2021-04-06 15:44:00,21.43,2021-04-07 05:34:00,2.18,0.19,1007.7,2.42,5.68,1617705360,72,0.41,9,1617692520,16.093,280.2,22.09,2021-04-06 05:34:00,39.36,2021-04-06 15:44:00,22.36,2021-04-06 05:34:00,39.08,2021-04-06 15:44:00,
Kailali,Sitapur,28.66417611,80.97850889,2021-04-06 00:00:00,Clear throughout the day.,clear-day,2021-04-06 06:06:00,2021-04-06 18:43:00,0.83,0.0227,0.2167,2021-04-07 00:00:00,0.04,rain,39.29,2021-04-06 15:30:00,21.07,2021-04-07 05:43:00,39.01,2021-04-06 15:30:00,21.34,2021-04-07 05:43:00,0.92,0.18,1007.6,2.64,5.54,1617728460,65,0.3,10,1617691620,16.093,279.9,22.26,2021-04-06 05:38:00,39.29,2021-04-06 15:30:00,22.53,2021-04-06 05:38:00,39.01,2021-04-06 15:30:00,
Kailali,Teghari,28.87623,80.57918889,2021-04-06 00:00:00,Partly cloudy throughout the day.,partly-cloudy-day,2021-04-06 06:08:00,2021-04-06 18:45:00,0.83,0.0271,0.127,2021-04-06 21:27:00,0.05,rain,38.11,2021-04-06 15:24:00,20.75,2021-04-07 05:27:00,37.83,2021-04-06 15:24:00,21.02,2021-04-07 05:27:00,2.34,0.2,1008.2,2.43,5.79,1617702720,64,0.42,9,1617692280,16.093,279.8,21.88,2021-04-06 05:39:00,38.11,2021-04-06 15:24:00,22.15,2021-04-06 05:39:00,37.83,2021-04-06 15:24:00,
Kalikot,Mahendra Nagar,29.09644444,81.70052778,2021-04-06 00:00:00,Partly cloudy throughout the day.,partly-cloudy-day,2021-04-06 06:03:00,2021-04-06 18:40:00,0.83,0.0396,0.1661,2021-04-07 00:00:00,0.07,rain,27.64,2021-04-06 13:41:00,13.43,2021-04-07 05:42:00,27.36,2021-04-06 13:41:00,13.7,2021-04-07 05:42:00,1.59,0.32,1014.0,2.66,7.04,1617686580,14,0.49,9,1617693840,16.093,273.3,13.51,2021-04-06 06:10:00,27.64,2021-04-06 13:41:00,13.78,2021-04-06 06:10:00,27.36,2021-04-06 13:41:00,
Kalikot,Manma,29.2495,81.63913889,2021-04-06 00:00:00,Mostly cloudy throughout the day.,partly-cloudy-day,2021-04-06 06:03:00,2021-04-06 18:41:00,0.83,0.0837,0.4272,2021-04-07 00:00:00,0.12,rain,25.22,2021-04-06 12:53:00,10.25,2021-04-07 05:35:00,24.94,2021-04-06 12:53:00,10.52,2021-04-07 05:35:00,3.21,0.44,1015.4,2.49,6.67,1617686400,17,0.65,8,1617692220,16.093,273.2,10.13,2021-04-06 06:04:00,25.22,2021-04-06 12:53:00,10.4,2021-04-06 06:04:00,24.94,2021-04-06 12:53:00,
Kalikot,Nagma,29.12995833,81.58836111,2021-04-06 00:00:00,Partly cloudy throughout the day.,partly-cloudy-day,2021-04-06 06:04:00,2021-04-06 18:41:00,0.83,0.0642,0.2749,2021-04-07 00:00:00,0.09,rain,29.36,2021-04-06 13:15:00,14.92,2021-04-07 05:36:00,29.08,2021-04-06 13:15:00,15.19,2021-04-07 05:36:00,2.87,0.32,1013.8,2.72,6.86,1617687180,14,0.52,9,1617692580,16.093,274.2,15.22,2021-04-06 05:56:00,29.36,2021-04-06 13:15:00,15.49,2021-04-06 05:56:00,29.08,2021-04-06 13:15:00,
Kanchanpur,Dodhara,28.86185889,80.44044194,2021-04-06 00:00:00,Partly cloudy throughout the day.,partly-cloudy-day,2021-04-06 06:08:00,2021-04-06 18:45:00,0.83,0.0283,0.1441,2021-04-06 21:28:00,0.05,rain,39.24,2021-04-06 15:53:00,21.28,2021-04-07 05:26:00,38.96,2021-04-06 15:53:00,21.55,2021-04-07 05:26:00,2.42,0.2,1007.7,2.59,5.81,1617705180,68,0.43,8,1617692340,16.093,280.4,22.24,2021-04-06 05:32:00,39.24,2021-04-06 15:53:00,22.51,2021-04-06 05:32:00,38.96,2021-04-06 15:53:00,
Kanchanpur,Hanmannagar,28.698575,80.37540389,2021-04-06 00:00:00,Partly cloudy throughout the day.,partly-cloudy-day,2021-04-06 06:09:00,2021-04-06 18:45:00,0.83,0.0306,0.1879,2021-04-06 21:09:00,0.06,rain,39.5,2021-04-06 16:11:00,21.09,2021-04-07 05:35:00,39.22,2021-04-06 16:11:00,21.36,2021-04-07 05:35:00,0.93,0.18,1007.0,2.85,5.86,1617705780,85,0.39,9,1617695880,16.093,280.6,21.14,2021-04-06 04:54:00,39.5,2021-04-06 16:11:00,21.41,2021-04-06 04:54:00,39.22,2021-04-06 16:11:00,
Kanchanpur,Taulihawa,28.89702,80.36996389,2021-04-06 00:00:00,Partly cloudy throughout the day.,partly-cloudy-day,2021-04-06 06:09:00,2021-04-06 18:45:00,0.83,0.0294,0.1473,2021-04-06 23:49:00,0.05,rain,39.01,2021-04-06 15:42:00,21.4,2021-04-07 05:08:00,38.73,2021-04-06 15:42:00,21.67,2021-04-07 05:08:00,2.84,0.2,1007.8,2.75,5.92,1617704700,60,0.43,8,1617690480,16.093,280.6,22.51,2021-04-06 05:38:00,39.01,2021-04-06 15:42:00,22.78,2021-04-06 05:38:00,38.73,2021-04-06 15:42:00,
Kapilbastu,Banganga,27.669936100000005,82.7911917,2021-04-06 00:00:00,Clear throughout the day.,clear-day,2021-04-06 06:00:00,2021-04-06 18:35:00,0.83,0.0007,0.0051,2021-04-06 02:45:00,0.01,rain,38.83,2021-04-06 16:16:00,22.62,2021-04-07 05:28:00,38.55,2021-04-06 16:16:00,22.89,2021-04-07 05:28:00,-1.95,0.14,1007.8,2.7,5.62,1617700860,79,0.04,11,1617688800,16.093,276.7,19.92,2021-04-06 04:58:00,38.83,2021-04-06 16:16:00,20.19,2021-04-06 04:58:00,38.55,2021-04-06 16:16:00,
Kapilvastu,Bahadur Ganj,27.693294399999996,83.1612556,2021-04-06 00:00:00,Clear throughout the day.,clear-day,2021-04-06 05:58:00,2021-04-06 18:33:00,0.83,0.0007,0.0051,2021-04-06 02:45:00,0.01,rain,38.3,2021-04-06 15:02:00,23.48,2021-04-07 05:23:00,38.02,2021-04-06 15:02:00,23.75,2021-04-07 05:23:00,-1.23,0.14,1008.5,2.61,4.6,1617700980,68,0.11,10,1617688380,16.093,276.3,21.28,2021-04-06 05:37:00,38.3,2021-04-06 15:02:00,21.55,2021-04-06 05:37:00,38.02,2021-04-06 15:02:00,
Kapilvastu,Sallyan (Kaski),27.55,83.85,2021-04-06 00:00:00,Clear throughout the day.,clear-day,2021-04-06 05:56:00,2021-04-06 18:31:00,0.83,0.0011,0.0051,2021-04-06 02:45:00,0.01,rain,34.78,2021-04-06 15:10:00,21.06,2021-04-07 05:31:00,34.5,2021-04-06 15:10:00,21.33,2021-04-07 05:31:00,-0.52,0.17,1008.2,2.15,3.83,1617701820,63,0.13,10,1617688800,16.093,276.0,19.19,2021-04-06 05:29:00,34.78,2021-04-06 15:10:00,19.46,2021-04-06 05:29:00,34.5,2021-04-06 15:10:00,
Kaski,Begnas,28.212011100000005,83.8915417,2021-04-06 00:00:00,Clear throughout the day.,clear-day,2021-04-06 05:55:00,2021-04-06 18:31:00,0.83,0.0068,0.0473,2021-04-06 17:46:00,0.01,rain,26.95,2021-04-06 14:09:00,16.36,2021-04-07 05:22:00,26.67,2021-04-06 14:09:00,16.63,2021-04-07 05:22:00,-1.72,0.24,1011.3,2.33,5.46,1617699900,350,0.29,11,1617688620,16.093,273.8,14.07,2021-04-06 05:46:00,26.95,2021-04-06 14:09:00,14.34,2021-04-06 05:46:00,26.67,2021-04-06 14:09:00,
Kaski,Begnas Tal,28.35805556,84.105175,2021-04-06 00:00:00,Clear throughout the day.,clear-day,2021-04-06 05:54:00,2021-04-06 18:30:00,0.83,0.0299,0.1202,2021-04-06 15:53:00,0.08,rain,21.6,2021-04-06 13:41:00,12.02,2021-04-07 01:34:00,21.32,2021-04-06 13:41:00,12.29,2021-04-07 01:34:00,-1.9,0.32,1014.5,2.68,4.74,1617701700,335,0.25,12,1617688620,16.093,269.9,9.32,2021-04-06 05:53:00,21.6,2021-04-06 13:41:00,8.01,2021-04-06 05:48:00,21.32,2021-04-06 13:41:00,
Kaski,Bhadaure Deurali,28.21849444,83.9742,2021-04-06 00:00:00,Clear throughout the day.,clear-day,2021-04-06 05:55:00,2021-04-06 18:31:00,0.83,0.0023,0.0127,2021-04-06 17:44:00,0.01,rain,30.87,2021-04-06 14:00:00,18.1,2021-04-07 05:25:00,30.59,2021-04-06 14:00:00,18.37,2021-04-07 05:25:00,0.72,0.24,1011.5,2.33,5.52,1617700800,352,0.24,11,1617688620,16.093,273.9,16.18,2021-04-06 05:44:00,30.87,2021-04-06 14:00:00,16.45,2021-04-06 05:44:00,30.59,2021-04-06 14:00:00,
Kaski,Ghandruk,28.26168056,83.96873333,2021-04-06 00:00:00,Clear throughout the day.,clear-day,2021-04-06 05:55:00,2021-04-06 18:31:00,0.83,0.0037,0.0174,2021-04-06 17:40:00,0.01,rain,29.65,2021-04-06 13:57:00,17.68,2021-04-07 05:25:00,29.37,2021-04-06 13:57:00,17.95,2021-04-07 05:25:00,0.8,0.25,1012.1,2.45,5.38,1617700560,351,0.25,11,1617688560,16.093,273.4,15.61,2021-04-06 05:46:00,29.65,2021-04-06 13:57:00,15.88,2021-04-06 05:46:00,29.37,2021-04-06 13:57:00,
Kaski,Lamachaur,28.29653889,83.81791111,2021-04-06 00:00:00,Partly cloudy throughout the day.,partly-cloudy-day,2021-04-06 05:55:00,2021-04-06 18:31:00,0.83,0.0159,0.1049,2021-04-06 17:39:00,0.03,rain,23.77,2021-04-06 14:31:00,13.89,2021-04-07 05:20:00,23.49,2021-04-06 14:31:00,14.16,2021-04-07 05:20:00,-2.22,0.28,1012.8,2.52,5.16,1617698580,343,0.34,10,1617688620,16.093,272.1,11.04,2021-04-06 05:50:00,23.77,2021-04-06 14:31:00,11.31,2021-04-06 05:50:00,23.49,2021-04-06 14:31:00,
Kaski,Lumle,28.26555556,83.82211944,2021-04-06 00:00:00,Partly cloudy throughout the day.,partly-cloudy-day,2021-04-06 05:55:00,2021-04-06 18:31:00,0.83,0.0133,0.0938,2021-04-06 17:44:00,0.03,rain,25.07,2021-04-06 14:34:00,15.04,2021-04-07 05:09:00,24.79,2021-04-06 14:34:00,15.31,2021-04-07 05:09:00,-1.96,0.27,1012.2,2.47,5.28,1617698640,347,0.34,10,1617688620,16.093,273.0,12.31,2021-04-06 05:49:00,25.07,2021-04-06 14:34:00,12.58,2021-04-06 05:49:00,24.79,2021-04-06 14:34:00,
Kaski,Pokhara Airport,28.23333333,84.0,2021-04-06 00:00:00,Clear throughout the day.,clear-day,2021-04-06 05:55:00,2021-04-06 18:30:00,0.83,0.0,0.0,2021-04-06 02:45:00,0.0,,30.49,2021-04-06 14:00:00,18.23,2021-04-07 05:27:00,30.21,2021-04-06 14:00:00,18.5,2021-04-07 05:27:00,0.67,0.24,1011.5,2.37,5.52,1617701040,354,0.23,11,1617688620,16.093,273.9,16.33,2021-04-06 05:45:00,30.49,2021-04-06 14:00:00,16.6,2021-04-06 05:45:00,30.21,2021-04-06 14:00:00,
Kaski,Pokhara Airport,28.22,84.0,2021-04-06 00:00:00,Clear throughout the day.,clear-day,2021-04-06 05:55:00,2021-04-06 18:30:00,0.83,0.0,0.0,2021-04-06 02:45:00,0.0,,30.93,2021-04-06 13:57:00,18.23,2021-04-07 05:27:00,30.65,2021-04-06 13:57:00,18.5,2021-04-07 05:27:00,0.69,0.23,1011.5,2.33,5.56,1617701100,353,0.23,11,1617688620,16.093,274.0,16.38,2021-04-06 05:44:00,30.93,2021-04-06 13:57:00,16.65,2021-04-06 05:44:00,30.65,2021-04-06 13:57:00,
Kathmandu,Budhanilakan,27.78333333,85.31666667,2021-04-06 00:00:00,Clear throughout the day.,clear-day,2021-04-06 05:50:00,2021-04-06 18:25:00,0.83,0.0131,0.0595,2021-04-06 11:59:00,0.03,rain,27.91,2021-04-06 14:37:00,14.18,2021-04-07 05:30:00,27.63,2021-04-06 14:37:00,14.45,2021-04-07 05:30:00,-0.19,0.28,1011.8,1.63,4.48,1617710100,158,0.2,10,1617689220,16.093,272.0,12.69,2021-04-06 05:39:00,27.91,2021-04-06 14:37:00,12.96,2021-04-06 05:39:00,27.63,2021-04-06 14:37:00,
Kathmandu,Kathmandu Airport,27.703825,85.35624722,2021-04-06 00:00:00,Clear throughout the day.,clear-day,2021-04-06 05:49:00,2021-04-06 18:25:00,0.83,0.0137,0.0652,2021-04-06 11:54:00,0.04,rain,26.66,2021-04-06 13:47:00,11.22,2021-04-07 05:25:00,26.38,2021-04-06 13:47:00,11.49,2021-04-07 05:25:00,5.44,0.44,1011.6,1.54,4.54,1617710100,154,0.23,11,1617689940,7.466,272.1,11.3,2021-04-06 06:31:00,26.66,2021-04-06 13:47:00,11.57,2021-04-06 06:31:00,26.38,2021-04-06 13:47:00,
Kathmandu,Naikap,27.7726953,85.4277003,2021-04-06 00:00:00,Clear throughout the day.,clear-day,2021-04-06 05:49:00,2021-04-06 18:24:00,0.83,0.0124,0.065,2021-04-06 15:39:00,0.03,rain,25.68,2021-04-06 14:46:00,12.79,2021-04-07 05:30:00,25.4,2021-04-06 14:46:00,13.06,2021-04-07 05:30:00,-1.36,0.3,1011.8,1.43,5.4,1617710160,192,0.19,11,1617689520,16.093,272.0,11.08,2021-04-06 05:41:00,25.68,2021-04-06 14:46:00,11.35,2021-04-06 05:41:00,25.4,2021-04-06 14:46:00,
Kathmandu,Pharping,27.76666667,85.31666667,2021-04-06 00:00:00,Clear throughout the day.,clear-day,2021-04-06 05:50:00,2021-04-06 18:25:00,0.83,0.0135,0.064,2021-04-06 11:59:00,0.03,rain,28.28,2021-04-06 14:36:00,14.1,2021-04-07 05:29:00,28.0,2021-04-06 14:36:00,14.37,2021-04-07 05:29:00,0.17,0.28,1011.7,1.56,4.52,1617710100,161,0.2,10,1617689340,16.093,272.1,12.76,2021-04-06 05:38:00,28.28,2021-04-06 14:36:00,13.03,2021-04-06 05:38:00,28.0,2021-04-06 14:36:00,
Kathmandu,Sankhu,27.73333333,85.33333333,2021-04-06 00:00:00,Clear throughout the day.,clear-day,2021-04-06 05:49:00,2021-04-06 18:25:00,0.83,0.0138,0.0667,2021-04-06 11:57:00,0.04,rain,28.04,2021-04-06 14:34:00,13.71,2021-04-07 05:29:00,27.76,2021-04-06 14:34:00,13.98,2021-04-07 05:29:00,0.99,0.3,1011.6,1.5,4.58,1617710100,163,0.21,10,1617689640,16.093,272.2,12.71,2021-04-06 05:40:00,28.04,2021-04-06 14:34:00,12.98,2021-04-06 05:40:00,27.76,2021-04-06 14:34:00,
Kathmandu,Sankhu,27.73333333,85.33333333,2021-04-06 00:00:00,Clear throughout the day.,clear-day,2021-04-06 05:49:00,2021-04-06 18:25:00,0.83,0.0138,0.0667,2021-04-06 11:57:00,0.04,rain,28.04,2021-04-06 14:34:00,13.71,2021-04-07 05:29:00,27.76,2021-04-06 14:34:00,13.98,2021-04-07 05:29:00,0.99,0.3,1011.6,1.5,4.58,1617710100,163,0.21,10,1617689640,16.093,272.2,12.71,2021-04-06 05:40:00,28.04,2021-04-06 14:34:00,12.98,2021-04-06 05:40:00,27.76,2021-04-06 14:34:00,
Kathmandu,Sivapuri,27.75,85.43333333,2021-04-06 00:00:00,Clear throughout the day.,clear-day,2021-04-06 05:49:00,2021-04-06 18:24:00,0.83,0.0123,0.0655,2021-04-06 15:40:00,0.03,rain,28.36,2021-04-06 14:47:00,13.39,2021-04-07 05:29:00,28.08,2021-04-06 14:47:00,13.66,2021-04-07 05:29:00,0.19,0.3,1011.8,1.3,5.66,1617710160,194,0.18,11,1617689580,16.093,272.3,12.12,2021-04-06 05:36:00,28.36,2021-04-06 14:47:00,12.39,2021-04-06 05:36:00,28.08,2021-04-06 14:47:00,
Kathmandu,Sundarijal,27.8,85.43333333,2021-04-06 00:00:00,Clear throughout the day.,clear-day,2021-04-06 05:49:00,2021-04-06 18:24:00,0.83,0.0125,0.0653,2021-04-06 15:38:00,0.03,rain,23.15,2021-04-06 14:42:00,10.69,2021-04-07 05:27:00,22.87,2021-04-06 14:42:00,10.96,2021-04-07 05:27:00,-3.42,0.3,1012.0,1.56,5.19,1617710160,198,0.19,11,1617689460,16.093,271.7,8.64,2021-04-06 05:39:00,23.15,2021-04-06 14:42:00,8.91,2021-04-06 05:39:00,22.87,2021-04-06 14:42:00,
Kathmandu,Tarebhir,27.78419167,85.29049444,2021-04-06 00:00:00,Clear throughout the day.,clear-day,2021-04-06 05:50:00,2021-04-06 18:25:00,0.83,0.0132,0.0664,2021-04-06 11:57:00,0.04,rain,26.83,2021-04-06 14:25:00,14.12,2021-04-07 05:30:00,26.55,2021-04-06 14:25:00,14.39,2021-04-07 05:30:00,-0.78,0.28,1011.6,1.67,4.29,1617710100,154,0.21,10,1617689220,16.093,272.0,12.57,2021-04-06 05:40:00,26.83,2021-04-06 14:25:00,12.84,2021-04-06 05:40:00,26.55,2021-04-06 14:25:00,
Kathmandu,Tokha,27.7972222,85.3577778,2021-04-06 00:00:00,Clear throughout the day.,clear-day,2021-04-06 05:49:00,2021-04-06 18:25:00,0.83,0.0127,0.058,2021-04-06 15:40:00,0.03,rain,23.67,2021-04-06 14:33:00,11.61,2021-04-07 05:29:00,23.39,2021-04-06 14:33:00,11.88,2021-04-07 05:29:00,-2.98,0.29,1011.8,1.64,4.72,1617710160,162,0.2,11,1617689280,16.093,271.8,9.8,2021-04-06 05:40:00,23.67,2021-04-06 14:33:00,10.07,2021-04-06 05:40:00,23.39,2021-04-06 14:33:00,
Khotang,Diktel,27.02930083,86.84337278,2021-04-06 00:00:00,Clear throughout the day.,clear-day,2021-04-06 05:44:00,2021-04-06 18:18:00,0.83,0.0032,0.0109,2021-04-06 11:03:00,0.03,rain,29.52,2021-04-06 13:21:00,19.19,2021-04-07 05:33:00,29.24,2021-04-06 13:21:00,19.46,2021-04-07 05:33:00,2.81,0.28,1010.7,2.01,4.19,1617697980,85,0.19,10,1617690600,16.093,271.1,17.08,2021-04-06 05:40:00,29.52,2021-04-06 13:21:00,17.35,2021-04-06 05:40:00,29.24,2021-04-06 13:21:00,
Khotang,Dwarpa,27.359795000000002,86.7486619,2021-04-06 00:00:00,Clear throughout the day.,clear-day,2021-04-06 05:44:00,2021-04-06 18:19:00,0.83,0.0144,0.0393,2021-04-06 18:38:00,0.04,rain,21.18,2021-04-06 13:14:00,12.21,2021-04-07 05:35:00,20.9,2021-04-06 13:14:00,12.48,2021-04-07 05:35:00,-1.88,0.32,1012.8,2.3,4.29,1617699600,65,0.26,10,1617688920,16.093,269.5,10.03,2021-04-06 05:43:00,21.18,2021-04-06 13:14:00,10.3,2021-04-06 05:43:00,20.9,2021-04-06 13:14:00,
Khotang,Khotang Bazar,27.1408985,86.4317585,2021-04-06 00:00:00,Clear throughout the day.,clear-day,2021-04-06 05:45:00,2021-04-06 18:20:00,0.83,0.003,0.0126,2021-04-06 11:53:00,0.03,rain,33.35,2021-04-06 13:41:00,20.89,2021-04-07 05:25:00,33.07,2021-04-06 13:41:00,21.16,2021-04-07 05:25:00,3.91,0.24,1010.9,2.21,4.04,1617698580,66,0.17,9,1617686400,16.093,271.9,19.04,2021-04-06 05:33:00,33.35,2021-04-06 13:41:00,19.31,2021-04-06 05:33:00,33.07,2021-04-06 13:41:00,
Khotang,Kurle Ghat,27.21666667,86.85,2021-04-06 00:00:00,Partly cloudy throughout the day.,partly-cloudy-day,2021-04-06 05:44:00,2021-04-06 18:18:00,0.83,0.0147,0.0803,2021-04-06 16:45:00,0.04,rain,23.27,2021-04-06 13:11:00,14.12,2021-04-07 05:31:00,22.99,2021-04-06 13:11:00,14.39,2021-04-07 05:31:00,-0.32,0.32,1011.9,1.93,4.42,1617701460,140,0.28,10,1617689280,16.093,270.1,11.98,2021-04-06 05:41:00,23.27,2021-04-06 13:11:00,12.25,2021-04-06 05:41:00,22.99,2021-04-06 13:11:00,
Lalitpur,Chapa Gaun,27.566666700000003,85.3166667,2021-04-06 00:00:00,Partly cloudy throughout the day.,partly-cloudy-day,2021-04-06 05:50:00,2021-04-06 18:25:00,0.83,0.0155,0.1084,2021-04-06 11:47:00,0.04,rain,26.33,2021-04-06 13:54:00,15.63,2021-04-07 05:31:00,26.05,2021-04-06 13:54:00,15.9,2021-04-07 05:31:00,0.2,0.28,1011.2,1.79,3.69,1617698460,91,0.25,10,1617690960,16.093,271.8,13.93,2021-04-06 05:42:00,26.33,2021-04-06 13:54:00,14.2,2021-04-06 05:42:00,26.05,2021-04-06 13:54:00,
Lalitpur,Godavari,27.68333333,85.3,2021-04-06 00:00:00,Clear throughout the day.,clear-day,2021-04-06 05:50:00,2021-04-06 18:25:00,0.83,0.0147,0.0883,2021-04-06 11:51:00,0.04,rain,28.32,2021-04-06 14:23:00,14.66,2021-04-07 05:29:00,28.04,2021-04-06 14:23:00,14.93,2021-04-07 05:29:00,1.12,0.29,1011.5,1.62,3.88,1617709980,147,0.22,10,1617690000,16.093,272.0,13.5,2021-04-06 05:39:00,28.32,2021-04-06 14:23:00,13.77,2021-04-06 05:39:00,28.04,2021-04-06 14:23:00,
Lalitpur,Khokana,27.65,85.38333333,2021-04-06 00:00:00,Clear throughout the day.,clear-day,2021-04-06 05:49:00,2021-04-06 18:25:00,0.83,0.0136,0.0672,2021-04-06 11:50:00,0.04,rain,28.13,2021-04-06 14:38:00,14.57,2021-04-07 05:29:00,27.85,2021-04-06 14:38:00,14.84,2021-04-07 05:29:00,1.41,0.3,1011.6,1.6,4.3,1617710040,160,0.23,10,1617690180,16.093,272.0,13.38,2021-04-06 05:40:00,28.13,2021-04-06 14:38:00,13.65,2021-04-06 05:40:00,27.85,2021-04-06 14:38:00,
Lalitpur,Khumaltar,27.5929167,85.3788333,2021-04-06 00:00:00,Partly cloudy throughout the day.,partly-cloudy-day,2021-04-06 05:49:00,2021-04-06 18:25:00,0.83,0.014,0.0806,2021-04-06 11:47:00,0.04,rain,26.24,2021-04-06 14:19:00,15.02,2021-04-07 05:31:00,25.96,2021-04-06 14:19:00,15.29,2021-04-07 05:31:00,0.19,0.29,1011.4,1.72,3.77,1617699420,109,0.25,10,1617690660,16.093,271.9,13.32,2021-04-06 05:42:00,26.24,2021-04-06 14:19:00,13.59,2021-04-06 05:42:00,25.96,2021-04-06 14:19:00,
Lalitpur,Kritipur (Bagban),27.68333333,85.33333333,2021-04-06 00:00:00,Clear throughout the day.,clear-day,2021-04-06 05:50:00,2021-04-06 18:25:00,0.83,0.0142,0.0771,2021-04-06 11:51:00,0.04,rain,27.86,2021-04-06 14:10:00,13.66,2021-04-07 05:28:00,27.58,2021-04-06 14:10:00,13.93,2021-04-07 05:28:00,2.46,0.33,1011.6,1.59,4.16,1617710040,150,0.22,10,1617690000,16.093,272.1,13.06,2021-04-06 05:45:00,27.86,2021-04-06 14:10:00,13.33,2021-04-06 05:45:00,27.58,2021-04-06 14:10:00,
Lalitpur,Lalitpur (Kopundol),27.659325,85.3697083,2021-04-06 00:00:00,Clear throughout the day.,clear-day,2021-04-06 05:49:00,2021-04-06 18:25:00,0.83,0.0138,0.0699,2021-04-06 11:50:00,0.04,rain,28.09,2021-04-06 14:34:00,14.29,2021-04-07 05:29:00,27.81,2021-04-06 14:34:00,14.56,2021-04-07 05:29:00,1.82,0.31,1011.6,1.59,4.27,1617710040,154,0.23,10,1617690120,16.093,272.0,13.3,2021-04-06 05:42:00,28.09,2021-04-06 14:34:00,13.57,2021-04-06 05:42:00,27.81,2021-04-06 14:34:00,
Lalitpur,Lubhu,27.60325833,85.32656389,2021-04-06 00:00:00,Clear throughout the day.,clear-day,2021-04-06 05:50:00,2021-04-06 18:25:00,0.83,0.015,0.0968,2021-04-06 11:48:00,0.04,rain,26.92,2021-04-06 14:22:00,15.33,2021-04-07 05:30:00,26.64,2021-04-06 14:22:00,15.6,2021-04-07 05:30:00,0.53,0.29,1011.3,1.73,3.55,1617699180,114,0.24,10,1617690660,16.093,271.9,13.84,2021-04-06 05:41:00,26.92,2021-04-06 14:22:00,14.11,2021-04-06 05:41:00,26.64,2021-04-06 14:22:00,
Lalitpur,Tikathali,27.576825,85.3540444,2021-04-06 00:00:00,Partly cloudy throughout the day.,partly-cloudy-day,2021-04-06 05:49:00,2021-04-06 18:25:00,0.83,0.0147,0.0928,2021-04-06 11:47:00,0.04,rain,25.67,2021-04-06 14:08:00,15.07,2021-04-07 05:33:00,25.39,2021-04-06 14:08:00,15.34,2021-04-07 05:33:00,-0.28,0.29,1011.3,1.76,3.76,1617699120,92,0.25,10,1617690840,16.093,271.8,13.22,2021-04-06 05:43:00,25.67,2021-04-06 14:08:00,13.49,2021-04-06 05:43:00,25.39,2021-04-06 14:08:00,
Lamiung,Khudi Bazar,28.12677778,84.34494167,2021-04-06 00:00:00,Clear throughout the day.,clear-day,2021-04-06 05:53:00,2021-04-06 18:29:00,0.83,0.0182,0.0535,2021-04-06 20:42:00,0.02,rain,32.28,2021-04-06 14:05:00,17.76,2021-04-07 05:27:00,32.0,2021-04-06 14:05:00,18.03,2021-04-07 05:27:00,-0.24,0.22,1011.0,1.9,3.98,1617703260,345,0.18,11,1617689580,16.093,274.1,15.91,2021-04-06 05:43:00,32.28,2021-04-06 14:05:00,16.18,2021-04-06 05:43:00,32.0,2021-04-06 14:05:00,
Lamjung,Besishahar,28.25596667,84.47929722,2021-04-06 21:45:00,Partly cloudy throughout the day.,partly-cloudy-day,2021-04-07 05:52:00,2021-04-07 18:29:00,0.86,0.1014,0.3959,2021-04-07 16:41:00,0.1,rain,28.57,2021-04-07 12:52:00,17.93,2021-04-08 02:19:00,28.29,2021-04-07 12:52:00,18.2,2021-04-08 02:19:00,1.87,0.28,1013.5,3.03,4.66,1617797400,11,0.33,9,1617778440,16.093,271.6,17.86,2021-04-07 01:21:00,28.57,2021-04-07 12:52:00,18.13,2021-04-07 01:21:00,28.29,2021-04-07 12:52:00,
Lamjung,Bhorletar,28.21813889,84.24153889,2021-04-06 00:00:00,Clear throughout the day.,clear-day,2021-04-06 05:54:00,2021-04-06 18:29:00,0.83,0.0095,0.0824,2021-04-06 20:48:00,0.01,rain,28.85,2021-04-06 13:57:00,17.66,2021-04-07 05:36:00,28.57,2021-04-06 13:57:00,17.93,2021-04-07 05:36:00,-2.5,0.21,1011.0,2.5,4.66,1617732900,346,0.17,12,1617689400,16.093,273.7,15.0,2021-04-06 05:55:00,28.85,2021-04-06 13:57:00,15.27,2021-04-06 05:55:00,28.57,2021-04-06 13:57:00,
Lamjung,Faleni,28.30964722,84.26600278,2021-04-06 00:00:00,Clear throughout the day.,clear-day,2021-04-06 05:53:00,2021-04-06 18:29:00,0.83,0.0389,0.1322,2021-04-06 16:30:00,0.07,rain,25.99,2021-04-06 13:46:00,15.94,2021-04-07 01:39:00,25.71,2021-04-06 13:46:00,16.21,2021-04-07 01:39:00,-0.6,0.28,1013.2,2.71,4.81,1617732900,351,0.2,12,1617689100,16.093,271.4,13.15,2021-04-06 05:53:00,25.99,2021-04-06 13:46:00,13.42,2021-04-06 05:53:00,25.71,2021-04-06 13:46:00,
Lamjung,Gausala,28.07621667,84.47669444,2021-04-06 00:00:00,Clear throughout the day.,clear-day,2021-04-06 05:53:00,2021-04-06 18:28:00,0.83,0.0216,0.0681,2021-04-06 17:42:00,0.03,rain,33.97,2021-04-06 14:29:00,18.32,2021-04-07 05:25:00,33.69,2021-04-06 14:29:00,18.59,2021-04-07 05:25:00,-0.02,0.2,1011.0,1.66,3.12,1617703500,17,0.18,11,1617690000,16.093,274.2,16.72,2021-04-06 05:41:00,33.97,2021-04-06 14:29:00,16.99,2021-04-06 05:41:00,33.69,2021-04-06 14:29:00,
Lamjung,Gharedhunga,28.282208299999997,84.3454164,2021-04-06 00:00:00,Clear throughout the day.,clear-day,2021-04-06 05:53:00,2021-04-06 18:29:00,0.83,0.0423,0.1273,2021-04-06 17:16:00,0.06,rain,27.88,2021-04-06 13:47:00,17.98,2021-04-07 01:28:00,27.6,2021-04-06 13:47:00,18.25,2021-04-07 01:28:00,-0.48,0.25,1013.2,2.74,4.82,1617732900,2,0.2,11,1617689340,16.093,271.8,15.42,2021-04-06 05:51:00,27.88,2021-04-06 13:47:00,15.69,2021-04-06 05:51:00,27.6,2021-04-06 13:47:00,
Mahottari,Chisapani Gadhi,26.65224722,85.807275,2021-04-06 00:00:00,Clear throughout the day.,clear-day,2021-04-06 05:48:00,2021-04-06 18:22:00,0.83,0.0007,0.0051,2021-04-06 02:45:00,0.02,rain,38.11,2021-04-06 14:50:00,22.24,2021-04-07 05:31:00,37.83,2021-04-06 14:50:00,22.51,2021-04-07 05:31:00,4.27,0.22,1008.1,3.38,6.95,1617677160,93,0.08,11,1617690720,16.093,273.9,20.12,2021-04-06 04:41:00,38.11,2021-04-06 14:50:00,20.39,2021-04-06 04:41:00,37.83,2021-04-06 14:50:00,
Mahottari,Jalesore,26.88333333,85.78333333,2021-04-06 00:00:00,Clear throughout the day.,clear-day,2021-04-06 05:48:00,2021-04-06 18:22:00,0.83,0.0007,0.0051,2021-04-06 02:45:00,0.02,rain,37.35,2021-04-06 14:10:00,22.24,2021-04-07 05:26:00,37.07,2021-04-06 14:10:00,22.51,2021-04-07 05:26:00,3.28,0.2,1008.2,3.11,5.79,1617678360,91,0.09,11,1617690960,16.093,274.7,20.98,2021-04-06 04:43:00,37.35,2021-04-06 14:10:00,21.25,2021-04-06 04:43:00,37.07,2021-04-06 14:10:00,
Makwanpur,Daman,27.5599456,85.1386067,2021-04-06 00:00:00,Clear throughout the day.,clear-day,2021-04-06 05:50:00,2021-04-06 18:25:00,0.83,0.0131,0.1047,2021-04-06 11:48:00,0.04,rain,25.76,2021-04-06 14:04:00,15.19,2021-04-07 05:30:00,25.48,2021-04-06 14:04:00,15.46,2021-04-07 05:30:00,-1.68,0.25,1010.6,1.85,3.28,1617696060,89,0.22,10,1617689400,16.093,272.3,13.64,2021-04-06 05:42:00,25.76,2021-04-06 14:04:00,13.91,2021-04-06 05:42:00,25.48,2021-04-06 14:04:00,
Makwanpur,Hetanuda(Ind. Dist),27.619,85.1496,2021-04-06 00:00:00,Clear throughout the day.,clear-day,2021-04-06 05:50:00,2021-04-06 18:25:00,0.83,0.0126,0.0956,2021-04-06 11:49:00,0.04,rain,26.3,2021-04-06 13:53:00,15.58,2021-04-07 05:36:00,26.02,2021-04-06 13:53:00,15.85,2021-04-07 05:36:00,-1.44,0.26,1010.7,1.77,3.05,1617697260,104,0.21,10,1617689340,16.093,272.3,13.6,2021-04-06 05:42:00,26.3,2021-04-06 13:53:00,13.87,2021-04-06 05:42:00,26.02,2021-04-06 13:53:00,
Makwanpur,Makwanpur Gadhi,27.43333333,85.03333333,2021-04-06 00:00:00,Clear throughout the day.,clear-day,2021-04-06 05:51:00,2021-04-06 18:26:00,0.83,0.008,0.0639,2021-04-06 11:54:00,0.03,rain,34.58,2021-04-06 14:48:00,21.12,2021-04-07 05:27:00,34.3,2021-04-06 14:48:00,21.39,2021-04-07 05:27:00,2.66,0.21,1010.0,2.07,3.19,1617696720,71,0.2,9,1617688080,16.093,273.2,20.21,2021-04-06 05:38:00,34.58,2021-04-06 14:48:00,20.48,2021-04-06 05:38:00,34.3,2021-04-06 14:48:00,
Makwanpur,Manang Bhot,27.635081899999996,84.7416103,2021-04-06 00:00:00,Clear throughout the day.,clear-day,2021-04-06 05:52:00,2021-04-06 18:27:00,0.83,0.0042,0.0316,2021-04-06 11:45:00,0.03,rain,32.35,2021-04-06 14:30:00,19.35,2021-04-07 05:31:00,32.07,2021-04-06 14:30:00,19.62,2021-04-07 05:31:00,0.35,0.21,1009.4,1.7,2.73,1617705960,69,0.17,10,1617688920,16.093,274.3,18.48,2021-04-06 05:38:00,32.35,2021-04-06 14:30:00,18.75,2021-04-06 05:38:00,32.07,2021-04-06 14:30:00,
Makwanpur,Markhu Gaun,27.4227,85.0279,2021-04-06 00:00:00,Clear throughout the day.,clear-day,2021-04-06 05:51:00,2021-04-06 18:26:00,0.83,0.0074,0.0592,2021-04-06 11:55:00,0.03,rain,34.7,2021-04-06 14:49:00,21.26,2021-04-07 05:27:00,34.42,2021-04-06 14:49:00,21.53,2021-04-07 05:27:00,2.6,0.21,1009.9,2.1,3.17,1617697020,70,0.19,9,1617687780,16.093,273.3,20.35,2021-04-06 05:38:00,34.7,2021-04-06 14:49:00,20.62,2021-04-06 05:38:00,34.42,2021-04-06 14:49:00,
Manang,Goga,28.63989694,84.08811583,2021-04-06 00:00:00,Clear throughout the day.,clear-day,2021-04-06 05:54:00,2021-04-06 18:30:00,0.83,0.0381,0.1652,2021-04-06 15:55:00,0.19,rain,8.54,2021-04-06 12:49:00,-2.5,2021-04-07 00:52:00,6.73,2021-04-06 12:45:00,-6.13,2021-04-07 00:53:00,-7.11,0.56,1020.3,2.42,3.85,1617701580,322,0.26,13,1617688800,14.18,263.8,-4.51,2021-04-06 05:48:00,8.54,2021-04-06 12:49:00,-8.47,2021-04-06 05:45:00,6.73,2021-04-06 12:45:00,
Manang,Humde,28.66627083,84.02257194,2021-04-06 00:00:00,Clear throughout the day.,clear-day,2021-04-06 05:54:00,2021-04-06 18:31:00,0.83,0.021,0.0815,2021-04-06 15:30:00,0.19,rain,7.91,2021-04-06 12:43:00,-3.67,2021-04-07 01:05:00,6.07,2021-04-06 12:39:00,-7.02,2021-04-07 01:12:00,-7.46,0.58,1020.7,2.24,3.86,1617700800,282,0.24,13,1617688860,13.298,263.5,-6.22,2021-04-06 05:47:00,7.91,2021-04-06 12:43:00,-9.95,2021-04-06 05:46:00,6.07,2021-04-06 12:39:00,
Manang,Naar,28.76666667,84.28333333,2021-04-06 00:00:00,Foggy overnight and in the evening.,fog,2021-04-06 05:53:00,2021-04-06 18:30:00,0.83,0.0367,0.1777,2021-04-06 16:00:00,0.22,snow,4.7,2021-04-06 13:45:00,-9.76,2021-04-07 05:38:00,2.52,2021-04-06 13:34:00,-15.09,2021-04-07 05:32:00,-11.01,0.61,1021.0,2.56,4.29,1617662820,341,0.28,13,1617689760,13.046,262.6,-9.92,2021-04-06 05:26:00,4.7,2021-04-06 13:45:00,-16.05,2021-04-06 05:24:00,2.52,2021-04-06 13:34:00,0.2
Manang,Phu Gaun,28.55,84.2333333,2021-04-06 00:00:00,Clear throughout the day.,clear-day,2021-04-06 05:53:00,2021-04-06 18:30:00,0.83,0.0984,0.4432,2021-04-06 16:15:00,0.21,rain,11.15,2021-04-06 12:56:00,1.85,2021-04-07 00:05:00,10.92,2021-04-06 13:11:00,-1.09,2021-04-07 00:14:00,-4.44,0.53,1019.2,2.63,4.04,1617697260,341,0.27,13,1617688680,16.093,264.8,0.21,2021-04-06 05:47:00,11.15,2021-04-06 12:56:00,-3.17,2021-04-06 05:44:00,10.92,2021-04-06 13:11:00,
Morang,Biratnagar,29.2160678,83.983333,2021-04-06 21:45:00,Partly cloudy throughout the day.,partly-cloudy-day,2021-04-07 05:53:00,2021-04-07 18:32:00,0.86,0.0401,0.1373,2021-04-07 12:57:00,0.29,rain,8.18,2021-04-07 12:49:00,-6.81,2021-04-08 04:45:00,4.53,2021-04-07 12:44:00,-10.37,2021-04-08 04:45:00,-8.02,0.58,1020.7,3.71,10.88,1617777600,209,0.33,11,1617772680,14.374,265.7,-4.93,2021-04-07 05:25:00,8.18,2021-04-07 12:49:00,-9.02,2021-04-07 21:45:00,4.53,2021-04-07 12:44:00,
Morang,Biratnagar Airport,26.61000889,87.37074778,2021-04-06 00:00:00,Clear throughout the day.,clear-day,2021-04-06 05:42:00,2021-04-06 18:16:00,0.83,0.0028,0.0113,2021-04-06 13:32:00,0.03,rain,36.53,2021-04-06 14:52:00,23.29,2021-04-07 05:33:00,36.25,2021-04-06 14:52:00,23.56,2021-04-07 05:33:00,8.74,0.29,1008.8,2.46,4.53,1617732900,72,0.02,11,1617689400,16.093,273.5,21.77,2021-04-06 05:01:00,36.53,2021-04-06 14:52:00,22.04,2021-04-06 05:01:00,36.25,2021-04-06 14:52:00,
Morang,Gam Shree Nagar,26.73416667,87.50166667,2021-04-06 00:00:00,Clear throughout the day.,clear-day,2021-04-06 05:41:00,2021-04-06 18:15:00,0.83,0.0046,0.0208,2021-04-06 12:57:00,0.05,rain,35.92,2021-04-06 13:55:00,25.08,2021-04-07 05:29:00,35.64,2021-04-06 13:55:00,25.35,2021-04-07 05:29:00,7.93,0.27,1009.4,2.39,4.09,1617646680,54,0.04,11,1617689100,16.093,272.8,22.72,2021-04-06 05:40:00,35.92,2021-04-06 13:55:00,22.99,2021-04-06 05:40:00,35.64,2021-04-06 13:55:00,
Morang,Haraincha,28.46717,84.37307390000001,2021-04-06 00:00:00,Clear throughout the day.,clear-day,2021-04-06 05:53:00,2021-04-06 18:29:00,0.83,0.0779,0.322,2021-04-06 16:33:00,0.19,rain,12.66,2021-04-06 13:04:00,5.5,2021-04-07 00:05:00,12.38,2021-04-06 13:04:00,2.98,2021-04-07 00:10:00,-3.31,0.46,1018.6,2.78,4.35,1617732900,21,0.24,11,1617688740,16.093,265.9,3.34,2021-04-06 05:50:00,12.66,2021-04-06 13:04:00,0.34,2021-04-06 05:46:00,12.38,2021-04-06 13:04:00,
Morang,Letang,26.46666667,87.28333333,2021-04-06 00:00:00,Clear throughout the day.,clear-day,2021-04-06 05:42:00,2021-04-06 18:16:00,0.83,0.0007,0.0051,2021-04-06 02:45:00,0.02,rain,36.34,2021-04-06 14:57:00,21.86,2021-04-07 05:33:00,36.06,2021-04-06 14:57:00,22.13,2021-04-07 05:33:00,9.15,0.31,1008.8,2.59,5.71,1617732900,79,0.01,11,1617689580,16.093,273.6,19.85,2021-04-06 04:41:00,36.34,2021-04-06 14:57:00,20.12,2021-04-06 04:41:00,36.06,2021-04-06 14:57:00,
Morang,Mugu,26.483967,87.26700600000001,2021-04-06 00:00:00,Clear throughout the day.,clear-day,2021-04-06 05:43:00,2021-04-06 18:16:00,0.83,0.0007,0.0051,2021-04-06 02:45:00,0.02,rain,36.34,2021-04-06 14:56:00,21.85,2021-04-07 05:33:00,36.06,2021-04-06 14:56:00,22.12,2021-04-07 05:33:00,9.08,0.31,1008.8,2.58,5.68,1617732900,78,0.01,11,1617689580,16.093,273.7,19.86,2021-04-06 04:41:00,36.34,2021-04-06 14:56:00,20.13,2021-04-06 04:41:00,36.06,2021-04-06 14:56:00,
Mugu,Jomsom,29.50867889,81.89267389,2021-04-06 00:00:00,Mostly cloudy throughout the day.,partly-cloudy-day,2021-04-06 06:02:00,2021-04-06 18:40:00,0.83,0.1105,0.4491,2021-04-07 00:00:00,0.19,rain,23.16,2021-04-06 13:51:00,8.44,2021-04-07 01:46:00,22.88,2021-04-06 13:51:00,8.25,2021-04-07 05:33:00,3.72,0.54,1017.0,1.61,6.57,1617689820,340,0.75,8,1617692100,16.093,273.8,7.78,2021-04-06 05:54:00,23.16,2021-04-06 13:51:00,8.05,2021-04-06 05:54:00,22.88,2021-04-06 13:51:00,
Mugu,Mangri,29.540125,82.081825,2021-04-06 00:00:00,Mostly cloudy throughout the day.,partly-cloudy-day,2021-04-06 06:01:00,2021-04-06 18:39:00,0.83,0.1729,0.439,2021-04-06 00:00:00,0.25,rain,15.78,2021-04-06 13:45:00,2.89,2021-04-07 05:52:00,15.5,2021-04-06 13:45:00,1.58,2021-04-07 05:55:00,-0.69,0.59,1017.6,1.75,6.39,1617690300,313,0.81,8,1617692100,16.093,272.7,2.55,2021-04-06 05:58:00,15.78,2021-04-06 13:45:00,1.5,2021-04-06 06:01:00,15.5,2021-04-06 13:45:00,
Mugu,Rara,29.75,82.55,2021-04-06 00:00:00,Foggy throughout the day.,snow,2021-04-06 05:59:00,2021-04-06 18:37:00,0.83,0.4179,1.4135,2021-04-06 15:52:00,0.52,snow,-0.28,2021-04-06 12:48:00,-8.18,2021-04-07 00:01:00,-4.5,2021-04-06 12:52:00,-12.2,2021-04-07 06:45:00,-5.98,0.96,1021.9,2.54,5.92,1617718380,204,0.93,7,1617690900,3.73,268.9,-9.39,2021-04-06 05:57:00,-0.28,2021-04-06 12:48:00,-12.17,2021-04-06 21:25:00,-4.5,2021-04-06 12:52:00,10.6
Mugu,Seroge,29.58904306,82.30580306,2021-04-06 00:00:00,Mostly cloudy throughout the day.,rain,2021-04-06 06:00:00,2021-04-06 18:38:00,0.83,0.34,1.0132,2021-04-06 15:57:00,0.4,rain,14.42,2021-04-06 13:35:00,4.04,2021-04-07 06:14:00,14.14,2021-04-06 13:35:00,2.27,2021-04-07 06:20:00,0.01,0.61,1019.4,2.14,6.57,1617696180,203,0.84,7,1617689340,14.393,270.5,3.57,2021-04-06 06:01:00,14.42,2021-04-06 13:35:00,2.22,2021-04-06 05:59:00,14.14,2021-04-06 13:35:00,
Mustang,Lete,28.78401111,83.72981667,2021-04-06 00:00:00,Foggy in the afternoon and evening.,fog,2021-04-06 05:55:00,2021-04-06 18:32:00,0.83,0.0114,0.0447,2021-04-06 18:47:00,0.09,rain,11.5,2021-04-06 12:05:00,-0.54,2021-04-07 02:55:00,11.45,2021-04-06 12:10:00,-1.88,2021-04-07 01:46:00,-4.93,0.57,1019.7,2.48,7.22,1617700080,216,0.22,11,1617687780,13.923,264.7,-2.18,2021-04-06 05:52:00,11.5,2021-04-06 12:05:00,-2.12,2021-04-06 05:04:00,11.45,2021-04-06 12:10:00,
Mustang,Mustang(Lomangthang),28.81555556,83.86222222,2021-04-06 00:00:00,Clear throughout the day.,clear-day,2021-04-06 05:55:00,2021-04-06 18:31:00,0.83,0.0101,0.0353,2021-04-06 18:49:00,0.12,rain,9.53,2021-04-06 12:29:00,-3.01,2021-04-07 02:24:00,7.39,2021-04-06 12:23:00,-4.97,2021-04-07 01:49:00,-7.13,0.56,1019.8,2.31,6.3,1617699360,205,0.2,12,1617689040,14.313,264.3,-5.25,2021-04-06 05:47:00,9.53,2021-04-06 12:29:00,-7.29,2021-04-06 05:40:00,7.39,2021-04-06 12:23:00,
Mustang,Ranipauwa (M.Nath),28.73887222,83.68183333,2021-04-06 00:00:00,Foggy in the afternoon and evening.,fog,2021-04-06 05:55:00,2021-04-06 18:32:00,0.83,0.0169,0.0632,2021-04-06 16:35:00,0.12,rain,10.71,2021-04-06 12:07:00,-0.64,2021-04-07 02:36:00,10.69,2021-04-06 12:12:00,-2.69,2021-04-07 01:44:00,-4.65,0.59,1020.0,2.6,6.67,1617700860,227,0.26,11,1617688440,13.761,264.5,-2.26,2021-04-06 05:53:00,10.71,2021-04-06 12:07:00,-4.51,2021-04-06 05:51:00,10.69,2021-04-06 12:12:00,
Mustang,Tatopani,28.9,83.68333333,2021-04-06 00:00:00,Foggy in the afternoon and evening.,fog,2021-04-06 05:55:00,2021-04-06 18:32:00,0.83,0.0154,0.0542,2021-04-06 18:47:00,0.11,rain,9.6,2021-04-06 12:31:00,-3.04,2021-04-07 02:33:00,6.93,2021-04-06 12:23:00,-5.73,2021-04-07 02:20:00,-7.06,0.57,1019.5,2.98,8.93,1617693720,234,0.27,11,1617686520,13.598,264.2,-4.49,2021-04-06 05:55:00,9.6,2021-04-06 12:31:00,-7.66,2021-04-06 05:52:00,6.93,2021-04-06 12:23:00,
Myagdi,Bega,28.4,83.73333333,2021-04-06 00:00:00,Partly cloudy throughout the day.,partly-cloudy-day,2021-04-06 05:55:00,2021-04-06 18:32:00,0.83,0.0295,0.1891,2021-04-06 17:13:00,0.06,rain,17.08,2021-04-06 14:14:00,7.59,2021-04-07 00:23:00,16.8,2021-04-06 14:14:00,5.65,2021-04-07 00:18:00,-5.17,0.35,1014.5,2.65,4.82,1617696900,333,0.38,10,1617688800,16.093,269.5,4.49,2021-04-06 05:50:00,17.08,2021-04-06 14:14:00,2.27,2021-04-06 05:47:00,16.8,2021-04-06 14:14:00,
Myagdi,Beni Bazar,29.22713194,83.979815,2021-04-06 21:45:00,Partly cloudy throughout the day.,partly-cloudy-day,2021-04-07 05:53:00,2021-04-07 18:32:00,0.86,0.0384,0.1311,2021-04-07 12:57:00,0.29,rain,7.94,2021-04-07 12:49:00,-7.18,2021-04-08 04:45:00,4.21,2021-04-07 12:44:00,-10.81,2021-04-08 04:45:00,-8.22,0.58,1020.7,3.75,11.02,1617777720,210,0.33,11,1617772680,14.408,265.7,-5.25,2021-04-07 05:23:00,7.94,2021-04-07 12:49:00,-9.38,2021-04-07 21:45:00,4.21,2021-04-07 12:44:00,
Myagdi,Dumkauli,28.56666667,83.38333333,2021-04-06 00:00:00,Partly cloudy throughout the day.,partly-cloudy-day,2021-04-06 05:57:00,2021-04-06 18:33:00,0.83,0.0771,0.6034,2021-04-06 16:23:00,0.13,rain,17.05,2021-04-06 12:58:00,6.79,2021-04-06 23:57:00,16.77,2021-04-06 12:58:00,4.52,2021-04-07 00:02:00,-2.12,0.44,1017.5,3.11,5.1,1617692580,314,0.36,9,1617688440,16.093,267.5,4.95,2021-04-06 05:55:00,17.05,2021-04-06 12:58:00,2.45,2021-04-06 05:50:00,16.77,2021-04-06 12:58:00,
Myagdi,Ghorepani,28.35083333,83.56666667,2021-04-06 00:00:00,Partly cloudy throughout the day.,partly-cloudy-day,2021-04-06 05:56:00,2021-04-06 18:32:00,0.83,0.043,0.3523,2021-04-06 16:41:00,0.04,rain,26.19,2021-04-06 13:49:00,14.45,2021-04-06 23:55:00,25.91,2021-04-06 13:49:00,14.72,2021-04-06 23:55:00,-0.48,0.3,1014.6,2.64,5.28,1617694320,331,0.33,9,1617688380,16.093,271.1,11.98,2021-04-06 05:46:00,26.19,2021-04-06 13:49:00,12.25,2021-04-06 05:46:00,25.91,2021-04-06 13:49:00,
Myagdi,Muna,28.44271389,83.576185,2021-04-06 00:00:00,Partly cloudy throughout the day.,partly-cloudy-day,2021-04-06 05:56:00,2021-04-06 18:32:00,0.83,0.0497,0.3926,2021-04-06 16:02:00,0.06,rain,22.64,2021-04-06 13:45:00,12.16,2021-04-06 23:13:00,22.36,2021-04-06 13:45:00,12.43,2021-04-06 23:13:00,-1.24,0.34,1015.3,2.91,4.92,1617694260,335,0.34,10,1617688800,16.093,269.7,9.49,2021-04-06 05:51:00,22.64,2021-04-06 13:45:00,8.1,2021-04-06 05:47:00,22.36,2021-04-06 13:45:00,
Nawalparasi,Bara Ghat,27.680675,84.22854170000001,2021-04-06 00:00:00,Clear throughout the day.,clear-day,2021-04-06 05:54:00,2021-04-06 18:29:00,0.83,0.0007,0.0051,2021-04-06 02:45:00,0.01,rain,37.83,2021-04-06 14:56:00,20.6,2021-04-07 05:14:00,37.55,2021-04-06 14:56:00,20.87,2021-04-07 05:14:00,0.43,0.18,1009.0,1.7,4.63,1617700440,14,0.18,10,1617689280,16.093,275.4,18.95,2021-04-06 05:30:00,37.83,2021-04-06 14:56:00,19.22,2021-04-06 05:30:00,37.55,2021-04-06 14:56:00,
Nawalparasi,Dumkibas,27.51925,83.66218333,2021-04-06 00:00:00,Clear throughout the day.,clear-day,2021-04-06 05:56:00,2021-04-06 18:31:00,0.83,0.0011,0.0051,2021-04-06 02:45:00,0.01,rain,37.52,2021-04-06 16:13:00,22.34,2021-04-07 05:20:00,37.24,2021-04-06 16:13:00,22.61,2021-04-07 05:20:00,-0.99,0.15,1007.9,2.41,3.67,1617700620,77,0.09,10,1617688860,16.093,276.5,20.39,2021-04-06 04:44:00,37.52,2021-04-06 16:13:00,20.66,2021-04-06 04:44:00,37.24,2021-04-06 16:13:00,
Nawalparasi,Parasi,27.67488333,84.07438333,2021-04-06 00:00:00,Clear throughout the day.,clear-day,2021-04-06 05:55:00,2021-04-06 18:30:00,0.83,0.001,0.0051,2021-04-06 02:45:00,0.01,rain,36.9,2021-04-06 14:57:00,20.03,2021-04-07 05:15:00,36.62,2021-04-06 14:57:00,20.3,2021-04-07 05:15:00,0.5,0.18,1009.1,1.83,4.72,1617699480,21,0.18,9,1617690000,16.093,275.4,18.32,2021-04-06 05:30:00,36.9,2021-04-06 14:57:00,18.59,2021-04-06 05:30:00,36.62,2021-04-06 14:57:00,
Nawalparasi,Rambas,27.56666667,82.95,2021-04-06 00:00:00,Clear throughout the day.,clear-day,2021-04-06 05:59:00,2021-04-06 18:34:00,0.83,0.0007,0.0051,2021-04-06 02:45:00,0.01,rain,38.92,2021-04-06 16:01:00,22.53,2021-04-07 05:29:00,38.64,2021-04-06 16:01:00,22.8,2021-04-07 05:29:00,-2.18,0.13,1007.6,2.94,4.8,1617702840,88,0.03,11,1617689100,16.093,277.0,20.16,2021-04-06 04:53:00,38.92,2021-04-06 16:01:00,20.43,2021-04-06 04:53:00,38.64,2021-04-06 16:01:00,
Nawalparasi,Trisuli,27.68333333,84.13333333,2021-04-06 00:00:00,Clear throughout the day.,clear-day,2021-04-06 05:54:00,2021-04-06 18:30:00,0.83,0.0,0.0,2021-04-06 02:45:00,0.0,,36.97,2021-04-06 14:55:00,20.22,2021-04-07 05:16:00,36.69,2021-04-06 14:55:00,20.49,2021-04-07 05:16:00,0.36,0.18,1009.0,1.77,4.73,1617699780,17,0.18,9,1617689520,16.093,275.4,18.51,2021-04-06 05:32:00,36.97,2021-04-06 14:55:00,18.78,2021-04-06 05:32:00,36.69,2021-04-06 14:55:00,
